"","collection_no","record_type","formation","lng","lat","collection_name","collection_subset","collection_aka","n_occs","early_interval","late_interval","max_ma","min_ma","reference_no","paleomodel","paleolng","paleolat","geoplate","marine","mid_ma","time_bin","ext"
"2638",8524,"col","H.S. Lee",101.150002,4.3,"H.S. Lee Mine No. 8, Kinta Valley near Kampar",NA,"",3,"Kungurian","",279.3,272.3,578,"gp_mid",111.51,-32.77,"616",1,275.8,"kungurian",1
"3874",14255,"col","Vryheid",30,-26.5,"Ermelo (Erm 111)",NA,"",7,"Kungurian","",279.3,272.3,6188,"gp_mid",-28.03,-65.41,"701",1,275.8,"kungurian",1
"5482",146185,"col","Koshelevka",57.842999,57.780998,"Barda II (PIN collection 1361)",NA,"",1,"Kungurian","",279.3,272.3,47763,"gp_mid",44.64,29.57,"302",1,275.8,"kungurian",1
"6146",122861,"col","Koshelevka",57.722,57.027,"Chekarda, Sylva River (PIN collection 1987)",NA,"Tshekarda",1,"Kungurian","",279.3,272.3,39161,"gp_mid",45.21,29,"302",1,275.8,"kungurian",1
"6986",34100,"col","unnamed",-92.196671,81.228889,"Svartevaeg Cliffs",NA,"Axel Heiberg Island",42,"Kungurian","",279.3,272.3,8969,"gp_mid",5.22,37.51,"106",1,275.8,"kungurian",1
"10496",40948,"col","Juan de Morales",-69.333336,-20.136999,"Cerro Juan de Morales, Unit 7, Quebrada Honda",NA,"",1,"Kungurian","",279.3,272.3,28157,"gp_mid",-45.29,-32.4,"201",1,275.8,"kungurian",1
"10953",111188,"col","Koshelevka",57.268002,57.424999,"Posadskij Log, Sylva river",NA,"",1,"Kungurian","",279.3,272.3,36456,"gp_mid",44.69,29.11,"302",1,275.8,"kungurian",1
"16158",108487,"col","Shaksgam",76.75,35.845001,"KM51, Urdok Doors section, Shaksgam Valley",NA,"",2,"Kungurian","",279.3,272.3,34296,"gp_mid",60.94,-29.07,"612",1,275.8,"kungurian",1
"16326",50995,"col","Qixia",111.900002,27.93,"Xiandong, Lianyuan County",NA,"",1,"Kungurian","",279.3,272.3,37530,"gp_mid",123.08,-6.87,"611",1,275.8,"kungurian",1
"16783",51562,"col","H. S. Lee",101.099998,4.283,"H.S. Lee Mine No. 8, just above alatoconchid zone, Kinta Valley",NA,"",4,"Kungurian","",279.3,272.3,13715,"gp_mid",111.54,-32.81,"616",1,275.8,"kungurian",1
"16787",51566,"col","H.S. Lee",101.099998,4.283,"H.S. Lee Mine No. 8, alatoconchid zone, Kinta Valley",NA,"",10,"Kungurian","",279.3,272.3,13717,"gp_mid",111.54,-32.81,"616",1,275.8,"kungurian",1
"19255",116126,"col","Qixia",109.230003,23.709999,"Laibin H64, Hongqiao Section",NA,"",1,"Kungurian","",279.3,272.3,11689,"gp_mid",124.72,-11.44,"611",1,275.8,"kungurian",1
"22841",62131,"col","H.S. Lee",101.150002,4.3,"H.S. Lee Mine No. 8, Kinta Valley near Kampar",8524,"",102,"Kungurian","",279.3,272.3,15741,"gp_mid",111.51,-32.77,"616",1,275.8,"kungurian",1
"22980",62454,"col","Yongde",98.949997,23.58,"Xiaoxinzhai Section, Bed 1",NA,"",4,"Kungurian","",279.3,272.3,18039,"gp_mid",88.31,-36.47,"616",1,275.8,"kungurian",1
"22981",62455,"col","Yongde",98.949997,23.58,"Xiaoxinzhai Section, Bed 3",NA,"",5,"Kungurian","",279.3,272.3,18039,"gp_mid",88.31,-36.47,"616",1,275.8,"kungurian",1
"25094",66112,"col","",112.925003,27.610001,"Changlingpu, Tanchiashan, Xiangtan County (Chao coll)",NA,"Tanjiashan",29,"Kungurian","",279.3,272.3,39944,"gp_mid",123.91,-6.38,"611",1,275.8,"kungurian",1
"25096",66114,"col","Dangchong",111.258003,26.983,"Jiangjiachong, southern Shaoyang City",NA,"",5,"Kungurian","",279.3,272.3,18933,"gp_mid",123.43,-7.91,"611",1,275.8,"kungurian",1
"25097",66115,"col","Talata",62.599998,69.5,"Liur-yaga Creek, Talata Svita, Pai-Khoy Range",NA,"",3,"Kungurian","",279.3,272.3,18934,"gp_mid",35.26,38.61,"302",1,275.8,"kungurian",1
"25100",66118,"col","Lekvorkutskaya",59.299999,69.949997,"Vaigach Island, Sample 51v",NA,"",1,"Kungurian","",279.3,272.3,18934,"gp_mid",33.95,37.94,"302",1,275.8,"kungurian",1
"30347",75810,"col","Qixia",109.231003,23.709999,"Tieqiao Section, Laibin, Bed 75",NA,"",6,"Kungurian","",279.3,272.3,33736,"gp_mid",124.72,-11.44,"611",1,275.8,"kungurian",1
"30348",75811,"col","Qixia",109.234001,23.709,"Tieqiao Section, Laibin, Bed 99",NA,"",4,"Kungurian","",279.3,272.3,33736,"gp_mid",124.72,-11.44,"611",1,275.8,"kungurian",1
"30349",75812,"col","Maokou",109.234001,23.708,"Tieqiao Section, Laibin, Bed 100",NA,"",5,"Kungurian","",279.3,272.3,17936,"gp_mid",124.72,-11.44,"611",1,275.8,"kungurian",1
"30350",75813,"col","Maokou",109.234001,23.708,"Tieqiao Section, Laibin, Bed 101",NA,"",4,"Kungurian","",279.3,272.3,17936,"gp_mid",124.72,-11.44,"611",1,275.8,"kungurian",1
"30351",75814,"col","Maokou",109.235001,23.708,"Tieqiao Section, Laibin, Bed 108",NA,"",1,"Kungurian","",279.3,272.3,17936,"gp_mid",124.72,-11.44,"611",1,275.8,"kungurian",1
"31906",79426,"col","Kozhym",59.530556,65.75,"Kozhim River, Kozhym fm., Komi",NA,"",1,"Kungurian","",279.3,272.3,26636,"gp_mid",38.17,35.44,"302",1,275.8,"kungurian",1
"32500",81144,"col","Lekvorkuta",59.950001,67.050003,"Adz'vinskoe Coalfield, Well SDK-75, 460 m, Pechora Basin",NA,"",1,"Kungurian","",279.3,272.3,27341,"gp_mid",37.03,36.38,"302",1,275.8,"kungurian",1
"32501",81145,"col","Adz'va",59.950001,67.050003,"Adz'va River, Pechora Basin",NA,"",8,"Kungurian","",279.3,272.3,27341,"gp_mid",37.03,36.38,"302",1,275.8,"kungurian",1
"32502",81146,"col","Sherkirtinskie",60.799999,67.184998,"Adz'va River, Section 151, Bed 10, Pechora Basin",NA,"",2,"Kungurian","",279.3,272.3,27342,"gp_mid",37.15,36.72,"302",1,275.8,"kungurian",1
"32503",81147,"col","Adz'va",60.799999,67.184998,"Adz'va River, Section Ch-42, Adz'va Svita, Pechora Basin",NA,"",2,"Kungurian","",279.3,272.3,27342,"gp_mid",37.15,36.72,"302",1,275.8,"kungurian",1
"32504",81148,"col","Adz'va",60.799999,67.184998,"Adz'va River, Section Ch-43, Adz'va Svita, Pechora Basin",NA,"",2,"Kungurian","",279.3,272.3,27342,"gp_mid",37.15,36.72,"302",1,275.8,"kungurian",1
"32505",81149,"col","Talatin",60.799999,67.184998,"Adz'va River, Section Ch-42, Talatin Svita, Pechora Basin",NA,"",2,"Kungurian","",279.3,272.3,27342,"gp_mid",37.15,36.72,"302",1,275.8,"kungurian",1
"32506",81150,"col","",60.799999,67.184998,"Adz'va River, Section Ch-42, Bed 28, Sample 42, Pechora Basin",NA,"",1,"Kungurian","",279.3,272.3,27342,"gp_mid",37.15,36.72,"302",1,275.8,"kungurian",1
"32507",81151,"col","Lekvorkuta",60.799999,67.184998,"Adz'va River, Section Ch-42, Lekvorkuta Svita, Pechora Basin",NA,"",1,"Kungurian","",279.3,272.3,27343,"gp_mid",37.15,36.72,"302",1,275.8,"kungurian",1
"32508",81152,"col","Lekvorkuta",60.799999,67.184998,"Adz'va River, Section 176, Bed 28, Pechora Basin",NA,"",1,"Kungurian","",279.3,272.3,27342,"gp_mid",37.15,36.72,"302",1,275.8,"kungurian",1
"32621",81390,"col","Gadikao",94.199997,33.125,"Danglangzhai D1, Member 1",NA,"",6,"Kungurian","",279.3,272.3,27413,"gp_mid",77.65,-31.47,"612",1,275.8,"kungurian",1
"32622",81391,"col","Gadikao",94.199997,33.125,"Danglangzhai D16, Member 3",NA,"",1,"Kungurian","",279.3,272.3,27413,"gp_mid",77.65,-31.47,"612",1,275.8,"kungurian",1
"32623",81392,"col","Gadikao",94.199997,33.125,"Danglangzhai D37, Member 5",NA,"",2,"Kungurian","",279.3,272.3,27413,"gp_mid",77.65,-31.47,"612",1,275.8,"kungurian",1
"32634",81403,"col","Koshelevskaya",56.939999,57.860001,"Alexandrovka Village, Sverdlovsk Region",NA,"",1,"Kungurian","",279.3,272.3,27425,"gp_mid",44.19,29.28,"302",1,275.8,"kungurian",1
"32966",81988,"col","Dangchong",113.25,27.5,"Anpo Village, Bed 1, Junba, Zhuzhou County",NA,"",4,"Kungurian","",279.3,272.3,27649,"gp_mid",124.18,-6.23,"611",1,275.8,"kungurian",1
"33187",82285,"col","Kaeng Krachan",100.261002,7.204,"Ban Kan Rae HY13, Hat Yai Area",NA,"",5,"Kungurian","",279.3,272.3,27735,"gp_mid",108.28,-34.17,"616",1,275.8,"kungurian",1
"33335",82434,"col","Koshelevskaya",57.842999,57.779999,"Barda River, Sylva River Basin, Perm Region",NA,"",1,"Kungurian","",279.3,272.3,27425,"gp_mid",44.64,29.57,"302",1,275.8,"kungurian",1
"33908",83276,"col","",148.800003,-21.75,"BMR Du2158, Tatarus Homestead",NA,"",3,"Kungurian","",279.3,272.3,27370,"gp_mid",155.54,-57.81,"801",1,275.8,"kungurian",1
"35430",85857,"col","",149.380005,-22.355,"BMR SL346, Ripplebrook Homestead",NA,"",3,"Kungurian","",279.3,272.3,27370,"gp_mid",156.88,-58.2,"801",1,275.8,"kungurian",1
"35434",85861,"col","",148.973007,-22.040001,"BMR SL603, Main Range Creek",NA,"",2,"Kungurian","",279.3,272.3,27370,"gp_mid",156.01,-58.03,"801",1,275.8,"kungurian",1
"35435",85862,"col","",149,-22.105,"BMR SL608, Saltbush Park Turnoff",NA,"",2,"Kungurian","",279.3,272.3,27370,"gp_mid",156.09,-58.08,"801",1,275.8,"kungurian",1
"35436",85863,"col","",149.220001,-22.530001,"BMR SL643, Yatton Creek",NA,"",5,"Kungurian","",279.3,272.3,27370,"gp_mid",156.73,-58.42,"801",1,275.8,"kungurian",1
"35561",86034,"col","Talata",58,65.5,"Bol'shaya Sinya River, Chernogo Creek, Talata Svita, Southern Chernyschev Ridge",NA,"",1,"Kungurian","",279.3,272.3,27341,"gp_mid",37.91,34.79,"302",1,275.8,"kungurian",1
"35562",86035,"col","Talata",58,65.5,"Bol'shaya Sinya River, Asselian, Southern Chernyschev Ridge",NA,"",1,"Kungurian","",279.3,272.3,27341,"gp_mid",37.91,34.79,"302",1,275.8,"kungurian",1
"35564",86037,"col","Talata",61.200001,69.099998,"Bolshaya Talota River, Outcrop 3, Bed 50, Sample 99, Pai-Khoy Range",NA,"",2,"Kungurian","",279.3,272.3,27342,"gp_mid",35.32,37.97,"302",1,275.8,"kungurian",1
"35565",86038,"col","Talata",61.200001,69.099998,"Bolshaya Talota River, Outcrop 3, Bed 6, Sample 61, Pai-Khoy Range",NA,"",1,"Kungurian","",279.3,272.3,27342,"gp_mid",35.32,37.97,"302",1,275.8,"kungurian",1
"35566",86039,"col","Talata",61.200001,69.099998,"Bolshaya Talota River, Outcrop 3, Sample 73, Pai-Khoy Range",NA,"",1,"Kungurian","",279.3,272.3,27342,"gp_mid",35.32,37.97,"302",1,275.8,"kungurian",1
"35567",86040,"col","Talata",61.200001,69.099998,"Bolshaya Talota River, Outcrop 3, Sample 82, Pai-Khoy Range",NA,"",1,"Kungurian","",279.3,272.3,27342,"gp_mid",35.32,37.97,"302",1,275.8,"kungurian",1
"35847",86597,"col","Chuping",100.235001,6.545,"Bukit Tungku Lembu, Perlis State",NA,"",1,"Kungurian","",279.3,272.3,29176,"gp_mid",109.07,-34.08,"616",1,275.8,"kungurian",1
"37157",88404,"col","Lekvorkuta",57.540001,66.010002,"Usinskoe coalfield, Well UK-183, 284 m, Pechora Basin",NA,"",2,"Kungurian","",279.3,272.3,27341,"gp_mid",37.29,34.98,"302",1,275.8,"kungurian",1
"37566",88905,"col","Lekvorkuta",51.485001,62.764999,"Chernaya River, Chernorechenskoe coalfield, Pechora Basin",NA,"",3,"Kungurian","",279.3,272.3,27341,"gp_mid",37.98,30.85,"302",1,275.8,"kungurian",1
"37580",88920,"col","Lekvorkuta",64,66,"Chernorechen Coalfield, Well IK-873, Depth 83 m, Pechora Basin",NA,"",1,"Kungurian","",279.3,272.3,27341,"gp_mid",39.28,37.05,"302",1,275.8,"kungurian",1
"37581",88921,"col","Ayach'yaga",64,66,"Chernorechen Coalfield, Well IK-875, Depth 138.8 m, Pechora Basin",NA,"",1,"Kungurian","",279.3,272.3,29808,"gp_mid",39.28,37.05,"302",1,275.8,"kungurian",1
"37784",89347,"col","Qixia",106.805,30.183001,"Chuanmu Section, Bed 35, Huaying Mountains",NA,"",2,"Kungurian","",279.3,272.3,29970,"gp_mid",118.38,-8.67,"611",1,275.8,"kungurian",1
"38544",91018,"col","Mizuyagadani",137,36,"ich-070612, Ichinotani Valley - lower member [Mizuyagadani Fm]",NA,"",5,"Kungurian","",279.3,272.3,30619,"gp_mid",133.69,12.92,"610",1,275.8,"kungurian",1
"40931",94838,"col","Lekvorkuta",64.175003,67.684998,"Vorkutskoe Coalfield, Well K-896, 24 m, Pechora Basin",NA,"",1,"Kungurian","",279.3,272.3,27341,"gp_mid",37.59,38.06,"302",1,275.8,"kungurian",1
"40932",94839,"col","Lekvorkuta",60.799999,67.184998,"Adz'va River, Sample Ch-42-90, Talbeyskoe",NA,"",1,"Kungurian","",279.3,272.3,31800,"gp_mid",37.15,36.72,"302",1,275.8,"kungurian",1
"40933",94840,"col","Lekvorkuta",60.799999,67.184998,"Adz'va River, Talbeyskoe",NA,"",1,"Kungurian","",279.3,272.3,31800,"gp_mid",37.15,36.72,"302",1,275.8,"kungurian",1
"40934",94841,"col","Lekvorkuta",59.950001,67.050003,"Adz'va River, Well BK-1326, 700 m depth, Pechora Basin",NA,"",1,"Kungurian","",279.3,272.3,27341,"gp_mid",37.03,36.38,"302",1,275.8,"kungurian",1
"41136",95050,"col","Lekvorkuta",62.599998,69.5,"Bolshaya Sir'yaga, Outcrop 53, Bed 10",NA,"",1,"Kungurian","",279.3,272.3,27342,"gp_mid",35.26,38.61,"302",1,275.8,"kungurian",1
"41737",95692,"col","",106.93,33.095001,"Lean-Chan, Shensi meridional",NA,"Liangshan, Hanzhong County",2,"Kungurian","",279.3,272.3,32502,"gp_mid",116.33,-6.59,"611",1,275.8,"kungurian",1
"41943",95915,"col","Qixia",106.815002,26.1,"Baijin, Huishui",NA,"",1,"Kungurian","",279.3,272.3,32576,"gp_mid",121.41,-11.47,"611",1,275.8,"kungurian",1
"41945",95917,"col","Qixia",106.080002,25.985001,"Chang'er, Maoying, Ziyun County",NA,"",1,"Kungurian","",279.3,272.3,32576,"gp_mid",121.03,-12.03,"611",1,275.8,"kungurian",1
"41946",95918,"col","Qixia",106.099998,25.75,"Changliujing, Ziyun County",NA,"",1,"Kungurian","",279.3,272.3,32576,"gp_mid",121.22,-12.17,"611",1,275.8,"kungurian",1
"41949",95921,"col","Qixia",106.712997,27.917,"Dingcun, Zunyi County",NA,"",3,"Kungurian","",279.3,272.3,32576,"gp_mid",120,-10.29,"611",1,275.8,"kungurian",1
"41950",95922,"col","Qixia",108.675003,28.26,"Dongjiaping, Ganlong, Songtao",NA,"",1,"Kungurian","",279.3,272.3,32576,"gp_mid",120.93,-8.79,"611",1,275.8,"kungurian",1
"41952",95924,"col","Qixia",106.559998,25.41,"Goupizhai, Machang, Fengting, Luodian County",NA,"",1,"Kungurian","",279.3,272.3,32576,"gp_mid",121.76,-12.1,"611",1,275.8,"kungurian",1
"41954",95926,"col","Qixia",107.550003,26.25,"Guanshang, Duyun County",NA,"",1,"Kungurian","",279.3,272.3,32576,"gp_mid",121.75,-10.88,"611",1,275.8,"kungurian",1
"41958",95930,"col","Qixia",106.065002,25.985001,"Houyao, Maoying, Ziyun County",NA,"",3,"Kungurian","",279.3,272.3,32576,"gp_mid",121.02,-12.04,"611",1,275.8,"kungurian",1
"41965",95937,"col","Qixia",106.57,25.91,"Jiarong, Qixia Fm, Huishui County",NA,"",1,"Kungurian","",279.3,272.3,32576,"gp_mid",121.4,-11.76,"611",1,275.8,"kungurian",1
"41967",95939,"col","Qixia",106.565002,26.087999,"Keao, Qixia Fm, Maoying, Ziyun",NA,"",1,"Kungurian","",279.3,272.3,32576,"gp_mid",121.26,-11.64,"611",1,275.8,"kungurian",1
"41970",95942,"col","Qixia",107.900002,25.4,"Laojialiang, Libo",NA,"",1,"Kungurian","",279.3,272.3,32576,"gp_mid",122.61,-11.22,"611",1,275.8,"kungurian",1
"41972",95944,"col","Qixia",106.93,27.700001,"Leishakan, Ziyun County",NA,"",1,"Kungurian","",279.3,272.3,32576,"gp_mid",120.29,-10.3,"611",1,275.8,"kungurian",1
"41974",95946,"col","Qixia",107.469002,26.066999,"Ma'anshan, Duyun County",NA,"",2,"Kungurian","",279.3,272.3,32576,"gp_mid",121.84,-11.06,"611",1,275.8,"kungurian",1
"41976",95948,"col","Qixia",106.042,26.542999,"Maochang, Qixia Fm, Zhijin County",NA,"",1,"Kungurian","",279.3,272.3,32576,"gp_mid",120.59,-11.67,"611",1,275.8,"kungurian",1
"41979",95951,"col","Qixia",107.040001,27.405001,"Maolixi, Zunyi County",NA,"",1,"Kungurian","",279.3,272.3,32576,"gp_mid",120.58,-10.43,"611",1,275.8,"kungurian",1
"41980",95952,"col","Qixia",106.848999,26.632999,"Miaotian, Wudang, Guiyang",NA,"",1,"Kungurian","",279.3,272.3,32576,"gp_mid",121.03,-11.08,"611",1,275.8,"kungurian",1
"41981",95953,"col","Qixia",107.265999,27.292999,"Muyincao, Zhuzang, Weng'an County",NA,"",1,"Kungurian","",279.3,272.3,32576,"gp_mid",120.8,-10.36,"611",1,275.8,"kungurian",1
"41989",95961,"col","Qixia",108.5,28.6,"Shazichang, Qixia Fm, Yanhe County",NA,"",4,"Kungurian","",279.3,272.3,32576,"gp_mid",120.57,-8.67,"611",1,275.8,"kungurian",1
"41991",95963,"col","Qixia",106.400002,25.1,"Shihuiyao, Qixia Fm, Renhuai County",NA,"",3,"Kungurian","",279.3,272.3,32576,"gp_mid",121.89,-12.42,"611",1,275.8,"kungurian",1
"41993",95965,"col","Qixia",107.040001,26.712999,"Taizishan, Ximahe, Longli County",NA,"",1,"Kungurian","",279.3,272.3,32576,"gp_mid",121.09,-10.9,"611",1,275.8,"kungurian",1
"42382",96849,"col","",57.785,63.924999,"Kobylka River, Outcrop 1",NA,"",1,"Kungurian","",279.3,272.3,33048,"gp_mid",39.29,33.7,"302",1,275.8,"kungurian",1
"42383",96850,"col","",57.785,63.924999,"Kobylka River, Outcrop 7",NA,"",3,"Kungurian","",279.3,272.3,33048,"gp_mid",39.29,33.7,"302",1,275.8,"kungurian",1
"42384",96851,"col","",57.785,63.924999,"Kobylka River, Outcrop 11",NA,"",1,"Kungurian","",279.3,272.3,33048,"gp_mid",39.29,33.7,"302",1,275.8,"kungurian",1
"42385",96852,"col","",57.785,63.924999,"Kobylka River, Outcrop 14",NA,"",3,"Kungurian","",279.3,272.3,33048,"gp_mid",39.29,33.7,"302",1,275.8,"kungurian",1
"42386",96853,"col","",57.785,63.924999,"Kobylka River, Outcrop 17",NA,"",1,"Kungurian","",279.3,272.3,33048,"gp_mid",39.29,33.7,"302",1,275.8,"kungurian",1
"42392",96859,"col","",53.09,67.660004,"Pechora river near Naryan-Mar, Borehole 146, 1680 m depth",NA,"",1,"Kungurian","",279.3,272.3,33064,"gp_mid",34.37,34.75,"302",1,275.8,"kungurian",1
"42453",97001,"col","Solikamsk",56.400002,58.5,"Dobryanskoye, Western Urals",NA,"Dobryanka, Middle Preurals",5,"Kungurian","",279.3,272.3,27332,"gp_mid",43.44,29.53,"302",1,275.8,"kungurian",1
"42737",97302,"col","Qixia",107.550003,25.82,"Dushan, Qixia Fm, Qiannan County",NA,"",1,"Kungurian","",279.3,272.3,33187,"gp_mid",122.08,-11.17,"611",1,275.8,"kungurian",1
"43123",98046,"col","Qixia",110.574997,30.68,"BY84, Liushutang, Maanshan area",NA,"",1,"Kungurian","",279.3,272.3,47247,"gp_mid",120.22,-5.94,"611",1,275.8,"kungurian",1
"43136",98060,"col","Qixia",106.925003,27.745001,"Shizipu, Qixia Fm, Zunyi County",NA,"",1,"Kungurian","",279.3,272.3,33913,"gp_mid",120.25,-10.27,"611",1,275.8,"kungurian",1
"43139",98063,"col","Qixia",106.959999,25.040001,"Shiangyang Village, Tian'e County",NA,"Xiangyang",1,"Kungurian","",279.3,272.3,33907,"gp_mid",122.29,-12.09,"611",1,275.8,"kungurian",1
"43184",98116,"col","Lekvorkuta",64.629997,67.839996,"Khalmeryuskoe Coalfield, Well KhK-839, 394 m, Pechora Basin",NA,"",1,"Kungurian","",279.3,272.3,27341,"gp_mid",37.55,38.29,"302",1,275.8,"kungurian",1
"43185",98117,"col","Lekvorkuta",64.175003,67.684998,"Vorkutskoe Coalfield, Well K-907, 289 m, Pechora Basin",NA,"",1,"Kungurian","",279.3,272.3,27341,"gp_mid",37.59,38.06,"302",1,275.8,"kungurian",1
"44623",100054,"col","Liangshan",110.105003,29.584999,"Rencunping section, bed 2-4, RCF2, Sangzhi County",NA,"",2,"Kungurian","",279.3,272.3,34347,"gp_mid",120.78,-6.97,"611",1,275.8,"kungurian",1
"44624",100055,"col","Qixia",110.105003,29.584999,"Rencunping section, bed 5, RCF3, Sangzhi County",NA,"",2,"Kungurian","",279.3,272.3,34347,"gp_mid",120.78,-6.97,"611",1,275.8,"kungurian",1
"44625",100056,"col","Qixia",110.105003,29.584999,"Rencunping section, bed 5, RCF4, Sangzhi County",NA,"",2,"Kungurian","",279.3,272.3,34347,"gp_mid",120.78,-6.97,"611",1,275.8,"kungurian",1
"44626",100057,"col","Qixia",110.105003,29.584999,"Rencunping section, bed 6, RCF5, Sangzhi County",NA,"",2,"Kungurian","",279.3,272.3,34347,"gp_mid",120.78,-6.97,"611",1,275.8,"kungurian",1
"44627",100058,"col","Qixia",110.105003,29.584999,"Rencunping section, bed 6, RCF6, Sangzhi County",NA,"",5,"Kungurian","",279.3,272.3,34347,"gp_mid",120.78,-6.97,"611",1,275.8,"kungurian",1
"44628",100059,"col","Qixia",110.105003,29.584999,"Rencunping section, bed 6, RCF7, Sangzhi County",NA,"",1,"Kungurian","",279.3,272.3,34347,"gp_mid",120.78,-6.97,"611",1,275.8,"kungurian",1
"44629",100060,"col","Qixia",110.105003,29.584999,"Rencunping section, bed 7, RCF8, Sangzhi County",NA,"",3,"Kungurian","",279.3,272.3,34347,"gp_mid",120.78,-6.97,"611",1,275.8,"kungurian",1
"44630",100061,"col","Qixia",110.105003,29.584999,"Rencunping section, bed 8, RCF9, Sangzhi County",NA,"",7,"Kungurian","",279.3,272.3,34347,"gp_mid",120.78,-6.97,"611",1,275.8,"kungurian",1
"44631",100062,"col","Qixia",110.105003,29.584999,"Rencunping section, bed 9, RCF10, Sangzhi County",NA,"",3,"Kungurian","",279.3,272.3,34347,"gp_mid",120.78,-6.97,"611",1,275.8,"kungurian",1
"44632",100063,"col","Qixia",110.105003,29.584999,"Rencunping section, bed 9, RCF11, Sangzhi County",NA,"",3,"Kungurian","",279.3,272.3,34347,"gp_mid",120.78,-6.97,"611",1,275.8,"kungurian",1
"44633",100064,"col","Qixia",110.105003,29.584999,"Rencunping section, bed 9, RCF12, Sangzhi County",NA,"",1,"Kungurian","",279.3,272.3,34347,"gp_mid",120.78,-6.97,"611",1,275.8,"kungurian",1
"45096",100763,"col","Qixia",114.044998,27.65,"Hujiafang, Pingxiang County",NA,"",1,"Kungurian","",279.3,272.3,34487,"gp_mid",124.52,-5.59,"611",1,275.8,"kungurian",1
"45097",100764,"col","Qixia",114.629997,27.23,"Xiaojiangbian, Qixia Fm, Anfu County",NA,"",4,"Kungurian","",279.3,272.3,34487,"gp_mid",125.17,-5.45,"611",1,275.8,"kungurian",1
"45099",100766,"col","",114.25,27,"Yongxin",NA,"",1,"Kungurian","",279.3,272.3,34487,"gp_mid",125.14,-5.86,"611",1,275.8,"kungurian",1
"45116",100783,"col","Qixia",114.949997,27.75,"Daxianfeng, Xinyu County",NA,"",1,"Kungurian","",279.3,272.3,34487,"gp_mid",124.94,-4.9,"611",1,275.8,"kungurian",1
"45132",100799,"col","Qixia",113.900002,27.049999,"Lianhua County",NA,"",1,"Kungurian","",279.3,272.3,34487,"gp_mid",124.9,-6.07,"611",1,275.8,"kungurian",1
"45523",101468,"col","Qixia",115.779999,25.58,"Luoxianshan, Huichang County",NA,"",1,"Kungurian","",279.3,272.3,34593,"gp_mid",127.11,-5.67,"611",1,275.8,"kungurian",1
"45528",101475,"col","Qixia",114.474998,28.219999,"Sanxing, Wanzai County",NA,"",1,"Kungurian","",279.3,272.3,34593,"gp_mid",124.31,-4.93,"611",1,275.8,"kungurian",1
"45592",101592,"col","Dangchong",111.449997,27.66,"Shenjiachong, Lijialong, Lianyuan County",NA,"",1,"Kungurian","",279.3,272.3,18305,"gp_mid",123.02,-7.34,"611",1,275.8,"kungurian",1
"45594",101594,"col","Qixia",112.949997,27.65,"Tudi Monastery, Tanjiashan, Xiangtan County",NA,"",2,"Kungurian","",279.3,272.3,27649,"gp_mid",123.9,-6.34,"611",1,275.8,"kungurian",1
"45597",101597,"col","Dangchong",112.900002,27.549999,"Yejiquan, Zhonglupu, Xiangtan County",NA,"",8,"Kungurian","",279.3,272.3,27649,"gp_mid",123.94,-6.43,"611",1,275.8,"kungurian",1
"45677",101683,"col","Tabyo",63.549999,69.550003,"Nonza River, Pai-Khoy Range",NA,"",2,"Kungurian","",279.3,272.3,27341,"gp_mid",35.45,38.91,"302",1,275.8,"kungurian",1
"45680",101686,"col","Tabyo",63.5,69.5,"Vas'-Yaga River, Pai-Khoy Mountains",NA,"",3,"Kungurian","",279.3,272.3,42617,"gp_mid",35.49,38.87,"302",1,275.8,"kungurian",1
"45685",101691,"col","Khovsgol",109.900002,43.549999,"Khubsugul Aymak",NA,"",1,"Kungurian","",279.3,272.3,33435,"gp_mid",118.62,34.64,"628",1,275.8,"kungurian",1
"45689",101695,"col","",58.700001,62.450001,"Kos'yu River, western Urals",NA,"",1,"Kungurian","",279.3,272.3,27542,"gp_mid",40.94,33.04,"302",1,275.8,"kungurian",1
"45705",101723,"col","",59.5,65.75,"Kozhim River, Saraninian horizon, Pechora Basin",NA,"",1,"Kungurian","",279.3,272.3,29345,"gp_mid",38.16,35.43,"302",1,275.8,"kungurian",1
"45734",101757,"col","Vil'skaya",52.700001,67.050003,"Sula River, below mouth of Shchuch'ya River",NA,"",1,"Kungurian","",279.3,272.3,31711,"gp_mid",34.79,34.22,"302",1,275.8,"kungurian",1
"45993",102108,"col","Qixia",114.967003,28.115,"Mengshan, Shanggao County",NA,"",1,"Kungurian","",279.3,272.3,34698,"gp_mid",124.67,-4.66,"611",1,275.8,"kungurian",1
"46205",102394,"col","Gusinozemelskaya",52.533001,71.359001,"Mezhdusharsky Island, Collection 4-164, Novaya Zemlya",NA,"",2,"Kungurian","",279.3,272.3,29395,"gp_mid",30.8,37.07,"302",1,275.8,"kungurian",1
"46222",102489,"col","Koshelevskaya",57.799999,56.73,"Podgornaya Village, Krasnoufimsk, Sverdlovsk Region",NA,"",2,"Kungurian","",279.3,272.3,27425,"gp_mid",45.49,28.83,"302",1,275.8,"kungurian",1
"46565",103038,"col","",149,-22.105,"GSQ D33, Bombandy Point, Saltbush Park Homestead",NA,"",2,"Kungurian","",279.3,272.3,27370,"gp_mid",156.09,-58.08,"801",1,275.8,"kungurian",1
"46871",103461,"col","Qixia",108.269997,29.905001,"Lengshuixi, Qixia Fm, Shizhu County",NA,"",2,"Kungurian","",279.3,272.3,34903,"gp_mid",119.46,-7.94,"611",1,275.8,"kungurian",1
"46885",103475,"col","Qixia",108.359001,29.726,"Zhangjiaba, Xiangzi, Shizhu County",NA,"",1,"Kungurian","",279.3,272.3,34903,"gp_mid",119.65,-8,"611",1,275.8,"kungurian",1
"46900",103495,"col","",148,-21,"GSQ L421, Stockton 27",NA,"",2,"Kungurian","",279.3,272.3,27370,"gp_mid",153.79,-57.33,"801",1,275.8,"kungurian",1
"46920",103553,"col","",149,-22.1,"GSQ L787, Saltbush Park",NA,"",4,"Kungurian","",279.3,272.3,27370,"gp_mid",156.09,-58.08,"801",1,275.8,"kungurian",1
"47001",103639,"col","Solikamsk",56.485001,59.838001,"Tyulkino, PIN collection 3474, Kama River",NA,"",20,"Kungurian","",279.3,272.3,34959,"gp_mid",42.36,30.49,"302",1,275.8,"kungurian",1
"47052",103694,"col","Elderslie",151.279999,-32.655998,"UNE L1158, Belford Railway Cutting",NA,"",2,"Kungurian","",279.3,272.3,36711,"gp_mid",169.61,-66.89,"801",1,275.8,"kungurian",1
"47079",103721,"col","Branxton",151.600006,-32.650002,"UNE L1348, Mindaribba Area",NA,"",1,"Kungurian","",279.3,272.3,27370,"gp_mid",170.2,-66.74,"801",1,275.8,"kungurian",1
"47124",103778,"col","Elderslie",151.787994,-32.724998,"UNE L845, Pacific Highway, Raymond Terrace",NA,"",3,"Kungurian","",279.3,272.3,33598,"gp_mid",170.64,-66.73,"801",1,275.8,"kungurian",1
"47360",104785,"col","Elderslie",151.498001,-32.672001,"UQ L5118, Gosforth",NA,"",1,"Kungurian","",279.3,272.3,27370,"gp_mid",170.04,-66.81,"801",1,275.8,"kungurian",1
"47361",104786,"col","Elderslie",151.787994,-32.724998,"UQ L5119, Raymond Terrace",NA,"",1,"Kungurian","",279.3,272.3,27370,"gp_mid",170.64,-66.73,"801",1,275.8,"kungurian",1
"47847",105451,"col","Qixia",111.964996,27.165001,"Baohetang Shashi, Shaodong County",NA,"",1,"Kungurian","",279.3,272.3,35244,"gp_mid",123.7,-7.32,"611",1,275.8,"kungurian",1
"47850",105454,"col","Qixia",109.650002,30.030001,"Changtan River, Qixia Fm, Xuan'en County",NA,"",4,"Kungurian","",279.3,272.3,35244,"gp_mid",120.18,-6.97,"611",1,275.8,"kungurian",1
"47852",105456,"col","Qixia",111.199997,30.459999,"Changyang County, Qixia Fm",NA,"",1,"Kungurian","",279.3,272.3,35243,"gp_mid",120.75,-5.68,"611",1,275.8,"kungurian",1
"47857",105461,"col","Qixia",113.559998,24.969999,"Chashan, Qixia Fm, Qujiang County",NA,"",1,"Kungurian","",279.3,272.3,35243,"gp_mid",126.33,-7.62,"611",1,275.8,"kungurian",1
"47863",105467,"col","Dangchong",113,25.77,"Chenzhou railway station, basal Dangchong Fm, Chenxian County",NA,"",1,"Kungurian","",279.3,272.3,35245,"gp_mid",125.38,-7.5,"611",1,275.8,"kungurian",1
"47864",105468,"col","Qixia",109.5,30,"Chuanjianhe, Xuan'en County",NA,"",2,"Kungurian","",279.3,272.3,35244,"gp_mid",120.12,-7.08,"611",1,275.8,"kungurian",1
"47869",105473,"col","Qixia",111.150002,29.450001,"Cili County, Qixia Fm",NA,"",1,"Kungurian","",279.3,272.3,35244,"gp_mid",121.49,-6.37,"611",1,275.8,"kungurian",1
"48144",105924,"col","Qixia",110.485001,29.125,"Dayong County, Qixia Fm",NA,"",1,"Kungurian","",279.3,272.3,35243,"gp_mid",121.35,-7.02,"611",1,275.8,"kungurian",1
"48161",105942,"col","Qixia",106.349998,23.51,"Dengzhou, Debao County",NA,"",1,"Kungurian","",279.3,272.3,35244,"gp_mid",123.06,-13.54,"611",1,275.8,"kungurian",1
"48174",105955,"col","Qixia",109.275002,29.405001,"Fengyejian, Gaoqiao, Xianfeng County",NA,"",1,"Kungurian","",279.3,272.3,35244,"gp_mid",120.43,-7.63,"611",1,275.8,"kungurian",1
"48177",105958,"col","Qixia",115.699997,24.334999,"Gangbei, Xingning County",NA,"",1,"Kungurian","",279.3,272.3,35244,"gp_mid",128.05,-6.5,"611",1,275.8,"kungurian",1
"48929",107305,"col","Qixia",109.232002,23.709,"Laibin Daqiao, Laibin County",NA,"",1,"Kungurian","",279.3,272.3,33469,"gp_mid",124.72,-11.44,"611",1,275.8,"kungurian",1
"49203",107620,"col","Sotokawame",141.350006,39.450001,"Mount Hachimori, Tassobe District, Southern Kitakami",NA,"",2,"Kungurian","",279.3,272.3,33477,"gp_mid",138.43,14.51,"610",1,275.8,"kungurian",1
"49343",107787,"col","Koshelevka",57.722,57.027,"Chekarda, Sylva River (PU collection 2)",NA,"",37,"Kungurian","",279.3,272.3,40946,"gp_mid",45.21,29,"302",1,275.8,"kungurian",1
"49689",108176,"col","Qixia",106.779999,26.389999,"Shuichang, Longli",NA,"",1,"Kungurian","",279.3,272.3,32416,"gp_mid",121.17,-11.29,"611",1,275.8,"kungurian",1
"49706",108193,"col","Qixia",106.099998,25.75,"Ziyun vicinity",NA,"",1,"Kungurian","",279.3,272.3,32416,"gp_mid",121.22,-12.17,"611",1,275.8,"kungurian",1
"49716",108206,"col","Koshelevka",57.722,57.027,"Chekarda, Sylva River (PIN collection 1700)",NA,"",172,"Kungurian","",279.3,272.3,31339,"gp_mid",45.21,29,"302",1,275.8,"kungurian",1
"49951",108530,"col","Lekvorkutskaya",64.165001,67.648003,"Vorkuta River Outcrop 68, Pechora Basin",NA,"",1,"Kungurian","",279.3,272.3,29690,"gp_mid",37.62,38.04,"302",1,275.8,"kungurian",1
"49953",108532,"col","Lekvorkutskaya",64.185997,67.653,"Vorkuta River Outcrop 71, Pechora Basin",NA,"",1,"Kungurian","",279.3,272.3,29690,"gp_mid",37.62,38.05,"302",1,275.8,"kungurian",1
"50398",109027,"col","",137.458618,36.188057,"Hatahoko, Yokoberadani Valley, Nyukawa-machi, Takayama City",NA,"",12,"Kungurian","",279.3,272.3,36063,"gp_mid",134.12,12.92,"610",1,275.8,"kungurian",1
"51021",122271,"col","Qixia",112.949997,27.65,"Tanjiashan, Xiangtan County (Zhou coll)",NA,"",1,"Kungurian","",279.3,272.3,18305,"gp_mid",123.9,-6.34,"611",1,275.8,"kungurian",1
"51050",109801,"col","Ayach'yaga",65.400002,67.050003,"Polyarnyye Bugry Station, Bore IK-632, 107 m Depth",NA,"",1,"Kungurian","",279.3,272.3,29808,"gp_mid",38.59,38.1,"302",1,275.8,"kungurian",1
"51051",109802,"col","Ayach'yaga",65.400002,67.050003,"Polyarnyye Bugry Station, Bore IK-632, 94 m Depth",NA,"",1,"Kungurian","",279.3,272.3,29808,"gp_mid",38.59,38.1,"302",1,275.8,"kungurian",1
"51052",109803,"col","Lekvorkuta",62.150002,67.5,"Rogovskaya Anticline, Bore VK-1320, 589.9 m Depth",NA,"",1,"Kungurian","",279.3,272.3,29808,"gp_mid",37.22,37.33,"302",1,275.8,"kungurian",1
"51053",109804,"col","Talata",63.810001,67.139999,"Usa River, Talata Suite, Pechora Basin",NA,"",1,"Kungurian","",279.3,272.3,29808,"gp_mid",38.06,37.64,"302",1,275.8,"kungurian",1
"51054",109805,"col","Ayach'yaga",62.150002,67.5,"Verkne-rogovskoye Deposit, Bore VK-1326, 650-653 m depth",NA,"",1,"Kungurian","",279.3,272.3,29808,"gp_mid",37.22,37.33,"302",1,275.8,"kungurian",1
"51057",109808,"col","Talata",64.175003,67.684998,"Vorkuta Deposit, Bore K-856, 193-194 m depth, Pechora Basin",NA,"",1,"Kungurian","",279.3,272.3,29808,"gp_mid",37.59,38.06,"302",1,275.8,"kungurian",1
"51058",109809,"col","Talata",64.175003,67.684998,"Vorkuta Deposit, Bore K-892, 231 m Depth, Pechora Basin",NA,"",1,"Kungurian","",279.3,272.3,29808,"gp_mid",37.59,38.06,"302",1,275.8,"kungurian",1
"51059",109810,"col","Talata",64.175003,67.684998,"Vorkuta Deposit, Bore K-892, 238.5 m Depth, Pechora Basin",NA,"",1,"Kungurian","",279.3,272.3,29808,"gp_mid",37.59,38.06,"302",1,275.8,"kungurian",1
"51060",109811,"col","Talata",63,67.5,"Yarvozhskiy Dome, Bore NGK-1, 249.3 m depth",NA,"",1,"Kungurian","",279.3,272.3,29808,"gp_mid",37.46,37.59,"302",1,275.8,"kungurian",1
"51062",109813,"col","Talata",63.924999,67.370003,"Yunyaginskoe Coalfield, Well YUK-134, 179.6 m depth, Pechora Basin",NA,"",1,"Kungurian","",279.3,272.3,29808,"gp_mid",37.85,37.81,"302",1,275.8,"kungurian",1
"51107",109858,"col","Qixia",115.900002,24.549999,"Pingyuan County, Qixia Fm",NA,"",1,"Kungurian","",279.3,272.3,35244,"gp_mid",128,-6.22,"611",1,275.8,"kungurian",1
"51112",109864,"col","Qixia",111.959999,27.77,"Longyandong, Enkou, Lianyuan County",NA,"",1,"Kungurian","",279.3,272.3,35244,"gp_mid",123.23,-6.93,"611",1,275.8,"kungurian",1
"51113",109865,"col","Qixia",109.464996,30.014999,"Xuan'en County, Qixia Fm",NA,"",1,"Kungurian","",279.3,272.3,35244,"gp_mid",120.08,-7.1,"611",1,275.8,"kungurian",1
"51120",109872,"col","Qixia",109.650002,23.75,"Huangmao, Laibin County",NA,"",1,"Kungurian","",279.3,272.3,35244,"gp_mid",124.94,-11.13,"611",1,275.8,"kungurian",1
"51134",109890,"col","Qixia",110.760002,31.35,"Xingshan County, Qixia Fm",NA,"",2,"Kungurian","",279.3,272.3,35244,"gp_mid",119.82,-5.38,"611",1,275.8,"kungurian",1
"51136",109892,"col","Qixia",108.660004,24.07,"Xincheng County, Qixia Fm",NA,"",2,"Kungurian","",279.3,272.3,35244,"gp_mid",124.09,-11.6,"611",1,275.8,"kungurian",1
"51137",109893,"col","Qixia",114.209999,29.57,"Lukou, Qixia Fm, Chongyang County",NA,"",1,"Kungurian","",279.3,272.3,35244,"gp_mid",123.12,-4.26,"611",1,275.8,"kungurian",1
"51138",109894,"col","Qixia",109.150002,29.68,"Liuheshan, Xianfeng County",NA,"",1,"Kungurian","",279.3,272.3,35244,"gp_mid",120.15,-7.52,"611",1,275.8,"kungurian",1
"51139",109895,"col","Qixia",111.790001,30.18,"Songzi County, Qixia Fm",NA,"",1,"Kungurian","",279.3,272.3,35244,"gp_mid",121.29,-5.48,"611",1,275.8,"kungurian",1
"51141",109897,"col","Qixia",111.309998,27.74,"Xinhua County, Qixia Fm",NA,"",1,"Kungurian","",279.3,272.3,35244,"gp_mid",122.88,-7.39,"611",1,275.8,"kungurian",1
"51142",109898,"col","Qixia",110.199997,25.25,"Yaolin, Guixian County",NA,"",1,"Kungurian","",279.3,272.3,35244,"gp_mid",124.13,-9.77,"611",1,275.8,"kungurian",1
"51144",109900,"col","Qixia",109.150002,29.68,"Liuheshan, Dingyan, Xianfeng County",NA,"",1,"Kungurian","",279.3,272.3,35244,"gp_mid",120.15,-7.52,"611",1,275.8,"kungurian",1
"51145",109901,"col","Qixia",112.309998,31.120001,"Hujiaji, Jingmen County",NA,"",2,"Kungurian","",279.3,272.3,35244,"gp_mid",120.87,-4.53,"611",1,275.8,"kungurian",1
"51146",109902,"col","Qixia",111.440002,30.379999,"Yidu County, Qixia Fm",NA,"",1,"Kungurian","",279.3,272.3,35244,"gp_mid",120.94,-5.58,"611",1,275.8,"kungurian",1
"51147",109903,"col","Qixia",110.764999,29.5,"Xiaotan, Qixia Fm, Jiangya, Cili County",NA,"",2,"Kungurian","",279.3,272.3,35244,"gp_mid",121.23,-6.59,"611",1,275.8,"kungurian",1
"51148",109904,"col","Qixia",111.470001,30.049999,"Liujiachang Section, Qixia Fm, Songzi County",NA,"",2,"Kungurian","",279.3,272.3,35244,"gp_mid",121.21,-5.77,"611",1,275.8,"kungurian",1
"51149",109905,"col","Qixia",112.25,31.709999,"Yicheng County, Qixia Fm",NA,"",1,"Kungurian","",279.3,272.3,35244,"gp_mid",120.39,-4.18,"611",1,275.8,"kungurian",1
"51150",109906,"col","",108.904999,24.735001,"Huolang, Luocheng County",NA,"",1,"Kungurian","",279.3,272.3,35244,"gp_mid",123.73,-10.99,"611",1,275.8,"kungurian",1
"51151",109907,"col","Qixia",111.849998,31.77,"Tunliangzhen, Nanzhang County",NA,"",1,"Kungurian","",279.3,272.3,35244,"gp_mid",120.12,-4.4,"611",1,275.8,"kungurian",1
"51162",109918,"col","Qixia",106.605003,24.195,"Huaijiatun, Lingyun County",NA,"",1,"Kungurian","",279.3,272.3,35244,"gp_mid",122.7,-12.9,"611",1,275.8,"kungurian",1
"51163",109919,"col","Qixia",106.900002,23.75,"Qilian, Bohong, Tianyang County",NA,"",1,"Kungurian","",279.3,272.3,35244,"gp_mid",123.23,-13,"611",1,275.8,"kungurian",1
"51164",109920,"col","Qixia",106.330002,23,"Maoxia, Jingxi County",NA,"",1,"Kungurian","",279.3,272.3,35244,"gp_mid",123.43,-13.9,"611",1,275.8,"kungurian",1
"51165",109921,"col","Qixia",108.660004,24.07,"Jianmacun, Xincheng County",NA,"",1,"Kungurian","",279.3,272.3,35244,"gp_mid",124.09,-11.6,"611",1,275.8,"kungurian",1
"51167",109923,"col","Qixia",116.160004,24.66,"Jiaoling County, Qixia Fm",NA,"",1,"Kungurian","",279.3,272.3,35244,"gp_mid",128.06,-5.97,"611",1,275.8,"kungurian",1
"51173",109929,"col","Belushkin",52.490002,71.362,"Mezhdusharsky Island, Sample 126-2, Novaya Zemlya",NA,"",2,"Kungurian","",279.3,272.3,27332,"gp_mid",30.79,37.06,"302",1,275.8,"kungurian",1
"51174",109930,"col","Gusinozemelskaya",52.455002,71.333,"Mezhdusharsky Island, Sample 16-2, Novaya Zemlya",NA,"",2,"Kungurian","",279.3,272.3,27332,"gp_mid",30.81,37.03,"302",1,275.8,"kungurian",1
"51179",109935,"col","Gusinozemelskaya",52.429001,71.345001,"Mezhdusharsky Island, Sample 212-B, Cape Belushiy, Novaya Zemlya",NA,"",3,"Kungurian","",279.3,272.3,27332,"gp_mid",30.79,37.03,"302",1,275.8,"kungurian",1
"51180",109936,"col","Belushkin",52.598,71.375,"Mezhdusharsky Island, Sample 301, Novaya Zemlya",NA,"",1,"Kungurian","",279.3,272.3,27332,"gp_mid",30.8,37.09,"302",1,275.8,"kungurian",1
"51181",109937,"col","Belushkin",52.598,71.375,"Mezhdusharsky Island, Sample 301a, Novaya Zemlya",NA,"",5,"Kungurian","",279.3,272.3,27332,"gp_mid",30.8,37.09,"302",1,275.8,"kungurian",1
"51186",109942,"col","Belushkin",52.759998,71.355003,"Mezhdusharsky Island, Section 11y, Sample 1, Novaya Zemlya",NA,"",1,"Kungurian","",279.3,272.3,27332,"gp_mid",30.87,37.12,"302",1,275.8,"kungurian",1
"51187",109943,"col","Gusinozemelskaya",52.570999,71.361,"Mezhdusharsky Island, Section 4, Novaya Zemlya",NA,"",1,"Kungurian","",279.3,272.3,27332,"gp_mid",30.81,37.08,"302",1,275.8,"kungurian",1
"51188",109944,"col","Gusinozemelskaya",52.401001,71.341003,"Mezhdusharsky Island, Section 8, Sample 1032, Novaya Zemlya",NA,"",1,"Kungurian","",279.3,272.3,27332,"gp_mid",30.78,37.02,"302",1,275.8,"kungurian",1
"51189",109945,"col","Gusinozemelskaya",52.390999,71.342003,"Mezhdusharsky Island, Section 8, Sample 926, Novaya Zemlya",NA,"",3,"Kungurian","",279.3,272.3,27332,"gp_mid",30.78,37.02,"302",1,275.8,"kungurian",1
"51190",109946,"col","Gusinozemelskaya",52.390999,71.342003,"Mezhdusharsky Island, Section 8, Sample 927, Novaya Zemlya",NA,"",3,"Kungurian","",279.3,272.3,27332,"gp_mid",30.78,37.02,"302",1,275.8,"kungurian",1
"51205",109961,"col","Karmakula",52.75,72.650002,"Pukhovoe Island, Sample 236-41, Pukhovoy Bay, Novaya Zemlya",NA,"",1,"Kungurian","",279.3,272.3,27332,"gp_mid",29.62,37.96,"302",1,275.8,"kungurian",1
"51216",109972,"col","Lekvorkuta",59.5,65.75,"Kozhimskoe Coalfield, well IK-118, 92 m, Pechora Basin",NA,"",1,"Kungurian","",279.3,272.3,27332,"gp_mid",38.16,35.43,"302",1,275.8,"kungurian",1
"51217",109973,"col","Ugryumin",52.599998,72,"Vadega-2 River, Sample 19045-21, Novaya Zemlya",NA,"",1,"Kungurian","",279.3,272.3,27332,"gp_mid",30.21,37.5,"302",1,275.8,"kungurian",1
"51219",109975,"col","Talata",62.595001,69.559998,"Er'yaga River, Section 620, Bed 6, Pai-Khoy Range",NA,"",1,"Kungurian","",279.3,272.3,27342,"gp_mid",35.2,38.64,"302",1,275.8,"kungurian",1
"51220",109976,"col","Talata",62.595001,69.559998,"Er'yaga River, Section BE-1, Bed 14, Pai-Khoy Range",NA,"",1,"Kungurian","",279.3,272.3,27342,"gp_mid",35.2,38.64,"302",1,275.8,"kungurian",1
"51221",109977,"col","Talata",62.595001,69.559998,"Er'yaga River, Section E-16, Bed 1, Pai-Khoy Range",NA,"",1,"Kungurian","",279.3,272.3,27342,"gp_mid",35.2,38.64,"302",1,275.8,"kungurian",1
"51224",109980,"col","Talata",62.595001,69.559998,"Er'yaga River, Section BE-1, Bed 19, Pai-Khoy Range",NA,"",1,"Kungurian","",279.3,272.3,27342,"gp_mid",35.2,38.64,"302",1,275.8,"kungurian",1
"51225",109981,"col","Talata",62.595001,69.559998,"Er'yaga River, Section 623, bed 7, Pai-Khoy Range",NA,"",1,"Kungurian","",279.3,272.3,27342,"gp_mid",35.2,38.64,"302",1,275.8,"kungurian",1
"51240",109996,"col","Talata",62.650002,68.599998,"Khei-Yaga River, Outcrop 187, Sample 30, Pai-Khoy Range",NA,"",1,"Kungurian","",279.3,272.3,27342,"gp_mid",36.22,38.11,"302",1,275.8,"kungurian",1
"51251",110007,"col","Lekvorkuta",59.25,68,"Kozhim River, Section 5, Lekvorkuta Svita, Pechora Basin",NA,"",12,"Kungurian","",279.3,272.3,27342,"gp_mid",35.89,36.75,"302",1,275.8,"kungurian",1
"51252",110008,"col","Talata",59.73,65.690002,"Kozhim River Section 5, Talata Svita, Pechora Basin",NA,"",18,"Kungurian","",279.3,272.3,27342,"gp_mid",38.29,35.47,"302",1,275.8,"kungurian",1
"51253",110009,"col","Talata",59.73,65.690002,"Kozhim River Section 5, Sample 26, Pechora Basin",NA,"",1,"Kungurian","",279.3,272.3,27342,"gp_mid",38.29,35.47,"302",1,275.8,"kungurian",1
"51254",110010,"col","Lekvorkuta",59.5,65.75,"Kozhim River, Lekvorkuta Svita, Pechora Basin",NA,"",28,"Kungurian","",279.3,272.3,27342,"gp_mid",38.16,35.43,"302",1,275.8,"kungurian",1
"51255",110011,"col","Talata",59.5,65.75,"Kozhim River, Section 3, Sample 66",NA,"",1,"Kungurian","",279.3,272.3,27342,"gp_mid",38.16,35.43,"302",1,275.8,"kungurian",1
"51256",110012,"col","Talata",59.5,65.75,"Kozhim River, Talata Svita, Pechora Basin",NA,"",7,"Kungurian","",279.3,272.3,31800,"gp_mid",38.16,35.43,"302",1,275.8,"kungurian",1
"51257",110013,"col","Lekvorkuta",59.5,65.75,"Kozhim River, Outcrop 37, Sample 54",NA,"",1,"Kungurian","",279.3,272.3,27342,"gp_mid",38.16,35.43,"302",1,275.8,"kungurian",1
"51258",110014,"col","Talata",59.5,65.75,"Kozhim River, Collection 9",NA,"",1,"Kungurian","",279.3,272.3,27342,"gp_mid",38.16,35.43,"302",1,275.8,"kungurian",1
"51259",110015,"col","Talata",59.5,65.75,"Kozhim River, Collection 11",NA,"",1,"Kungurian","",279.3,272.3,27342,"gp_mid",38.16,35.43,"302",1,275.8,"kungurian",1
"51260",110016,"col","Talata",59.5,65.75,"Kozhim River, Collection 13",NA,"",1,"Kungurian","",279.3,272.3,27342,"gp_mid",38.16,35.43,"302",1,275.8,"kungurian",1
"51271",110027,"col","Lekvorkuta",62.599998,69.5,"Liur-Yaga River, Section 30, Sample 10, Pai-Khoy Range",NA,"",1,"Kungurian","",279.3,272.3,27342,"gp_mid",35.26,38.61,"302",1,275.8,"kungurian",1
"51272",110028,"col","Lekvorkuta",62.599998,69.5,"Liur-Yaga River, Section 30, Sample 9, Pai-Khoy Range",NA,"",1,"Kungurian","",279.3,272.3,27342,"gp_mid",35.26,38.61,"302",1,275.8,"kungurian",1
"51273",110029,"col","Lekvorkuta",62.599998,69.5,"Liur-Yaga River, Section 30, Sample 5, Pai-Khoy Range",NA,"",1,"Kungurian","",279.3,272.3,27342,"gp_mid",35.26,38.61,"302",1,275.8,"kungurian",1
"51274",110030,"col","Lekvorkuta",62.599998,69.5,"Liur-Yaga River, Section 30, Pai-Khoy Range",NA,"",1,"Kungurian","",279.3,272.3,27342,"gp_mid",35.26,38.61,"302",1,275.8,"kungurian",1
"51275",110031,"col","Lekvorkuta",62.599998,69.5,"Liur-Yaga River, Section 7/2, Pai-Khoy Range",NA,"",1,"Kungurian","",279.3,272.3,27342,"gp_mid",35.26,38.61,"302",1,275.8,"kungurian",1
"51276",110032,"col","",57.950001,65.849998,"Malaya Synya River, Section 435, Kungurian",NA,"",3,"Kungurian","",279.3,272.3,27342,"gp_mid",37.57,35,"302",1,275.8,"kungurian",1
"51279",110035,"col","",53.049999,67.650002,"Nariyan-Mar 10 Well, 243.3 m",NA,"",1,"Kungurian","",279.3,272.3,27342,"gp_mid",34.37,34.73,"302",1,275.8,"kungurian",1
"51286",110042,"col","Ufimskiy",58,67.849998,"Oleniya Well 20, 2146-2157 m",NA,"",1,"Kungurian","",279.3,272.3,27342,"gp_mid",35.68,36.28,"302",1,275.8,"kungurian",1
"51287",110043,"col","Ufimskiy",58,67.849998,"Oleniya Well 20, 2394-2404 m",NA,"",3,"Kungurian","",279.3,272.3,27342,"gp_mid",35.68,36.28,"302",1,275.8,"kungurian",1
"51364",110134,"col","Talata",64.25,69.400002,"Tab-Yo River, lower Talata suite, Pai-Khoy Range",NA,"",1,"Kungurian","",279.3,272.3,27342,"gp_mid",35.78,39.04,"302",1,275.8,"kungurian",1
"51365",110135,"col","Talata",64.25,69.400002,"Tab-Yo River, Talata suite, Pai-Khoy Range",NA,"",7,"Kungurian","",279.3,272.3,27342,"gp_mid",35.78,39.04,"302",1,275.8,"kungurian",1
"51366",110136,"col","Talata",64.25,69.400002,"Tab-Yo River, Outcrop 100, Sample 2528, Pai-Khoy Range",NA,"",1,"Kungurian","",279.3,272.3,27342,"gp_mid",35.78,39.04,"302",1,275.8,"kungurian",1
"51367",110137,"col","Talata",64.25,69.400002,"Tab-Yo River, Outcrop 99, Pai-Khoy Range",NA,"",2,"Kungurian","",279.3,272.3,27342,"gp_mid",35.78,39.04,"302",1,275.8,"kungurian",1
"51383",110153,"col","Lekvorkuta",64.18,67.650002,"Vorkuta River Outcrop 37, Pechora Basin",NA,"",1,"Kungurian","",279.3,272.3,27342,"gp_mid",37.63,38.05,"302",1,275.8,"kungurian",1
"51384",110154,"col","Lekvorkuta",64.18,67.650002,"Vorkuta River Outcrop 49, Bed 71, Sample 7, Pechora Basin",NA,"",2,"Kungurian","",279.3,272.3,27342,"gp_mid",37.63,38.05,"302",1,275.8,"kungurian",1
"51385",110155,"col","Lekvorkuta",64.165001,67.648003,"Vorkuta River Outcrop 68, Bed 44, Pechora Basin",NA,"",1,"Kungurian","",279.3,272.3,27342,"gp_mid",37.62,38.04,"302",1,275.8,"kungurian",1
"51387",110157,"col","Lekvorkuta",62.25,68.870003,"Yangarei River, Outcrop 26a. Sample 8, Pai-Khoy Mountains",NA,"",1,"Kungurian","",279.3,272.3,27342,"gp_mid",35.83,38.15,"302",1,275.8,"kungurian",1
"51388",110158,"col","",62.25,68.870003,"Yangarei River, Pai-Khoy Mountains",NA,"",1,"Kungurian","",279.3,272.3,27342,"gp_mid",35.83,38.15,"302",1,275.8,"kungurian",1
"51389",110159,"col","Lekvorkuta",62.25,68.870003,"Yangarei River, Talata Svita, Pai-Khoy Mountains",NA,"",2,"Kungurian","",279.3,272.3,27342,"gp_mid",35.83,38.15,"302",1,275.8,"kungurian",1
"51409",110179,"col","Adz'va",60.799999,67.184998,"Adz'va River, Adz'va Svita, Pechora Basin",NA,"",1,"Kungurian","",279.3,272.3,27343,"gp_mid",37.15,36.72,"302",1,275.8,"kungurian",1
"51410",110180,"col","Adz'va",60.799999,67.184998,"Adz'va River, Outcrop Ch-42, Sample 8, Pechora Basin",NA,"",1,"Kungurian","",279.3,272.3,27342,"gp_mid",37.15,36.72,"302",1,275.8,"kungurian",1
"51411",110181,"col","Adz'va",60.799999,67.184998,"Adz'va River, Outcrop 10, Sample 15, Pechora Basin",NA,"",1,"Kungurian","",279.3,272.3,27342,"gp_mid",37.15,36.72,"302",1,275.8,"kungurian",1
"51412",110182,"col","",60.799999,67.184998,"Adz'va River, Section Ch-42, Bed 28, Sample 40, Pechora Basin",NA,"",1,"Kungurian","",279.3,272.3,27342,"gp_mid",37.15,36.72,"302",1,275.8,"kungurian",1
"51414",110184,"col","Talata",62.595001,69.559998,"Er'yaga River, Section E-1002, Sample 6, Pai-Khoy Range",NA,"",3,"Kungurian","",279.3,272.3,27343,"gp_mid",35.2,38.64,"302",1,275.8,"kungurian",1
"51423",110193,"col","Lekvorkuta",59.5,65.75,"Kozhim River, Outcrop 5, Bed 386, Sample 54a",NA,"",1,"Kungurian","",279.3,272.3,27343,"gp_mid",38.16,35.43,"302",1,275.8,"kungurian",1
"51435",110205,"col","Talata",64.25,69.400002,"Tab-Yo River, Outcrop 94, Sample 2435, Pai-Khoy Range",NA,"",2,"Kungurian","",279.3,272.3,27343,"gp_mid",35.78,39.04,"302",1,275.8,"kungurian",1
"51436",110206,"col","Talata",64.25,69.400002,"Tab-Yo River, Outcrop 88, Pai-Khoy Range",NA,"",1,"Kungurian","",279.3,272.3,27343,"gp_mid",35.78,39.04,"302",1,275.8,"kungurian",1
"52222",111072,"col","",110.794998,30.945,"Sintan, Locality N.U. 22, Ichang",NA,"",1,"Kungurian","",279.3,272.3,36343,"gp_mid",120.15,-5.62,"611",1,275.8,"kungurian",1
"52274",111128,"col","Kozhim",59.5,65.75,"Kozhim River, Kozhim-Rudnik Settlement, Outcrop 5, Bed 466, Pechora Basin",NA,"",1,"Kungurian","",279.3,272.3,27696,"gp_mid",38.16,35.43,"302",1,275.8,"kungurian",1
"52355",111218,"col","Solikamsk",56.490002,60.299999,"Mogilnikovo, outcrop 2, Vishera River",NA,"",7,"Kungurian","",279.3,272.3,36473,"gp_mid",41.98,30.81,"302",1,275.8,"kungurian",1
"52601",111560,"col","Qixia",111.75,27.700001,"Enkou Mine, Qixia Formation, Lianyuan County",NA,"",1,"Kungurian","",279.3,272.3,27741,"gp_mid",123.17,-7.12,"611",1,275.8,"kungurian",1
"52605",111564,"col","Qixia",110.099998,29.549999,"Liangshuikouren, Sangzhi County",NA,"",1,"Kungurian","",279.3,272.3,27741,"gp_mid",120.8,-7,"611",1,275.8,"kungurian",1
"52612",111571,"col","Qixia",110.599998,29.6,"Renchaoqi, Sangzhi County",NA,"",1,"Kungurian","",279.3,272.3,27741,"gp_mid",121.05,-6.64,"611",1,275.8,"kungurian",1
"53303",112618,"col","Kozhim",59.5,65.75,"Kozhim River, Kozhim-Rudnik Settlement, Outcrop 5, Bed 462, Pechora Basin",NA,"",1,"Kungurian","",279.3,272.3,18567,"gp_mid",38.16,35.43,"302",1,275.8,"kungurian",1
"53304",112619,"col","Kozhim",59.5,65.75,"Kozhim River, Kozhim-Rudnik Settlement, Outcrop 5, Bed 465, Pechora Basin",NA,"",1,"Kungurian","",279.3,272.3,18567,"gp_mid",38.16,35.43,"302",1,275.8,"kungurian",1
"53305",112620,"col","Kozhim",59.5,65.75,"Kozhim River, Kozhim-Rudnik Settlement, Outcrop 5, Bed 468, Pechora Basin",NA,"",1,"Kungurian","",279.3,272.3,18567,"gp_mid",38.16,35.43,"302",1,275.8,"kungurian",1
"53306",112621,"col","Kozhim",59.5,65.75,"Kozhim River, Kozhim-Rudnik Settlement, Outcrop 5, Bed 474, Pechora Basin",NA,"",1,"Kungurian","",279.3,272.3,18567,"gp_mid",38.16,35.43,"302",1,275.8,"kungurian",1
"53307",112622,"col","Kozhim",59.5,65.75,"Kozhim River, Kozhim-Rudnik Settlement, Outcrop 5, Beds 459-461, Pechora Basin",NA,"",1,"Kungurian","",279.3,272.3,18567,"gp_mid",38.16,35.43,"302",1,275.8,"kungurian",1
"53308",112623,"col","Adz'va",60.799999,67.184998,"Osh-Shor Creek, Outcrop Ch-42, Bed 30, Adz'va River",NA,"",1,"Kungurian","",279.3,272.3,18567,"gp_mid",37.15,36.72,"302",1,275.8,"kungurian",1
"53309",112624,"col","Adz'va",60.799999,67.184998,"Osh-Shor Creek, Outcrop Ch-42, Bed 8, Adz'va River",NA,"",1,"Kungurian","",279.3,272.3,18567,"gp_mid",37.15,36.72,"302",1,275.8,"kungurian",1
"53323",112641,"col","",59.5,65.75,"Kozhim River, Iren' Horizon, Kozhim-Rudnik settlement",NA,"",3,"Kungurian","",279.3,272.3,33592,"gp_mid",38.16,35.43,"302",1,275.8,"kungurian",1
"53324",112642,"col","Kozhim-Rudnik",59.5,65.75,"Kozhim River, Kozhim-Rudnik Horizon, Kozhim-Rudnik settlement",NA,"",1,"Kungurian","",279.3,272.3,33592,"gp_mid",38.16,35.43,"302",1,275.8,"kungurian",1
"53325",112643,"col","Iren",59.73,65.690002,"Kozhim River, Outcrop 5, Point 273",NA,"",1,"Kungurian","",279.3,272.3,33592,"gp_mid",38.29,35.47,"302",1,275.8,"kungurian",1
"53326",112644,"col","Solikamsk",58.724998,66.245003,"Shar'yu River, left tributary of Usa River, Chernyshev Ridge",NA,"",1,"Kungurian","",279.3,272.3,33592,"gp_mid",37.44,35.49,"302",1,275.8,"kungurian",1
"53331",112649,"col","""Amushan""",117.650002,44.349998,"Xi Ujimqin Qi, Section 2, Bed 4",NA,"",5,"Kungurian","",279.3,272.3,33593,"gp_mid",125.38,33.93,"628",1,275.8,"kungurian",1
"53332",112650,"col","""Amushan""",117.650002,44.349998,"Xi Ujimqin Qi, Section 2, Bed 3",NA,"",2,"Kungurian","",279.3,272.3,33593,"gp_mid",125.38,33.93,"628",1,275.8,"kungurian",1
"53897",113379,"col","Koshelevka",57.722,57.027,"Chekarda, Sylva River (PIN collection 99)",NA,"",10,"Kungurian","",279.3,272.3,37564,"gp_mid",45.21,29,"302",1,275.8,"kungurian",1
"53898",113380,"col","Koshelevka",57.722,57.027,"Chekarda, Sylva River (PIN collection 514)",NA,"",3,"Kungurian","",279.3,272.3,31339,"gp_mid",45.21,29,"302",1,275.8,"kungurian",1
"53932",113451,"col","",53.049999,67.650002,"Kech-Mes Well 1, Kungurian, Malozemelskaya Tundra",NA,"",4,"Kungurian","",279.3,272.3,29169,"gp_mid",34.37,34.73,"302",1,275.8,"kungurian",1
"53937",113456,"col","",59.5,65.75,"Kozhim River, Unnamed Kungurian, Pechora Basin",NA,"",2,"Kungurian","",279.3,272.3,29169,"gp_mid",38.16,35.43,"302",1,275.8,"kungurian",1
"53950",113486,"col","",53.049999,67.650002,"Nariyan-Mar Well P-1, Kungurian, Malozemelskaya Tundra",NA,"",8,"Kungurian","",279.3,272.3,29169,"gp_mid",34.37,34.73,"302",1,275.8,"kungurian",1
"53953",113489,"col","",51.849998,67.449997,"Perebor Well 1, Kungurian, Malozemelskaya Tundra",NA,"",3,"Kungurian","",279.3,272.3,29169,"gp_mid",34.16,34.26,"302",1,275.8,"kungurian",1
"53957",113493,"col","",51.849998,67.449997,"Perebor Well 160, Kungurian, Malozemelskaya Tundra",NA,"",4,"Kungurian","",279.3,272.3,29169,"gp_mid",34.16,34.26,"302",1,275.8,"kungurian",1
"53975",113511,"col","",51.5,67.5,"Seduyakha Well N 10, Kungurian, Malozemelskaya Tundra",NA,"",9,"Kungurian","",279.3,272.3,29169,"gp_mid",34.01,34.2,"302",1,275.8,"kungurian",1
"53979",113515,"col","",51.5,67.5,"Seduyakha Well 9, Kungurian, Malozemelskaya Tundra",NA,"",11,"Kungurian","",279.3,272.3,29169,"gp_mid",34.01,34.2,"302",1,275.8,"kungurian",1
"53982",113518,"col","",53.150002,66.75,"Shapkino Well 123, Malozemelskaya Tundra",NA,"",2,"Kungurian","",279.3,272.3,29169,"gp_mid",35.2,34.15,"302",1,275.8,"kungurian",1
"53984",113520,"col","",53.150002,66.75,"Shapkino Well 73, Kungurian, Malozemelskaya Tundra",NA,"",1,"Kungurian","",279.3,272.3,29169,"gp_mid",35.2,34.15,"302",1,275.8,"kungurian",1
"53988",113524,"col","",53.150002,66.75,"Shapkino Well 76, Kungurian, Malozemelskaya Tundra",NA,"",1,"Kungurian","",279.3,272.3,29169,"gp_mid",35.2,34.15,"302",1,275.8,"kungurian",1
"54031",113569,"col","",48,65,"Vasil'kov, Well 2, Timan-Pechora",NA,"",1,"Kungurian","",279.3,272.3,29169,"gp_mid",34.89,31.43,"302",1,275.8,"kungurian",1
"54032",113570,"col","",52.049999,67.25,"Velikovisochnaya Well 165, northern Timan",NA,"",1,"Kungurian","",279.3,272.3,29169,"gp_mid",34.4,34.18,"302",1,275.8,"kungurian",1
"54034",113572,"col","",51.849998,67.449997,"Vydshor Well 1, Malozemelskaya Tundra",NA,"",1,"Kungurian","",279.3,272.3,29169,"gp_mid",34.16,34.26,"302",1,275.8,"kungurian",1
"54036",113574,"col","",51.849998,67.449997,"Vydshor Well 108, Kungurian, Malozemelskaya Tundra",NA,"",1,"Kungurian","",279.3,272.3,29169,"gp_mid",34.16,34.26,"302",1,275.8,"kungurian",1
"54038",113576,"col","",51.849998,67.449997,"Vydshor Well 109, Kungurian, Malozemelskaya Tundra",NA,"",3,"Kungurian","",279.3,272.3,29169,"gp_mid",34.16,34.26,"302",1,275.8,"kungurian",1
"54044",113582,"col","",51.849998,67.449997,"Vydshor Well unspecified, Kungurian, Malozemelskaya Tundra",NA,"",1,"Kungurian","",279.3,272.3,29169,"gp_mid",34.16,34.26,"302",1,275.8,"kungurian",1
"54297",113895,"col","Lekvorkuta",63.810001,67.139999,"Eletskoe Coalfield, Well EK-13, 134 m, Pechora Basin",NA,"",1,"Kungurian","",279.3,272.3,27341,"gp_mid",38.06,37.64,"302",1,275.8,"kungurian",1
"54298",113896,"col","Lekvorkuta",64,67.5,"Vat'yara coalfield, Well BK-1311, 356 m, Pechora Basin",NA,"",1,"Kungurian","",279.3,272.3,27341,"gp_mid",37.73,37.9,"302",1,275.8,"kungurian",1
"54299",113897,"col","Lekvorkuta",60.549999,66.599998,"Verkhnerogovskoe coalfield, Well BK-1326, 491 m, Pechora Basin",NA,"",1,"Kungurian","",279.3,272.3,27341,"gp_mid",37.66,36.29,"302",1,275.8,"kungurian",1
"54300",113898,"col","Lekvorkuta",61.599998,68.099998,"Vashutkinykh lake, Well BK-14, 1062 m, Pechora Basin",NA,"",1,"Kungurian","",279.3,272.3,27341,"gp_mid",36.45,37.51,"302",1,275.8,"kungurian",1
"54301",113899,"col","Talata",63.924999,67.370003,"Yunyaginskoe Coalfield, Well YUK-136, 20 m, Pechora Basin",NA,"",1,"Kungurian","",279.3,272.3,27341,"gp_mid",37.85,37.81,"302",1,275.8,"kungurian",1
"54303",113901,"col","Lekvorkuta",60.220001,66.040001,"Intinskoe coalfield, Well IK-137, 132 m, Pechora Basin",NA,"",1,"Kungurian","",279.3,272.3,27341,"gp_mid",38.1,35.84,"302",1,275.8,"kungurian",1
"54304",113902,"col","Lekvorkuta",60.220001,66.040001,"Intinskoe coalfield, Well IK-109, 21 m, Pechora Basin",NA,"",1,"Kungurian","",279.3,272.3,27341,"gp_mid",38.1,35.84,"302",1,275.8,"kungurian",1
"54305",113903,"col","Lekvorkuta",57.540001,66.010002,"Usinskoe coalfield, Well UK-8, 41 m, Pechora Basin",NA,"",1,"Kungurian","",279.3,272.3,27341,"gp_mid",37.29,34.98,"302",1,275.8,"kungurian",1
"54306",113904,"col","Lekvorkuta",57.540001,66.010002,"Usinskoe coalfield, Well UK-4, 204 m, Pechora Basin",NA,"",1,"Kungurian","",279.3,272.3,27341,"gp_mid",37.29,34.98,"302",1,275.8,"kungurian",1
"54307",113905,"col","Tab-yo",63.950001,69.5,"Tab-Yo River, Tab-Yo Svita, Pai-Khoy Range",NA,"",7,"Kungurian","",279.3,272.3,27341,"gp_mid",35.6,39,"302",1,275.8,"kungurian",1
"54308",113906,"col","Lekvorkuta",60.549999,66.599998,"Verkhnerogovskoe coalfield, Well BK-21, 529 m, Pechora Basin",NA,"",1,"Kungurian","",279.3,272.3,27341,"gp_mid",37.66,36.29,"302",1,275.8,"kungurian",1
"54309",113907,"col","Lekvorkuta",60.549999,66.599998,"Verkhnerogovskoe coalfield, Well BK-1320, 546 m, Pechora Basin",NA,"",1,"Kungurian","",279.3,272.3,27341,"gp_mid",37.66,36.29,"302",1,275.8,"kungurian",1
"54310",113908,"col","Lekvorkuta",57.599998,64.25,"Pechora River, around Edzhid-Kyrta mine",NA,"",1,"Kungurian","",279.3,272.3,27341,"gp_mid",38.93,33.85,"302",1,275.8,"kungurian",1
"54311",113909,"col","Lekvorkuta",59.950001,67.050003,"Adz'vinskoe Coalfield, Well SDK-75, 62 m, Pechora Basin",NA,"",1,"Kungurian","",279.3,272.3,27341,"gp_mid",37.03,36.38,"302",1,275.8,"kungurian",1
"54313",113911,"col","Lekvorkuta",64.175003,67.684998,"Vorkutskoe Coalfield, Well K-447, 121 m, Pechora Basin",NA,"",1,"Kungurian","",279.3,272.3,27341,"gp_mid",37.59,38.06,"302",1,275.8,"kungurian",1
"54314",113912,"col","Lekvorkuta",64.175003,67.684998,"Nizhnesyryaginskoe Coalfield, Well NSK-256, 217 m, Pechora Basin",NA,"",1,"Kungurian","",279.3,272.3,27341,"gp_mid",37.59,38.06,"302",1,275.8,"kungurian",1
"54315",113913,"col","Lekvorkuta",59.5,65.75,"Kozhimskoe Coalfield, Well IK-412, 80 m, Pechora Basin",NA,"",1,"Kungurian","",279.3,272.3,27341,"gp_mid",38.16,35.43,"302",1,275.8,"kungurian",1
"54316",113914,"col","Lekvorkuta",57.540001,66.010002,"Usinskoe coalfield, Well UK-684, 539 m, Pechora Basin",NA,"",1,"Kungurian","",279.3,272.3,27341,"gp_mid",37.29,34.98,"302",1,275.8,"kungurian",1
"54317",113915,"col","Lekvorkuta",64.175003,67.684998,"Vorkuta River, Vorkutskoe coalfield, Pechora Basin",NA,"",3,"Kungurian","",279.3,272.3,27341,"gp_mid",37.59,38.06,"302",1,275.8,"kungurian",1
"54318",113916,"col","Lekvorkuta",60.220001,66.040001,"Intinskoe coalfield, Well IK-851, 224 m, Pechora Basin",NA,"",1,"Kungurian","",279.3,272.3,27341,"gp_mid",38.1,35.84,"302",1,275.8,"kungurian",1
"54319",113917,"col","Lekvorkuta",64.175003,67.684998,"Vorkutskoe Coalfield, Well K-1471, 58 m, Pechora Basin",NA,"",1,"Kungurian","",279.3,272.3,27341,"gp_mid",37.59,38.06,"302",1,275.8,"kungurian",1
"54320",113918,"col","Lekvorkuta",64.175003,67.684998,"Vorkutskoe Coalfield, Well K-845, 112 m, Pechora Basin",NA,"",1,"Kungurian","",279.3,272.3,27341,"gp_mid",37.59,38.06,"302",1,275.8,"kungurian",1
"54322",113920,"col","Lekvorkuta",64.175003,67.684998,"Vorkutskoe Coalfield, Well K-888, 14 m, Pechora Basin",NA,"",1,"Kungurian","",279.3,272.3,27341,"gp_mid",37.59,38.06,"302",1,275.8,"kungurian",1
"54323",113921,"col","Lekvorkuta",57.540001,66.010002,"Usinskoe coalfield, Well UK-79, 300 m, Pechora Basin",NA,"",1,"Kungurian","",279.3,272.3,27341,"gp_mid",37.29,34.98,"302",1,275.8,"kungurian",1
"54326",113924,"col","",57.599998,64.25,"Edzhid-Kyrta mine, Pechora Basin",NA,"",1,"Kungurian","",279.3,272.3,27341,"gp_mid",38.93,33.85,"302",1,275.8,"kungurian",1
"54327",113925,"col","Lekvorkuta",63.924999,67.370003,"Yunyaginskoe Coalfield, Well YUK-4, 26 m, Pechora Basin",NA,"",1,"Kungurian","",279.3,272.3,27341,"gp_mid",37.85,37.81,"302",1,275.8,"kungurian",1
"54328",113926,"col","Lekvorkuta",59.5,65.75,"Kozhimskoe Coalfield, Well IK-118, 93 m, Pechora Basin",NA,"",1,"Kungurian","",279.3,272.3,27341,"gp_mid",38.16,35.43,"302",1,275.8,"kungurian",1
"54329",113927,"col","Lekvorkuta",64.175003,67.684998,"Vorkutskoe Coalfield, Well K-683, 228 m, Pechora Basin",NA,"",1,"Kungurian","",279.3,272.3,27341,"gp_mid",37.59,38.06,"302",1,275.8,"kungurian",1
"54330",113928,"col","Lekvorkuta",63.924999,67.370003,"Yunyaginskoe Coalfield, Well YUK-144, 155 m, Pechora Basin",NA,"",1,"Kungurian","",279.3,272.3,27341,"gp_mid",37.85,37.81,"302",1,275.8,"kungurian",1
"54331",113929,"col","Lekvorkuta",63.799999,67.599998,"Vorgashorskoe Coalfield, Well VK-1148, 391 m, Pechora Basin",NA,"",1,"Kungurian","",279.3,272.3,27341,"gp_mid",37.57,37.9,"302",1,275.8,"kungurian",1
"54332",113930,"col","Lekvorkuta",64.175003,67.684998,"Nizhnesyryaginskoe Coalfield, Well NSK-182, 309 m, Pechora Basin",NA,"",1,"Kungurian","",279.3,272.3,27341,"gp_mid",37.59,38.06,"302",1,275.8,"kungurian",1
"54333",113931,"col","Lekvorkuta",57.540001,66.010002,"Usinskoe coalfield, Well UK-59, 109 m, Pechora Basin",NA,"",1,"Kungurian","",279.3,272.3,27341,"gp_mid",37.29,34.98,"302",1,275.8,"kungurian",1
"54334",113932,"col","Lekvorkuta",60.220001,66.040001,"Intinskoe coalfield, Well IK-124, 177 m, Pechora Basin",NA,"",1,"Kungurian","",279.3,272.3,27341,"gp_mid",38.1,35.84,"302",1,275.8,"kungurian",1
"54340",113938,"col","",58.200001,64.300003,"Shugur River, northern Russian Platform",NA,"",1,"Kungurian","",279.3,272.3,27341,"gp_mid",39.09,34.08,"302",1,275.8,"kungurian",1
"54342",113940,"col","Lekvorkuta",60.220001,66.040001,"Intinskoe coalfield, Well IK-880, 208 m, Pechora Basin",NA,"",2,"Kungurian","",279.3,272.3,27341,"gp_mid",38.1,35.84,"302",1,275.8,"kungurian",1
"54343",113941,"col","Lekvorkuta",60.220001,66.040001,"Intinskoe coalfield, Well IK-807, 132 m, Pechora Basin",NA,"",1,"Kungurian","",279.3,272.3,27341,"gp_mid",38.1,35.84,"302",1,275.8,"kungurian",1
"54344",113942,"col","Lekvorkuta",60.549999,66.599998,"Verkhnerogovskoe coalfield, Well BK-1306, 210 m, Pechora Basin",NA,"",1,"Kungurian","",279.3,272.3,27341,"gp_mid",37.66,36.29,"302",1,275.8,"kungurian",1
"54345",113943,"col","Lekvorkuta",60.220001,66.040001,"Intinskoe coalfield, Well IK-873, 93 m, Pechora Basin",NA,"",1,"Kungurian","",279.3,272.3,27341,"gp_mid",38.1,35.84,"302",1,275.8,"kungurian",1
"54346",113944,"col","Lekvorkuta",60.220001,66.040001,"Intinskoe coalfield, Well IK-657, 1010 m, Pechora Basin",NA,"",1,"Kungurian","",279.3,272.3,27341,"gp_mid",38.1,35.84,"302",1,275.8,"kungurian",1
"54347",113945,"col","Lekvorkuta",57.540001,66.010002,"Usinskoe coalfield, Well UK-917, 325 m, Pechora Basin",NA,"",1,"Kungurian","",279.3,272.3,27341,"gp_mid",37.29,34.98,"302",1,275.8,"kungurian",1
"54350",113948,"col","Tab-yo",62.599998,69.5,"Liur-Yaga River, Tab-Yo Svita, Pai-Khoy Range",NA,"",7,"Kungurian","",279.3,272.3,27341,"gp_mid",35.26,38.61,"302",1,275.8,"kungurian",1
"54352",113950,"col","Lekvorkuta",64.175003,67.684998,"Vorkutskoe Coalfield, Well VK-831, 186 m, Pechora Basin",NA,"",1,"Kungurian","",279.3,272.3,27341,"gp_mid",37.59,38.06,"302",1,275.8,"kungurian",1
"54353",113951,"col","Lekvorkuta",63.799999,67.599998,"Vorgashorskoe Coalfield, Well VK-485, 123 m, Pechora Basin",NA,"",1,"Kungurian","",279.3,272.3,27341,"gp_mid",37.57,37.9,"302",1,275.8,"kungurian",1
"54354",113952,"col","Lekvorkuta",63.799999,67.599998,"Vorgashorskoe Coalfield, Well VK-1094, 187 m, Pechora Basin",NA,"",1,"Kungurian","",279.3,272.3,27341,"gp_mid",37.57,37.9,"302",1,275.8,"kungurian",1
"54355",113953,"col","Lekvorkuta",63.799999,67.599998,"Vorgashorskoe Coalfield, Well VK-892, 124 m, Pechora Basin",NA,"",1,"Kungurian","",279.3,272.3,27341,"gp_mid",37.57,37.9,"302",1,275.8,"kungurian",1
"54364",113965,"col","",57.240002,57.380001,"Sylva river near Kishert', western Urals",NA,"",2,"Kungurian","",279.3,272.3,27341,"gp_mid",44.71,29.06,"302",1,275.8,"kungurian",1
"54365",113966,"col","Talata",59.5,65.75,"Kozhim River, upper Talata Svita, Pechora Basin",NA,"",10,"Kungurian","",279.3,272.3,27341,"gp_mid",38.16,35.43,"302",1,275.8,"kungurian",1
"54366",113967,"col","",54,65,"Salyukinskaya structure, well 254-S, 1281 m, northern Russian platform",NA,"",1,"Kungurian","",279.3,272.3,27341,"gp_mid",37.02,33.21,"302",1,275.8,"kungurian",1
"54367",113968,"col","",54.900002,61.75,"Myeldino Village, Vychedga River, Komi ASSR",NA,"",1,"Kungurian","",279.3,272.3,27341,"gp_mid",40.13,31.26,"302",1,275.8,"kungurian",1
"54369",113970,"col","Lekvorkuta",60.220001,66.040001,"Intinskoe coalfield, Well IK-109, 100.7 m, Pechora Basin",NA,"",1,"Kungurian","",279.3,272.3,27341,"gp_mid",38.1,35.84,"302",1,275.8,"kungurian",1
"54370",113971,"col","Lekvorkuta",57.540001,66.010002,"Usinskoe coalfield, Well UK-684, 341 m, Pechora Basin",NA,"",1,"Kungurian","",279.3,272.3,27341,"gp_mid",37.29,34.98,"302",1,275.8,"kungurian",1
"54372",113973,"col","Lekvorkuta",63.775002,67.330002,"Seydinskoe coalfield, Well SDK-400, 469 m, Pechora Basin",NA,"",1,"Kungurian","",279.3,272.3,27341,"gp_mid",37.85,37.74,"302",1,275.8,"kungurian",1
"54373",113974,"col","Lekvorkuta",63.799999,67.599998,"Vorgashorskoe Coalfield, Well VK-651, 536 m, Pechora Basin",NA,"",2,"Kungurian","",279.3,272.3,27341,"gp_mid",37.57,37.9,"302",1,275.8,"kungurian",1
"54374",113975,"col","Lekvorkuta",64.629997,67.839996,"Khalmeryuskoe Coalfield, Well KhK-799, 109 m, Pechora Basin",NA,"",1,"Kungurian","",279.3,272.3,27341,"gp_mid",37.55,38.29,"302",1,275.8,"kungurian",1
"54375",113976,"col","Lekvorkuta",60.220001,66.040001,"Intinskoe coalfield, Well IK-182, 302 m, Pechora Basin",NA,"",1,"Kungurian","",279.3,272.3,27341,"gp_mid",38.1,35.84,"302",1,275.8,"kungurian",1
"54376",113977,"col","Lekvorkuta",64.175003,67.684998,"Vorkutskoe Coalfield, Well 1725, 466 m, Pechora Basin",NA,"",1,"Kungurian","",279.3,272.3,27341,"gp_mid",37.59,38.06,"302",1,275.8,"kungurian",1
"54377",113978,"col","Lekvorkuta",57.540001,66.010002,"Usinskoe coalfield, Well UK-8, 232 m, Pechora Basin",NA,"",1,"Kungurian","",279.3,272.3,27341,"gp_mid",37.29,34.98,"302",1,275.8,"kungurian",1
"54378",113979,"col","Lekvorkuta",57.540001,66.010002,"Usinskoe coalfield, Well UK-52, 185 m, Pechora Basin",NA,"",1,"Kungurian","",279.3,272.3,27341,"gp_mid",37.29,34.98,"302",1,275.8,"kungurian",1
"54379",113980,"col","Lekvorkuta",64.175003,67.684998,"Vorkutskoe Coalfield, Well K-1083, 148 m, Pechora Basin",NA,"",1,"Kungurian","",279.3,272.3,27341,"gp_mid",37.59,38.06,"302",1,275.8,"kungurian",1
"54388",113992,"col","Lekvorkuta",63.799999,67.599998,"Vorgashorskoe Coalfield, Well VK-60, 588 m, Pechora Basin",NA,"",1,"Kungurian","",279.3,272.3,27341,"gp_mid",37.57,37.9,"302",1,275.8,"kungurian",1
"54464",114091,"col","Hosoo",141.507996,39.018501,"Nakadaira, Lower Sakamotozawa, Yahagi-cho, Rikuzentakada City",NA,"",16,"Kungurian","",279.3,272.3,31786,"gp_mid",138.35,14.07,"610",1,275.8,"kungurian",1
"54487",114124,"col","Lekvorkuta",64.175003,67.684998,"Vorkutskoe Coalfield, Well K-1052, 164 m, Pechora Basin",NA,"",1,"Kungurian","",279.3,272.3,27341,"gp_mid",37.59,38.06,"302",1,275.8,"kungurian",1
"54491",114128,"col","Talata",64.25,69.400002,"Tab-Yo River, lower canyon, Pai-Khoy Range",NA,"",1,"Kungurian","",279.3,272.3,27341,"gp_mid",35.78,39.04,"302",1,275.8,"kungurian",1
"54514",114158,"col","Lekvorkuta",57.540001,66.010002,"Usinskoe coalfield, Well UK-775, 217 m, Pechora Basin",NA,"",1,"Kungurian","",279.3,272.3,27341,"gp_mid",37.29,34.98,"302",1,275.8,"kungurian",1
"54515",114159,"col","Ufimskiy",54,65,"Udachnaya Structure, well UD-131, 1448 m, Northern Russian Platform",NA,"",1,"Kungurian","",279.3,272.3,27341,"gp_mid",37.02,33.21,"302",1,275.8,"kungurian",1
"54519",114163,"col","Lekvorkuta",63.924999,67.370003,"Yunyaginskoe Coalfield, Well YUK-113, 58 m depth, Pechora Basin",NA,"",1,"Kungurian","",279.3,272.3,27341,"gp_mid",37.85,37.81,"302",1,275.8,"kungurian",1
"54520",114164,"col","Lekvorkuta",64.175003,67.684998,"Vorkutskoe Coalfield, Well PK-2350, 182 m, Pechora Basin",NA,"",1,"Kungurian","",279.3,272.3,27341,"gp_mid",37.59,38.06,"302",1,275.8,"kungurian",1
"54522",114166,"col","Lekvorkuta",60.549999,66.599998,"Verkhnerogovskoe coalfield, Well BK-1326, 443 m, Pechora Basin",NA,"",2,"Kungurian","",279.3,272.3,27341,"gp_mid",37.66,36.29,"302",1,275.8,"kungurian",1
"54524",114168,"col","Lekvorkuta",60.549999,66.599998,"Verkhnerogovskoe coalfield, Well BK-1326, 436 m, Pechora Basin",NA,"",1,"Kungurian","",279.3,272.3,27341,"gp_mid",37.66,36.29,"302",1,275.8,"kungurian",1
"54525",114169,"col","Lekvorkuta",63.810001,67.139999,"Eletskoe Coalfield, Lekvorkuta Svita, Usa River, Pechora Basin",NA,"",3,"Kungurian","",279.3,272.3,27341,"gp_mid",38.06,37.64,"302",1,275.8,"kungurian",1
"54527",114171,"col","Lekvorkuta",60.220001,66.040001,"Intinskoe coalfield, well IK-138, 103 m, Pechora Basin",NA,"",1,"Kungurian","",279.3,272.3,27341,"gp_mid",38.1,35.84,"302",1,275.8,"kungurian",1
"54528",114172,"col","",57.040001,57.419998,"Fillipovskiy Cut, Sylva River, Western Urals",NA,"",4,"Kungurian","",279.3,272.3,27341,"gp_mid",44.59,29.01,"302",1,275.8,"kungurian",1
"54529",114173,"col","Lekvorkuta",64.175003,67.684998,"Vorkutskoe Coalfield, Well K-831, 133 m, Pechora Basin",NA,"",1,"Kungurian","",279.3,272.3,27341,"gp_mid",37.59,38.06,"302",1,275.8,"kungurian",1
"54530",114174,"col","Lekvorkuta",63.799999,67.599998,"Vorgashorskoe Coalfield, Well VK-1290, 247 m, Pechora Basin",NA,"",1,"Kungurian","",279.3,272.3,27341,"gp_mid",37.57,37.9,"302",1,275.8,"kungurian",1
"54531",114175,"col","Lekvorkuta",63.799999,67.599998,"Vorgashorskoe Coalfield, Well VK-1260, 247 m, Pechora Basin",NA,"",1,"Kungurian","",279.3,272.3,27341,"gp_mid",37.57,37.9,"302",1,275.8,"kungurian",1
"54532",114176,"col","Lekvorkuta",64.175003,67.684998,"Vorkutskoe Coalfield, Well K-348, 152 m, Pechora Basin",NA,"",1,"Kungurian","",279.3,272.3,27341,"gp_mid",37.59,38.06,"302",1,275.8,"kungurian",1
"54534",114178,"col","Talata",63.049999,69.5,"Saa-Yaga River, upper Talata Svita, Pai-Khoy Range",NA,"",1,"Kungurian","",279.3,272.3,27341,"gp_mid",35.37,38.74,"302",1,275.8,"kungurian",1
"54535",114179,"col","Lekvorkuta",63.810001,67.139999,"Eletskoe Coalfield, lower Lekvorkuta Svita, Usa River, Pechora Basin",NA,"",1,"Kungurian","",279.3,272.3,27341,"gp_mid",38.06,37.64,"302",1,275.8,"kungurian",1
"54550",114207,"col","Koshelevka",57.722,57.027,"Chekarda, Sylva River (PU collection 1)",NA,"",30,"Kungurian","",279.3,272.3,37072,"gp_mid",45.21,29,"302",1,275.8,"kungurian",1
"54558",114215,"col","Lekvorkuta",60.549999,66.599998,"Verkhnerogovskoe coalfield, Well BK-1229, 167 m, Pechora Basin",NA,"",1,"Kungurian","",279.3,272.3,27341,"gp_mid",37.66,36.29,"302",1,275.8,"kungurian",1
"54559",114216,"col","",57.240002,57.380001,"Sylva and Kishert' river, western Urals",NA,"",10,"Kungurian","",279.3,272.3,27341,"gp_mid",44.71,29.06,"302",1,275.8,"kungurian",1
"54563",114220,"col","Talata",63.049999,69.5,"Saa-Yaga River, Talata Svita, Pai-Khoy Range",NA,"",1,"Kungurian","",279.3,272.3,27341,"gp_mid",35.37,38.74,"302",1,275.8,"kungurian",1
"54564",114221,"col","Lekvorkuta",63.799999,67.599998,"Vorgashorskoe Coalfield, Well VK-1133, 407 m, Pechora Basin",NA,"",1,"Kungurian","",279.3,272.3,27341,"gp_mid",37.57,37.9,"302",1,275.8,"kungurian",1
"54565",114222,"col","Lekvorkuta",64.175003,67.684998,"Vorkutskoe Coalfield, Well K-1836, 162 m, Pechora Basin",NA,"",1,"Kungurian","",279.3,272.3,27341,"gp_mid",37.59,38.06,"302",1,275.8,"kungurian",1
"54567",114224,"col","Lekvorkuta",60.220001,66.040001,"Intinskoe coalfield, well IK-917, 225 m, Pechora Basin",NA,"",1,"Kungurian","",279.3,272.3,27341,"gp_mid",38.1,35.84,"302",1,275.8,"kungurian",1
"54568",114225,"col","Lekvorkuta",63.924999,67.370003,"Yunyaginskoe Coalfield, Well YUK-145, 87 m, Pechora Basin",NA,"",1,"Kungurian","",279.3,272.3,27341,"gp_mid",37.85,37.81,"302",1,275.8,"kungurian",1
"54570",114227,"col","Lekvorkuta",63.924999,67.370003,"Yunyaginskoe Coalfield, Well YUK-102, 48 m, Pechora Basin",NA,"",1,"Kungurian","",279.3,272.3,27341,"gp_mid",37.85,37.81,"302",1,275.8,"kungurian",1
"54571",114228,"col","Lekvorkuta",64.175003,67.684998,"Vorkutskoe Coalfield, Well 855, Pechora Basin",NA,"",1,"Kungurian","",279.3,272.3,27341,"gp_mid",37.59,38.06,"302",1,275.8,"kungurian",1
"54572",114229,"col","Lekvorkuta",64.175003,67.684998,"Vorkutskoe Coalfield, Well K-455, 545 m, Pechora Basin",NA,"",1,"Kungurian","",279.3,272.3,27341,"gp_mid",37.59,38.06,"302",1,275.8,"kungurian",1
"54573",114230,"col","Lekvorkuta",57.540001,66.010002,"Usinskoe coalfield, Well UK-1600, 158 m, Pechora Basin",NA,"",1,"Kungurian","",279.3,272.3,27341,"gp_mid",37.29,34.98,"302",1,275.8,"kungurian",1
"54574",114231,"col","Lekvorkuta",64.175003,67.684998,"Vorkutskoe Coalfield, Well K-300, 160 m, Pechora Basin",NA,"",1,"Kungurian","",279.3,272.3,27341,"gp_mid",37.59,38.06,"302",1,275.8,"kungurian",1
"54575",114232,"col","Lekvorkuta",60.220001,66.040001,"Intinskoe coalfield, well IK-132, 94 m, Pechora Basin",NA,"",1,"Kungurian","",279.3,272.3,27341,"gp_mid",38.1,35.84,"302",1,275.8,"kungurian",1
"54576",114233,"col","",57.369999,58.845001,"Kos'va River, Shestaki Village, Southern Urals",NA,"",1,"Kungurian","",279.3,272.3,27341,"gp_mid",43.56,30.13,"302",1,275.8,"kungurian",1
"54630",114295,"col","Talata",63.810001,67.139999,"Eletskoe Coalfield, upper Talata Svita, Usa River, Pechora Basin",NA,"",1,"Kungurian","",279.3,272.3,27341,"gp_mid",38.06,37.64,"302",1,275.8,"kungurian",1
"54633",114303,"col","Lekvorkuta",58.724998,66.245003,"Shar'yu River, Lekvorkuta Svita, Pechora Basin",NA,"",6,"Kungurian","",279.3,272.3,27341,"gp_mid",37.44,35.49,"302",1,275.8,"kungurian",1
"54635",114308,"col","Tabyo",63.549999,69.550003,"Malyy Liur River, Pai-Khoy Range",NA,"",1,"Kungurian","",279.3,272.3,27341,"gp_mid",35.45,38.91,"302",1,275.8,"kungurian",1
"54636",114309,"col","Lekvorkuta",57.540001,66.010002,"Usinskoe coalfield, Well UK-370, 481 m, Pechora Basin",NA,"",1,"Kungurian","",279.3,272.3,27341,"gp_mid",37.29,34.98,"302",1,275.8,"kungurian",1
"54637",114310,"col","Lekvorkuta",60.220001,66.040001,"Intinskoe coalfield, Well IK-272, 128 m, Pechora Basin",NA,"",1,"Kungurian","",279.3,272.3,27341,"gp_mid",38.1,35.84,"302",1,275.8,"kungurian",1
"54638",114311,"col","",57.685001,64.050003,"Kyrta Settlement, Pechora River, Northern Russian Platform",NA,"",1,"Kungurian","",279.3,272.3,27341,"gp_mid",39.14,33.75,"302",1,275.8,"kungurian",1
"54639",114312,"col","Lekvorkuta",59,66.330002,"Zaostrennaya River, lower Lekvorkuta Svita, Pechora Basin",NA,"",1,"Kungurian","",279.3,272.3,27341,"gp_mid",37.44,35.63,"302",1,275.8,"kungurian",1
"54640",114313,"col","Lekvorkuta",57.540001,66.010002,"Usinskoe coalfield, Well UK-819, 111 m, Pechora Basin",NA,"",1,"Kungurian","",279.3,272.3,27341,"gp_mid",37.29,34.98,"302",1,275.8,"kungurian",1
"54641",114314,"col","Lekvorkuta",64.175003,67.684998,"Vorkutskoe Coalfield, Well K-749, 207 m, Pechora Basin",NA,"",1,"Kungurian","",279.3,272.3,27341,"gp_mid",37.59,38.06,"302",1,275.8,"kungurian",1
"54642",114315,"col","Lekvorkuta",57.540001,66.010002,"Usinskoe coalfield, Well UK-543, 157 m, Pechora Basin",NA,"",1,"Kungurian","",279.3,272.3,27341,"gp_mid",37.29,34.98,"302",1,275.8,"kungurian",1
"54644",114320,"col","Lekvorkuta",57.540001,66.010002,"Usinskoe coalfield, well UK-794, 303 m, Pechora Basin",NA,"",1,"Kungurian","",279.3,272.3,27341,"gp_mid",37.29,34.98,"302",1,275.8,"kungurian",1
"54645",114321,"col","",58.724998,66.245003,"Shar'yu River, unspecified Kungurian, Pechora Basin",NA,"",1,"Kungurian","",279.3,272.3,27341,"gp_mid",37.44,35.49,"302",1,275.8,"kungurian",1
"54646",114322,"col","",54.849998,61.75,"Myeldino Village, Vychedga River, quarry 1.5 km from Izyashor creek",NA,"",1,"Kungurian","",279.3,272.3,27341,"gp_mid",40.11,31.24,"302",1,275.8,"kungurian",1
"54648",114325,"col","Lekvorkuta",59,66.330002,"Zaostrennaya River, Lekvorkuta Svita, Pechora Basin",NA,"",2,"Kungurian","",279.3,272.3,27341,"gp_mid",37.44,35.63,"302",1,275.8,"kungurian",1
"54651",114331,"col","Lekvorkuta",61.07,66.275002,"Oshperskoe coalfield, well IK-1532, 162 m, Pechora Basin",NA,"",1,"Kungurian","",279.3,272.3,27341,"gp_mid",38.13,36.26,"302",1,275.8,"kungurian",1
"54652",114332,"col","Lekvorkuta",60.549999,66.599998,"Verkhnerogovskoe coalfield, Well BK-1208, 189 m, Pechora Basin",NA,"",1,"Kungurian","",279.3,272.3,27341,"gp_mid",37.66,36.29,"302",1,275.8,"kungurian",1
"54653",114333,"col","Lekvorkuta",60.549999,66.599998,"Verkhnerogovskoe coalfield, Well BK-1260, 277 m, Pechora Basin",NA,"",1,"Kungurian","",279.3,272.3,27341,"gp_mid",37.66,36.29,"302",1,275.8,"kungurian",1
"54654",114334,"col","Lekvorkuta",60.549999,66.599998,"Verkhnerogovskoe coalfield, Well BK-1209, 103 m, Pechora Basin",NA,"",1,"Kungurian","",279.3,272.3,27341,"gp_mid",37.66,36.29,"302",1,275.8,"kungurian",1
"54655",114335,"col","Lekvorkuta",60.549999,66.599998,"Verkhnerogovskoe coalfield, Well BK-1338, 481 m, Pechora Basin",NA,"",1,"Kungurian","",279.3,272.3,27341,"gp_mid",37.66,36.29,"302",1,275.8,"kungurian",1
"54658",114338,"col","Lekvorkuta",64.175003,67.684998,"Vorkutskoe Coalfield, Well K-1176, 391 m, Pechora Basin",NA,"",1,"Kungurian","",279.3,272.3,27341,"gp_mid",37.59,38.06,"302",1,275.8,"kungurian",1
"54659",114339,"col","Lekvorkuta",60.549999,66.599998,"Verkhnerogovskoe coalfield, Well BK-1208, 400 m, Pechora Basin",NA,"",1,"Kungurian","",279.3,272.3,27341,"gp_mid",37.66,36.29,"302",1,275.8,"kungurian",1
"54660",114340,"col","Lekvorkuta",63.924999,67.370003,"Yunyaginskoe Coalfield, Well YUK-131, 167 m, Pechora Basin",NA,"",1,"Kungurian","",279.3,272.3,27341,"gp_mid",37.85,37.81,"302",1,275.8,"kungurian",1
"54661",114341,"col","Talata",60.220001,66.040001,"Intinskoe coalfield, Well IK-12, 105 m, Pechora Basin",NA,"",1,"Kungurian","",279.3,272.3,27341,"gp_mid",38.1,35.84,"302",1,275.8,"kungurian",1
"54664",114344,"col","Lekvorkuta",63.799999,67.599998,"Vorgashorskoe Coalfield, Well VK-1326, 538 m, Pechora Basin",NA,"",1,"Kungurian","",279.3,272.3,27341,"gp_mid",37.57,37.9,"302",1,275.8,"kungurian",1
"54665",114345,"col","Lekvorkuta",63.799999,67.599998,"Vorgashorskoe Coalfield, Well VK-14, 1007 m, Pechora Basin",NA,"",1,"Kungurian","",279.3,272.3,27341,"gp_mid",37.57,37.9,"302",1,275.8,"kungurian",1
"54667",114349,"col","Lekvorkuta",57.540001,66.010002,"Usinskoe coalfield, Well UK-82, 136 m, Pechora Basin",NA,"",1,"Kungurian","",279.3,272.3,27341,"gp_mid",37.29,34.98,"302",1,275.8,"kungurian",1
"54688",114370,"col","Lekvorkuta",60.220001,66.040001,"Intinskoe coalfield, Well IK-195, 185 m, Pechora Basin",NA,"",1,"Kungurian","",279.3,272.3,27341,"gp_mid",38.1,35.84,"302",1,275.8,"kungurian",1
"54696",114378,"col","Lekvorkuta",63.775002,67.330002,"Seydinskoe coalfield, Well SDK-399, 246-311 m, Pechora Basin",NA,"",1,"Kungurian","",279.3,272.3,27341,"gp_mid",37.85,37.74,"302",1,275.8,"kungurian",1
"54697",114379,"col","Lekvorkuta",60.549999,66.599998,"Verkhnerogovskoe coalfield, Well BK-1326, 700 m, Pechora Basin",NA,"",1,"Kungurian","",279.3,272.3,27341,"gp_mid",37.66,36.29,"302",1,275.8,"kungurian",1
"54698",114380,"col","Lekvorkuta",57.540001,66.010002,"Usinskoe coalfield, Well UK-29, 240 m, Pechora Basin",NA,"",1,"Kungurian","",279.3,272.3,27341,"gp_mid",37.29,34.98,"302",1,275.8,"kungurian",1
"54700",114382,"col","Lekvorkuta",57.540001,66.010002,"Usinskoe coalfield, Well UK-81, 342 m, Pechora Basin",NA,"",1,"Kungurian","",279.3,272.3,27341,"gp_mid",37.29,34.98,"302",1,275.8,"kungurian",1
"54701",114383,"col","",57.23,57.369999,"Kishert' River, western Urals",NA,"",1,"Kungurian","",279.3,272.3,27341,"gp_mid",44.72,29.05,"302",1,275.8,"kungurian",1
"54704",114386,"col","Lekvorkuta",57.540001,66.010002,"Usinskoe coalfield, Well UK-905, 410 m, Pechora Basin",NA,"",1,"Kungurian","",279.3,272.3,27341,"gp_mid",37.29,34.98,"302",1,275.8,"kungurian",1
"54705",114387,"col","Lekvorkuta",57.540001,66.010002,"Usinskoe coalfield, Well UK-544, 298 m, Pechora Basin",NA,"",1,"Kungurian","",279.3,272.3,27341,"gp_mid",37.29,34.98,"302",1,275.8,"kungurian",1
"54707",114389,"col","Lekvorkuta",64.175003,67.684998,"Vorkutskoe Coalfield, Well K-353, 84 m, Pechora Basin",NA,"",1,"Kungurian","",279.3,272.3,27341,"gp_mid",37.59,38.06,"302",1,275.8,"kungurian",1
"54708",114390,"col","Lekvorkuta",60.549999,66.599998,"Verkhnerogovskoe coalfield, Well BK-1320, 406 m, Pechora Basin",NA,"",1,"Kungurian","",279.3,272.3,27341,"gp_mid",37.66,36.29,"302",1,275.8,"kungurian",1
"54709",114391,"col","Lekvorkuta",59.5,65.75,"Kozhimskoe Coalfield, Well IK-118, 250 m, Pechora Basin",NA,"",1,"Kungurian","",279.3,272.3,27341,"gp_mid",38.16,35.43,"302",1,275.8,"kungurian",1
"54711",114393,"col","Lekvorkuta",57.799999,66,"Usa River, lower Lekvorkuta Svita, Pechora Basin",NA,"",1,"Kungurian","",279.3,272.3,27341,"gp_mid",37.38,35.05,"302",1,275.8,"kungurian",1
"54712",114394,"col","Lekvorkuta",59.5,65.75,"Kozhim River, Ayach'yaginskaya Subsvita, Pechora Basin",NA,"",1,"Kungurian","",279.3,272.3,27341,"gp_mid",38.16,35.43,"302",1,275.8,"kungurian",1
"54713",114395,"col","Lekvorkuta",63.924999,67.370003,"Yunyaginskoe Coalfield, Well YUK-138, 17 m, Pechora Basin",NA,"",1,"Kungurian","",279.3,272.3,27341,"gp_mid",37.85,37.81,"302",1,275.8,"kungurian",1
"54717",114399,"col","Lekvorkuta",64.175003,67.684998,"Vorkutskoe Coalfield, Well K-1124, 330 m, Pechora Basin",NA,"",1,"Kungurian","",279.3,272.3,27341,"gp_mid",37.59,38.06,"302",1,275.8,"kungurian",1
"54718",114400,"col","",48,65,"Vasil'kovskaya structure, Well 145, 1705 m, Timan-Pechora",NA,"",1,"Kungurian","",279.3,272.3,27341,"gp_mid",34.89,31.43,"302",1,275.8,"kungurian",1
"54720",114402,"col","Lekvorkuta",61.599998,68.099998,"Vashutkinykh lake, Well BK-1, 380 m, Pechora Basin",NA,"",1,"Kungurian","",279.3,272.3,27341,"gp_mid",36.45,37.51,"302",1,275.8,"kungurian",1
"54721",114403,"col","Lekvorkuta",61.599998,68.099998,"Vashutkinykh lake, Well BK-14, 863 m, Pechora Basin",NA,"",1,"Kungurian","",279.3,272.3,27341,"gp_mid",36.45,37.51,"302",1,275.8,"kungurian",1
"54722",114404,"col","Lekvorkuta",63.799999,67.599998,"Vorgashorskoe Coalfield, Well VK-1155, 166 m, Pechora Basin",NA,"",1,"Kungurian","",279.3,272.3,27341,"gp_mid",37.57,37.9,"302",1,275.8,"kungurian",1
"54723",114405,"col","Lekvorkuta",64.175003,67.684998,"Vorkutskoe Coalfield, Well 378, 584 m, Pechora Basin",NA,"",1,"Kungurian","",279.3,272.3,27341,"gp_mid",37.59,38.06,"302",1,275.8,"kungurian",1
"54724",114406,"col","Lekvorkuta",60.220001,66.040001,"Intinskoe coalfield, Well IK-879, 211 m, Pechora Basin",NA,"",1,"Kungurian","",279.3,272.3,27341,"gp_mid",38.1,35.84,"302",1,275.8,"kungurian",1
"54725",114407,"col","Talata",64.175003,67.684998,"Vorkuta River, Upper Talata Svita, Pechora Basin",NA,"",1,"Kungurian","",279.3,272.3,27341,"gp_mid",37.59,38.06,"302",1,275.8,"kungurian",1
"54726",114408,"col","Lekvorkuta",63.799999,67.599998,"Vorgashorskoe Coalfield, Well VK-1033, 407 m, Pechora Basin",NA,"",1,"Kungurian","",279.3,272.3,27341,"gp_mid",37.57,37.9,"302",1,275.8,"kungurian",1
"54727",114409,"col","Lekvorkuta",63.799999,67.599998,"Vorgashorskoe Coalfield, Well VK-1338, 556 m, Pechora Basin",NA,"",1,"Kungurian","",279.3,272.3,27341,"gp_mid",37.57,37.9,"302",1,275.8,"kungurian",1
"54728",114410,"col","Belushkin",52.400002,71.349998,"Tonkogo Bay, outcrop 7, sample 850, Mezhdusharsky Island, Novaya Zemlya",NA,"",1,"Kungurian","",279.3,272.3,27341,"gp_mid",30.78,37.03,"302",1,275.8,"kungurian",1
"54730",114413,"col","Lekvorkuta",57.540001,66.010002,"Usinskoe coalfield, Well UK-298, 123 m, Pechora Basin",NA,"",1,"Kungurian","",279.3,272.3,27341,"gp_mid",37.29,34.98,"302",1,275.8,"kungurian",1
"54732",114415,"col","Lekvorkuta",59.5,65.75,"Kozhimskoe Coalfield, well IK-118, 82 m, Pechora Basin",NA,"",1,"Kungurian","",279.3,272.3,27341,"gp_mid",38.16,35.43,"302",1,275.8,"kungurian",1
"54735",114418,"col","Lekvorkuta",60.220001,66.040001,"Intinskoe coalfield, well IK-118, 87 m, Pechora Basin",NA,"",1,"Kungurian","",279.3,272.3,27341,"gp_mid",38.1,35.84,"302",1,275.8,"kungurian",1
"54740",114423,"col","Lekvorkuta",64.175003,67.684998,"Vorkutskoe Coalfield, Well K-889, 34 m, Pechora Basin",NA,"",1,"Kungurian","",279.3,272.3,27341,"gp_mid",37.59,38.06,"302",1,275.8,"kungurian",1
"54741",114424,"col","Lekvorkuta",65,68.800003,"Silovaya River, Pai-Khoy Range",NA,"",1,"Kungurian","",279.3,272.3,27341,"gp_mid",36.61,38.93,"302",1,275.8,"kungurian",1
"54742",114425,"col","Lekvorkuta",60.549999,66.599998,"Verkhnerogovskoe coalfield, Well BK-1326, 630 m, Pechora Basin",NA,"",1,"Kungurian","",279.3,272.3,27341,"gp_mid",37.66,36.29,"302",1,275.8,"kungurian",1
"54744",114427,"col","Lekvorkuta",51.485001,62.764999,"Chernaya River, lower Lekvorkuta Svita, Pechora Basin",NA,"",1,"Kungurian","",279.3,272.3,27341,"gp_mid",37.98,30.85,"302",1,275.8,"kungurian",1
"54747",114430,"col","Lekvorkuta",57.540001,66.010002,"Usinskoe coalfield, Well UK-835, 344 m, Pechora Basin",NA,"",1,"Kungurian","",279.3,272.3,27341,"gp_mid",37.29,34.98,"302",1,275.8,"kungurian",1
"54748",114431,"col","Lekvorkuta",60.220001,66.040001,"Intinskoe coalfield, Well IK-874, 219 m, Pechora Basin",NA,"",1,"Kungurian","",279.3,272.3,27341,"gp_mid",38.1,35.84,"302",1,275.8,"kungurian",1
"54749",114432,"col","Lekvorkuta",64.175003,67.684998,"Vorkutskoe Coalfield, Well K-1148, 260 m, Pechora Basin",NA,"",1,"Kungurian","",279.3,272.3,27341,"gp_mid",37.59,38.06,"302",1,275.8,"kungurian",1
"54751",114434,"col","Lekvorkuta",64.175003,67.684998,"Vorkutskoe Coalfield, Well K-1790, 104 m, Pechora Basin",NA,"",1,"Kungurian","",279.3,272.3,27341,"gp_mid",37.59,38.06,"302",1,275.8,"kungurian",1
"54752",114435,"col","Lekvorkuta",64.175003,67.684998,"Vorkutskoe Coalfield, Well K-157, 255 m, Pechora Basin",NA,"",1,"Kungurian","",279.3,272.3,27341,"gp_mid",37.59,38.06,"302",1,275.8,"kungurian",1
"54753",114436,"col","Lekvorkuta",64.175003,67.684998,"Vorkutskoe Coalfield, Well K-644, 88 m, Pechora Basin",NA,"",1,"Kungurian","",279.3,272.3,27341,"gp_mid",37.59,38.06,"302",1,275.8,"kungurian",1
"54755",114438,"col","Lekvorkuta",51.485001,62.764999,"Chernaya River, Lekvorkuta Svita, Pechora Basin",NA,"",1,"Kungurian","",279.3,272.3,27341,"gp_mid",37.98,30.85,"302",1,275.8,"kungurian",1
"54760",114443,"col","Lekvorkuta",64.175003,67.684998,"Vorkutskoe Coalfield, Well K-892, 126 m, Pechora Basin",NA,"",1,"Kungurian","",279.3,272.3,27341,"gp_mid",37.59,38.06,"302",1,275.8,"kungurian",1
"54761",114444,"col","Talata",58,65.5,"Bol'shaya Sinya River, Chernogo Creek, upper Talata Svita, S. Chernyschev Ridge",NA,"",2,"Kungurian","",279.3,272.3,27341,"gp_mid",37.91,34.79,"302",1,275.8,"kungurian",1
"54762",114445,"col","Lekvorkuta",60.220001,66.040001,"Intinskoe coalfield, Well IK-875, 199 m, Pechora Basin",NA,"",1,"Kungurian","",279.3,272.3,27341,"gp_mid",38.1,35.84,"302",1,275.8,"kungurian",1
"54763",114446,"col","Lekvorkuta",64.175003,67.684998,"Vorkutskoe Coalfield, Well K-455, 533 m, Pechora Basin",NA,"",1,"Kungurian","",279.3,272.3,27341,"gp_mid",37.59,38.06,"302",1,275.8,"kungurian",1
"54764",114447,"col","Lekvorkuta",60.220001,66.040001,"Intinskoe coalfield, Well IK-887, 471 m, Pechora Basin",NA,"",1,"Kungurian","",279.3,272.3,27341,"gp_mid",38.1,35.84,"302",1,275.8,"kungurian",1
"54823",114532,"col","Rodai",141.289993,38.709999,"Maiya, Towa-cho, Miyagi Prefecture",NA,"",3,"Kungurian","",279.3,272.3,27485,"gp_mid",138.06,13.86,"610",1,275.8,"kungurian",1
"55284",117254,"col","Solikamsk",56.490002,60.299999,"Mogilnikovo, Vishera River (PIN collection 3473)",NA,"PU collection VM",3,"Kungurian","",279.3,272.3,48787,"gp_mid",41.98,30.81,"302",1,275.8,"kungurian",1
"55490",115640,"col","Sabine Bay",-107.966667,75.949997,"GSC 67255, Hiccles Creek, Sabine Peninsula, Melville Island",NA,"",1,"Kungurian","",279.3,272.3,29760,"gp_mid",-2.43,37.17,"106",1,275.8,"kungurian",1
"55659",116124,"col","Qixia",109.230003,23.709999,"Laibin H30, Hongqiao Section",NA,"",1,"Kungurian","",279.3,272.3,11689,"gp_mid",124.72,-11.44,"611",1,275.8,"kungurian",1
"55711",116248,"col","Khovsgol",109.900002,43.57,"Khovsgol Somon, Unit 3",NA,"",8,"Kungurian","",279.3,272.3,27813,"gp_mid",118.62,34.66,"628",1,275.8,"kungurian",1
"55712",116249,"col","Khovsgol",109.900002,43.57,"Khovsgol Somon, Unit 4",NA,"",3,"Kungurian","",279.3,272.3,27813,"gp_mid",118.62,34.66,"628",1,275.8,"kungurian",1
"55713",116250,"col","Khovsgol",109.900002,43.57,"Khovsgol Somon, Unit 5",NA,"",3,"Kungurian","",279.3,272.3,27813,"gp_mid",118.62,34.66,"628",1,275.8,"kungurian",1
"55714",116251,"col","Khovsgol",109.900002,43.57,"Khovsgol Somon, Unit 6",NA,"",7,"Kungurian","",279.3,272.3,27813,"gp_mid",118.62,34.66,"628",1,275.8,"kungurian",1
"55715",116252,"col","Khovsgol",109.900002,43.57,"Khovsgol Somon, Unit 7",NA,"",9,"Kungurian","",279.3,272.3,27813,"gp_mid",118.62,34.66,"628",1,275.8,"kungurian",1
"55716",116253,"col","Khovsgol",109.900002,43.57,"Khovsgol Somon, Unit 8",NA,"",4,"Kungurian","",279.3,272.3,27813,"gp_mid",118.62,34.66,"628",1,275.8,"kungurian",1
"55717",116254,"col","Khovsgol",109.900002,43.57,"Khovsgol Somon, Unit 9",NA,"",15,"Kungurian","",279.3,272.3,27813,"gp_mid",118.62,34.66,"628",1,275.8,"kungurian",1
"55718",116255,"col","Khovsgol",109.900002,43.57,"Khovsgol Somon, Unit 10",NA,"",3,"Kungurian","",279.3,272.3,27813,"gp_mid",118.62,34.66,"628",1,275.8,"kungurian",1
"55735",116283,"col","Tsagan-Ula",108.400002,42.799999,"Chzhirem-Ula Mountain",NA,"",5,"Kungurian","",279.3,272.3,27813,"gp_mid",117.09,34.23,"628",1,275.8,"kungurian",1
"55799",116426,"col","Tab-yo",63.950001,69.5,"Tab-yu River, lower Tab-yu Svita, Pai-Khoy Range",NA,"",1,"Kungurian","",279.3,272.3,33646,"gp_mid",35.6,39,"302",1,275.8,"kungurian",1
"55925",116641,"col","Koshelevka",57.722,57.027,"Chekarda, Sylva River (PIN collection 118)",NA,"",27,"Kungurian","",279.3,272.3,37564,"gp_mid",45.21,29,"302",1,275.8,"kungurian",1
"55926",116642,"col","Koshelevka",57.733002,57.027,"6 km upstream of the Tisa works, Sylva river (PIN collection 99)",NA,"",5,"Kungurian","",279.3,272.3,37564,"gp_mid",45.22,29.01,"302",1,275.8,"kungurian",1
"55936",116652,"col","Koshelevka",57.722,57.027,"Chekarda, Sylva River (PIN collection 168)",NA,"",8,"Kungurian","",279.3,272.3,37564,"gp_mid",45.21,29,"302",1,275.8,"kungurian",1
"56010",116740,"col","",147.949997,-20.741667,"BMR B261d, Nebo Synclinorium",NA,"",2,"Kungurian","",279.3,272.3,37509,"gp_mid",153.56,-57.1,"801",1,275.8,"kungurian",1
"56473",117261,"col","",48.689999,55.77,"Sviask, Volga River",NA,"",2,"Kungurian","",279.3,272.3,29038,"gp_mid",42.06,24.69,"302",1,275.8,"kungurian",1
"56487",117276,"col","",43.849998,55.400002,"Arzamas",NA,"",4,"Kungurian","",279.3,272.3,29038,"gp_mid",39.96,22.71,"302",1,275.8,"kungurian",1
"56491",117282,"col","",54.993,53.830002,"Ilchegulova, basal limestone",NA,"",2,"Kungurian","",279.3,272.3,29038,"gp_mid",46.49,25.64,"302",1,275.8,"kungurian",1
"56547",117343,"col","",43.549999,55.325001,"Tjoscha River, Arzamas",NA,"",1,"Kungurian","",279.3,272.3,29038,"gp_mid",39.86,22.55,"302",1,275.8,"kungurian",1
"56548",117344,"col","",42.915001,55.419998,"Tioplova, Arzamas",NA,"",2,"Kungurian","",279.3,272.3,29038,"gp_mid",39.49,22.41,"302",1,275.8,"kungurian",1
"57154",118084,"col","",-92.349998,81.300003,"Svartevaeg Cliffs, Axel Heiberg Island",NA,"",29,"Kungurian","",279.3,272.3,26805,"gp_mid",5.27,37.58,"106",1,275.8,"kungurian",1
"57719",118916,"col","Chainaha",81.949997,33.380001,"Mushirebuca, Yanhu area, Upper Chainaha Formation, Gegyai County",NA,"",11,"Kungurian","",279.3,272.3,33711,"gp_mid",65.62,-31.92,"612",1,275.8,"kungurian",1
"57814",119038,"col","Lekvorkuta",63.810001,67.139999,"Usa River, boring 1528, depth 225-246 m",NA,"",3,"Kungurian","",279.3,272.3,27408,"gp_mid",38.06,37.64,"302",1,275.8,"kungurian",1
"58583",119968,"col","Qixia",109.223999,23.711,"Tieqiao Section, Laibin, Bed 22",NA,"",5,"Kungurian","",279.3,272.3,33736,"gp_mid",124.71,-11.45,"611",1,275.8,"kungurian",1
"58584",119969,"col","Qixia",109.223999,23.711,"Tieqiao Section, Laibin, Bed 23",NA,"",4,"Kungurian","",279.3,272.3,33736,"gp_mid",124.71,-11.45,"611",1,275.8,"kungurian",1
"58585",119970,"col","Qixia",109.223999,23.711,"Tieqiao Section, Laibin, Bed 24",NA,"",3,"Kungurian","",279.3,272.3,33736,"gp_mid",124.71,-11.45,"611",1,275.8,"kungurian",1
"58586",119971,"col","Qixia",109.223999,23.711,"Tieqiao Section, Laibin, Bed 25",NA,"",2,"Kungurian","",279.3,272.3,33736,"gp_mid",124.71,-11.45,"611",1,275.8,"kungurian",1
"58587",119972,"col","Qixia",109.223999,23.711,"Tieqiao Section, Laibin, Bed 26",NA,"",1,"Kungurian","",279.3,272.3,33736,"gp_mid",124.71,-11.45,"611",1,275.8,"kungurian",1
"58588",119973,"col","Qixia",109.224998,23.711,"Tieqiao Section, Laibin, Bed 28",NA,"",1,"Kungurian","",279.3,272.3,33736,"gp_mid",124.71,-11.45,"611",1,275.8,"kungurian",1
"58589",119974,"col","Qixia",109.224998,23.711,"Tieqiao Section, Laibin, Bed 29",NA,"",1,"Kungurian","",279.3,272.3,33736,"gp_mid",124.71,-11.45,"611",1,275.8,"kungurian",1
"58590",119975,"col","Qixia",109.224998,23.711,"Tieqiao Section, Laibin, Bed 30",NA,"",4,"Kungurian","",279.3,272.3,33736,"gp_mid",124.71,-11.45,"611",1,275.8,"kungurian",1
"58591",119976,"col","Qixia",109.224998,23.711,"Tieqiao Section, Laibin, Bed 31",NA,"",2,"Kungurian","",279.3,272.3,33736,"gp_mid",124.71,-11.45,"611",1,275.8,"kungurian",1
"58592",119977,"col","Qixia",109.224998,23.711,"Tieqiao Section, Laibin, Bed 32",NA,"",4,"Kungurian","",279.3,272.3,33736,"gp_mid",124.71,-11.45,"611",1,275.8,"kungurian",1
"58593",119978,"col","Qixia",109.224998,23.711,"Tieqiao Section, Laibin, Bed 33",NA,"",5,"Kungurian","",279.3,272.3,33736,"gp_mid",124.71,-11.45,"611",1,275.8,"kungurian",1
"58594",119979,"col","Qixia",109.224998,23.711,"Tieqiao Section, Laibin, Bed 34",NA,"",1,"Kungurian","",279.3,272.3,33736,"gp_mid",124.71,-11.45,"611",1,275.8,"kungurian",1
"58595",119980,"col","Qixia",109.225998,23.711,"Tieqiao Section, Laibin, Bed 37",NA,"",2,"Kungurian","",279.3,272.3,33736,"gp_mid",124.71,-11.45,"611",1,275.8,"kungurian",1
"58596",119981,"col","Qixia",109.225998,23.711,"Tieqiao Section, Laibin, Bed 38",NA,"",2,"Kungurian","",279.3,272.3,33736,"gp_mid",124.71,-11.45,"611",1,275.8,"kungurian",1
"58597",119982,"col","Qixia",109.225998,23.711,"Tieqiao Section, Laibin, Bed 39",NA,"",2,"Kungurian","",279.3,272.3,33736,"gp_mid",124.71,-11.45,"611",1,275.8,"kungurian",1
"58598",119983,"col","Qixia",109.225998,23.711,"Tieqiao Section, Laibin, Bed 40",NA,"",1,"Kungurian","",279.3,272.3,33736,"gp_mid",124.71,-11.45,"611",1,275.8,"kungurian",1
"58599",119984,"col","Qixia",109.227997,23.709999,"Tieqiao Section, Laibin, Bed 53",NA,"",1,"Kungurian","",279.3,272.3,33736,"gp_mid",124.72,-11.45,"611",1,275.8,"kungurian",1
"58600",119985,"col","Qixia",109.227997,23.709999,"Tieqiao Section, Laibin, Bed 54",NA,"",4,"Kungurian","",279.3,272.3,33736,"gp_mid",124.72,-11.45,"611",1,275.8,"kungurian",1
"58601",119986,"col","Qixia",109.228996,23.709999,"Tieqiao Section, Laibin, Bed 60",NA,"",5,"Kungurian","",279.3,272.3,33736,"gp_mid",124.72,-11.45,"611",1,275.8,"kungurian",1
"58602",119987,"col","Qixia",109.230003,23.709999,"Tieqiao Section, Laibin, Bed 64",NA,"",5,"Kungurian","",279.3,272.3,33736,"gp_mid",124.72,-11.44,"611",1,275.8,"kungurian",1
"58603",119988,"col","Qixia",109.230003,23.709999,"Tieqiao Section, Laibin, Bed 65",NA,"",1,"Kungurian","",279.3,272.3,33736,"gp_mid",124.72,-11.44,"611",1,275.8,"kungurian",1
"58604",119989,"col","Qixia",109.230003,23.709999,"Tieqiao Section, Laibin, Bed 66",NA,"",1,"Kungurian","",279.3,272.3,33736,"gp_mid",124.72,-11.44,"611",1,275.8,"kungurian",1
"58605",119990,"col","Qixia",109.231003,23.709999,"Tieqiao Section, Laibin, Bed 69",NA,"",1,"Kungurian","",279.3,272.3,33736,"gp_mid",124.72,-11.44,"611",1,275.8,"kungurian",1
"58606",119991,"col","Qixia",109.231003,23.709999,"Tieqiao Section, Laibin, Bed 74",NA,"",2,"Kungurian","",279.3,272.3,33736,"gp_mid",124.72,-11.44,"611",1,275.8,"kungurian",1
"58607",119992,"col","Qixia",109.231003,23.709,"Tieqiao Section, Laibin, Bed 76(85-77)",NA,"",14,"Kungurian","",279.3,272.3,33736,"gp_mid",124.72,-11.44,"611",1,275.8,"kungurian",1
"58608",119993,"col","Maokou",109.235001,23.709,"Tieqiao Section, Laibin, Bed 104",NA,"",2,"Kungurian","",279.3,272.3,33736,"gp_mid",124.72,-11.44,"611",1,275.8,"kungurian",1
"58609",119994,"col","Maokou",109.235001,23.708,"Tieqiao Section, Laibin, Bed 109",NA,"",3,"Kungurian","",279.3,272.3,33736,"gp_mid",124.72,-11.44,"611",1,275.8,"kungurian",1
"58640",120025,"col","Qixia",117.199997,26.35,"Chengguan, Qixia Formation, Longyan County",NA,"",1,"Kungurian","",279.3,272.3,34166,"gp_mid",127.29,-4.19,"611",1,275.8,"kungurian",1
"58655",120041,"col","Qixia",114.675003,28.92,"Huangsha, Xiushui County",NA,"",1,"Kungurian","",279.3,272.3,34166,"gp_mid",123.88,-4.36,"611",1,275.8,"kungurian",1
"58704",120090,"col","Qixia",114.574997,29.045,"Qingshuiyan, Qixia Fm, Sidou, Xiushui County",NA,"",1,"Kungurian","",279.3,272.3,34166,"gp_mid",123.73,-4.35,"611",1,275.8,"kungurian",1
"58865",120307,"col","Qixia",112.220001,31.120001,"Jingmen County, near Ziling village",NA,"",1,"Kungurian","",279.3,272.3,38481,"gp_mid",120.82,-4.58,"611",1,275.8,"kungurian",1
"59149",120683,"col","",150.509995,-35.259998,"Coastline between Ulladulla and St. George's Basin",NA,"",1,"Kungurian","",279.3,272.3,23110,"gp_mid",171.79,-69.44,"801",1,275.8,"kungurian",1
"59406",121003,"col","Funabuseyama",136.658997,35.681999,"Kurumibashi, Neohigashidani, Neo-mura, Motosu-gun",NA,"",1,"Kungurian","",279.3,272.3,27423,"gp_mid",133.29,12.76,"610",1,275.8,"kungurian",1
"59445",121054,"col","Qixia",109.529999,23.4,"Guzuo, Tongwan, Wuxuan County",NA,"",1,"Kungurian","",279.3,272.3,35243,"gp_mid",125.14,-11.44,"611",1,275.8,"kungurian",1
"59449",121058,"col","Qixia",114.184998,29.549999,"Jianshan, Lukou, Chongyang County",NA,"",1,"Kungurian","",279.3,272.3,35243,"gp_mid",123.12,-4.29,"611",1,275.8,"kungurian",1
"59452",121061,"col","Qixia",110.834999,31.129999,"Jianyanping, Qixia Fm, Xingshan County",NA,"",1,"Kungurian","",279.3,272.3,35243,"gp_mid",120.03,-5.47,"611",1,275.8,"kungurian",1
"59465",121074,"col","Qixia",109.074997,29.68,"Luoshuidong, Baiyan, Qixia Fm, Xianfeng County",NA,"",1,"Kungurian","",279.3,272.3,35243,"gp_mid",120.11,-7.57,"611",1,275.8,"kungurian",1
"59473",121082,"col","Qixia",107.5,25,"Nandan County, Qixia Formation",NA,"",2,"Kungurian","",279.3,272.3,35243,"gp_mid",122.66,-11.76,"611",1,275.8,"kungurian",1
"59486",121095,"col","Qixia",112.150002,28.51,"Taojiang County, Qixia Formation",NA,"",1,"Kungurian","",279.3,272.3,35243,"gp_mid",122.78,-6.32,"611",1,275.8,"kungurian",1
"59492",121101,"col","Qixia",112.949997,27.85,"Xiangtan County, Qixia Formation",NA,"",1,"Kungurian","",279.3,272.3,35243,"gp_mid",123.74,-6.21,"611",1,275.8,"kungurian",1
"59500",121109,"col","Qixia",110.974998,30.945,"Xintan County, Qixia Formation",NA,"",1,"Kungurian","",279.3,272.3,35243,"gp_mid",120.25,-5.51,"611",1,275.8,"kungurian",1
"59514",121123,"col","Qixia",114.114998,29.525,"Zhangjialing, Bainiqiao, Chongyang County",NA,"",1,"Kungurian","",279.3,272.3,35243,"gp_mid",123.1,-4.35,"611",1,275.8,"kungurian",1
"59553",121170,"col","Qixia",107.529999,26.26,"Zhangjiamiao, Duyun County",NA,"",1,"Kungurian","",279.3,272.3,33187,"gp_mid",121.73,-10.89,"611",1,275.8,"kungurian",1
"59557",121174,"col","Qixia",106.565002,26.087999,"Maoying, Qixia Fm, Ziyun",NA,"",1,"Kungurian","",279.3,272.3,33187,"gp_mid",121.26,-11.64,"611",1,275.8,"kungurian",1
"59559",121176,"col","Qixia",106.779999,27.66,"Huoshiba, Zunyi County",NA,"",1,"Kungurian","",279.3,272.3,33187,"gp_mid",120.23,-10.42,"611",1,275.8,"kungurian",1
"59561",121178,"col","Qixia",106.035004,25.83,"Zhulinchong, Ziyun County",NA,"",1,"Kungurian","",279.3,272.3,33187,"gp_mid",121.12,-12.16,"611",1,275.8,"kungurian",1
"59563",121180,"col","Qixia",105.805,26.73,"Shuidong, Qimola, Zhijin County",NA,"",1,"Kungurian","",279.3,272.3,33187,"gp_mid",120.31,-11.69,"611",1,275.8,"kungurian",1
"59564",121181,"col","Qixia",106.779999,26.389999,"Shuichang, Longli County",NA,"",1,"Kungurian","",279.3,272.3,33187,"gp_mid",121.17,-11.29,"611",1,275.8,"kungurian",1
"59653",121295,"col","Qixia",106.635002,26.165001,"Chengfanguan, Huishui County",NA,"",1,"Kungurian","",279.3,272.3,33771,"gp_mid",121.25,-11.54,"611",1,275.8,"kungurian",1
"59984",121705,"col","Yessangang",86.666664,36.883331,"Peak 5750, 71-7G11-71509, Qiemo County",NA,"",2,"Kungurian","",279.3,272.3,33782,"gp_mid",95.33,34.93,"602",1,275.8,"kungurian",1
"59985",121706,"col","Yessangang",85.699997,37.150002,"Tuokuzdaban Mountain 71-7G12-I-1, Qiemo County",NA,"",1,"Kungurian","",279.3,272.3,33782,"gp_mid",94.8,35.62,"602",1,275.8,"kungurian",1
"59986",121707,"col","Yessangang",85.699997,37.150002,"Tuokuzdaban Mountain 71-7G12-927, Qiemo County",NA,"",6,"Kungurian","",279.3,272.3,33782,"gp_mid",94.8,35.62,"602",1,275.8,"kungurian",1
"59993",121720,"col","Dangchong",111.258003,26.983,"Jiangjiachong, bed 4 lower, southern Shaoyang City",NA,"",6,"Kungurian","",279.3,272.3,27649,"gp_mid",123.43,-7.91,"611",1,275.8,"kungurian",1
"59998",121725,"col","Qixia",114.970001,28.120001,"Xiaofang, Mengshan, Shanggao County",NA,"",4,"Kungurian","",279.3,272.3,32521,"gp_mid",124.67,-4.66,"611",1,275.8,"kungurian",1
"60316",122272,"col","Dangchong",111.258003,26.983,"Jiangjiachong, southern Shaoyang City (pre-1985 coll)",NA,"",2,"Kungurian","",279.3,272.3,18305,"gp_mid",123.43,-7.91,"611",1,275.8,"kungurian",1
"60500",122753,"col","Koshelevka",57.722,57.027,"Chekarda, Sylva River (PIN collection 4987)",NA,"Tshekarda",37,"Kungurian","",279.3,272.3,34932,"gp_mid",45.21,29,"302",1,275.8,"kungurian",1
"60501",122754,"col","Koshelevka",57.23,57.369999,"Ust-Kishert Locality",NA,"",2,"Kungurian","",279.3,272.3,34980,"gp_mid",44.72,29.05,"302",1,275.8,"kungurian",1
"60507",122856,"col","Koshelevka",57.839001,57.766998,"Barda, Krutaya Katushka (PIN collection 4909)",NA,"",2,"Kungurian","",279.3,272.3,34932,"gp_mid",44.65,29.56,"302",1,275.8,"kungurian",1
"60508",122857,"col","Koshelevka",57.842999,57.780998,"Barda Locality (PIN collection 4902)",NA,"",1,"Kungurian","",279.3,272.3,34932,"gp_mid",44.64,29.57,"302",1,275.8,"kungurian",1
"60509",122859,"col","Lek-Vorkuta",64.127998,67.769997,"Vorkuta Deposit, Borehole K-384, Depth 360.1 m ",NA,"PIN collection 1631",1,"Kungurian","",279.3,272.3,39530,"gp_mid",37.49,38.1,"302",1,275.8,"kungurian",1
"60510",122864,"col","Koshelevka",57.722,57.027,"Chekarda, Sylva River (PIN collection 1452)",NA,"",2,"Kungurian","",279.3,272.3,39167,"gp_mid",45.21,29,"302",1,275.8,"kungurian",1
