"","collection_no","record_type","formation","lng","lat","collection_name","collection_subset","collection_aka","n_occs","early_interval","late_interval","max_ma","min_ma","reference_no","paleomodel","paleolng","paleolat","geoplate","marine","mid_ma","time_bin","ext"
"115",1435,"col","Lisbon",-87.595001,31.532778,"Alabama River (H76-27-1)",NA,"H76-27",49,"Lutetian","",47.8,41.3,42,"gp_mid",-67.83,35.11,"109",1,44.55,"lutetian",1
"123",1443,"col","Cook Mountain",-86.561386,31.291389,"Conecuh River (H76-49-1)",NA,"H76-49",48,"Lutetian","",47.8,41.3,42,"gp_mid",-66.84,34.68,"109",1,44.55,"lutetian",1
"124",1444,"col","Cook Mountain",-86.48333,31.308332,"Conecuh River (H76-52)",NA,"H76-52",46,"Lutetian","",47.8,41.3,42,"gp_mid",-66.76,34.68,"109",1,44.55,"lutetian",1
"125",1445,"col","Nanjemoy",-76.791946,37.517502,"Pamunkey River (H76-64-2)",NA,"H76-64",40,"Lutetian","",47.8,41.3,42,"gp_mid",-55.23,38.82,"109",1,44.55,"lutetian",1
"126",1446,"col","Nanjemoy",-76.791946,37.517502,"Pamunkey River (H76-64-3)",NA,"H76-64",46,"Lutetian","",47.8,41.3,42,"gp_mid",-55.23,38.82,"109",1,44.55,"lutetian",1
"127",1447,"col","Nanjemoy",-76.791946,37.517502,"Pamunkey River (H76-64-5)",NA,"H76-64",42,"Lutetian","",47.8,41.3,42,"gp_mid",-55.23,38.82,"109",1,44.55,"lutetian",1
"128",1448,"col","Nanjemoy",-76.791946,37.517502,"Pamunkey River (H76-64-8)",NA,"H76-64",37,"Lutetian","",47.8,41.3,42,"gp_mid",-55.23,38.82,"109",1,44.55,"lutetian",1
"2539",8047,"col","Selsey",-1.316667,51.016666,"Campanile Beds, Selsey FM, England",NA,"SU 54720186",93,"Lutetian","",47.8,41.3,536,"gp_mid",5.58,43.59,"315",1,44.55,"lutetian",1
"2540",8048,"col","Earnley",-1.166667,51.083332,"Copythorne, Hampshire, England",NA,"",12,"Lutetian","",47.8,41.3,537,"gp_mid",5.72,43.65,"315",1,44.55,"lutetian",1
"2571",8123,"col","Selsey",-1.166667,51.083332,"Selsey FM, Hampshire Basin, England",NA,"",19,"Lutetian","",47.8,41.3,550,"gp_mid",5.72,43.65,"315",1,44.55,"lutetian",1
"2573",8125,"col","Selsey",-0.783333,50.733334,"Units SL1-SL3, East Selsey, West Sussex",NA,"",195,"Lutetian","",47.8,41.3,551,"gp_mid",6.01,43.28,"315",1,44.55,"lutetian",1
"2595",8124,"col","Selsey",-0.783333,50.733334,"Units S1-S9, Selsey Peninsula, West Sussex",NA,"",535,"Lutetian","",47.8,41.3,551,"gp_mid",6.01,43.28,"315",1,44.55,"lutetian",1
"3689",13346,"col","Tallahatta",-86.519997,31.366667,"Point A Dam Site",NA,"Point ""A"" Dam Site, Conecuh River",68,"Lutetian","",47.8,41.3,688,"gp_mid",-66.78,34.74,"109",1,44.55,"lutetian",1
"4389",24107,"col","",-1.833333,50.733334,"Bournemouth Marine Beds",NA,"",33,"Lutetian","",47.8,41.3,6818,"gp_mid",5.1,43.33,"315",1,44.55,"lutetian",1
"4390",24108,"col","",-1.8,50.716667,"The Boscombe Sands at Southbourne",NA,"",34,"Lutetian","",47.8,41.3,6818,"gp_mid",5.13,43.31,"315",1,44.55,"lutetian",1
"9278",38719,"col","Brussles",4.563495,50.918949,"Nederokkerzeel",NA,"Imbrechts sand pit; BGS 74 W 148",6,"Lutetian","",47.8,41.3,10411,"gp_mid",10.65,43.21,"315",1,44.55,"lutetian",1
"10412",40792,"col","",28.450001,41.150002,"Level 1, Lutetian, Catalca-Karacakoy, Turkey",NA,"",4,"Lutetian","",47.8,41.3,11023,"gp_mid",29.49,26.4,"308",1,44.55,"lutetian",1
"10413",40793,"col","",28.450001,41.150002,"Level 2, Lutetian, Catalca-Karacakoy, Turkey",NA,"",18,"Lutetian","",47.8,41.3,11023,"gp_mid",29.49,26.4,"308",1,44.55,"lutetian",1
"11026",41847,"col","Earnley",-0.858,50.762001,"Bracklesham, Earnley Formation",NA,"",4,"Lutetian","",47.8,41.3,10367,"gp_mid",5.95,43.31,"315",1,44.55,"lutetian",1
"11050",41872,"col","Marsh Farm",-0.844,50.762001,"Earnley Marsh, Marsh Farm Formation, E11",NA,"",2,"Lutetian","",47.8,41.3,10367,"gp_mid",5.96,43.31,"315",1,44.55,"lutetian",1
"11051",41874,"col","Selsey",-0.858,50.762001,"Medmerry, Selsey Formation",8124,"",1,"Lutetian","",47.8,41.3,10367,"gp_mid",5.95,43.31,"315",1,44.55,"lutetian",1
"11065",41888,"col","Elmore",-1.2005,50.796001,"Lee-on-the-Solent, Elmore Formation",NA,"",70,"Lutetian","",47.8,41.3,10858,"gp_mid",5.66,43.36,"315",1,44.55,"lutetian",1
"11071",41893,"col","Elmore",-1.2005,50.796001,"Lee-on-the-Solent, Elmore Formation, Unit 1",41888,"",9,"Lutetian","",47.8,41.3,10858,"gp_mid",5.66,43.36,"315",1,44.55,"lutetian",1
"11072",41894,"col","Elmore",-1.2005,50.796001,"Lee-on-the-Solent, Elmore Formation, Unit 2",41888,"",11,"Lutetian","",47.8,41.3,10858,"gp_mid",5.66,43.36,"315",1,44.55,"lutetian",1
"11073",41895,"col","Elmore",-1.2005,50.796001,"Lee-on-the-Solent, Elmore Formation, Unit 3",41888,"",7,"Lutetian","",47.8,41.3,10858,"gp_mid",5.66,43.36,"315",1,44.55,"lutetian",1
"11074",41896,"col","Elmore",-1.2005,50.796001,"Lee-on-the-Solent, Elmore Formation, Unit 4",41888,"",6,"Lutetian","",47.8,41.3,10858,"gp_mid",5.66,43.36,"315",1,44.55,"lutetian",1
"11108",41945,"col","Elmore",-1.2005,50.796001,"Lee-on-the-Solent, Elmore Formation, Unit 5",41888,"",15,"Lutetian","",47.8,41.3,10858,"gp_mid",5.66,43.36,"315",1,44.55,"lutetian",1
"11109",41947,"col","Elmore",-1.2005,50.796001,"Lee-on-the-Solent, Elmore Formation, Unit 6",41888,"",10,"Lutetian","",47.8,41.3,10858,"gp_mid",5.66,43.36,"315",1,44.55,"lutetian",1
"11110",41948,"col","Elmore",-1.2005,50.796001,"Lee-on-the-Solent, Elmore Formation, Unit 7",41888,"",11,"Lutetian","",47.8,41.3,10858,"gp_mid",5.66,43.36,"315",1,44.55,"lutetian",1
"11111",41950,"col","Elmore",-1.2005,50.796001,"Lee-on-the-Solent, Elmore Formation, Unit 8",41888,"",10,"Lutetian","",47.8,41.3,10858,"gp_mid",5.66,43.36,"315",1,44.55,"lutetian",1
"11112",41951,"col","Elmore",-1.2005,50.796001,"Lee-on-the-Solent, Elmore Formation, Unit 9",41888,"",6,"Lutetian","",47.8,41.3,10858,"gp_mid",5.66,43.36,"315",1,44.55,"lutetian",1
"11113",41952,"col","Elmore",-1.2005,50.796001,"Lee-on-the-Solent, Elmore Formation, Unit 10",41888,"",7,"Lutetian","",47.8,41.3,10858,"gp_mid",5.66,43.36,"315",1,44.55,"lutetian",1
"11114",41953,"col","Elmore",-1.2005,50.796001,"Lee-on-the-Solent, Elmore Formation, Unit 11",41888,"",7,"Lutetian","",47.8,41.3,10858,"gp_mid",5.66,43.36,"315",1,44.55,"lutetian",1
"11127",41966,"col","Selsey",-1.2005,50.796001,"Lee-on-the-Solent, Selsey Formation",NA,"",25,"Lutetian","",47.8,41.3,10858,"gp_mid",5.66,43.36,"315",1,44.55,"lutetian",1
"11149",41989,"col","Selsey",-1.2115,50.804001,"Lee-on-the-Solent, Selsey Formation, L3vi-L4",NA,"",96,"Lutetian","",47.8,41.3,11062,"gp_mid",5.65,43.37,"315",1,44.55,"lutetian",1
"11152",41992,"col","Selsey",-1.2115,50.804001,"Lee-on-the-Solent, Selsey Formation, L5i-L5ii",NA,"",123,"Lutetian","",47.8,41.3,11062,"gp_mid",5.65,43.37,"315",1,44.55,"lutetian",1
"11154",41994,"col","Selsey",-1.2115,50.804001,"Lee-on-the-Solent, Selsey Formation, L6i-L6iii",NA,"",75,"Lutetian","",47.8,41.3,11062,"gp_mid",5.65,43.37,"315",1,44.55,"lutetian",1
"11156",41996,"col","Selsey",-1.2115,50.804001,"Lee-on-the-Solent, Selsey Formation, L7i-L7iv",NA,"",74,"Lutetian","",47.8,41.3,11062,"gp_mid",5.65,43.37,"315",1,44.55,"lutetian",1
"11158",41998,"col","Elmore",-1.2115,50.804001,"Lee-on-the-Solent, Selsey Formation, L8i-L11iii",NA,"",104,"Lutetian","",47.8,41.3,11062,"gp_mid",5.65,43.37,"315",1,44.55,"lutetian",1
"11233",42083,"col","Selsey",-1.2115,50.804001,"Lee-on-the-Solent, Selsey Formation, L1",NA,"",2,"Lutetian","",47.8,41.3,11062,"gp_mid",5.65,43.37,"315",1,44.55,"lutetian",1
"11237",42087,"col","Selsey",-1.2115,50.804001,"Lee-on-the-Solent, Selsey Formation, L3vi",41989,"",2,"Lutetian","",47.8,41.3,11062,"gp_mid",5.65,43.37,"315",1,44.55,"lutetian",1
"11239",42089,"col","Selsey",-1.2115,50.804001,"Lee-on-the-Solent, Selsey Formation, L4",41989,"",2,"Lutetian","",47.8,41.3,11062,"gp_mid",5.65,43.37,"315",1,44.55,"lutetian",1
"11249",42099,"col","Selsey",-1.2115,50.804001,"Lee-on-the-Solent, Selsey Formation, L5i",41992,"",2,"Lutetian","",47.8,41.3,11062,"gp_mid",5.65,43.37,"315",1,44.55,"lutetian",1
"11254",42104,"col","Selsey",-1.2115,50.804001,"Lee-on-the-Solent, Selsey Formation, L5ii",41992,"",4,"Lutetian","",47.8,41.3,11062,"gp_mid",5.65,43.37,"315",1,44.55,"lutetian",1
"11255",42105,"col","Selsey",-1.2115,50.804001,"Lee-on-the-Solent, Selsey Formation, L6i",41994,"",5,"Lutetian","",47.8,41.3,11062,"gp_mid",5.65,43.37,"315",1,44.55,"lutetian",1
"11256",42106,"col","Selsey",-1.2115,50.804001,"Lee-on-the-Solent, Selsey Formation, L6ii",41994,"",2,"Lutetian","",47.8,41.3,11062,"gp_mid",5.65,43.37,"315",1,44.55,"lutetian",1
"11257",42107,"col","Selsey",-1.2115,50.804001,"Lee-on-the-Solent, Selsey Formation, L6iii",41994,"",3,"Lutetian","",47.8,41.3,11062,"gp_mid",5.65,43.37,"315",1,44.55,"lutetian",1
"11258",42108,"col","Selsey",-1.2115,50.804001,"Lee-on-the-Solent, Selsey Formation, L7i",41996,"",3,"Lutetian","",47.8,41.3,11062,"gp_mid",5.65,43.37,"315",1,44.55,"lutetian",1
"11260",42110,"col","Selsey",-1.2115,50.804001,"Lee-on-the-Solent, Selsey Formation, L7ii",41996,"",8,"Lutetian","",47.8,41.3,11062,"gp_mid",5.65,43.37,"315",1,44.55,"lutetian",1
"11261",42111,"col","Selsey",-1.2115,50.804001,"Lee-on-the-Solent, Selsey Formation, L7iii",41996,"",7,"Lutetian","",47.8,41.3,11062,"gp_mid",5.65,43.37,"315",1,44.55,"lutetian",1
"11262",42112,"col","Selsey",-1.2115,50.804001,"Lee-on-the-Solent, Selsey Formation, L8",41998,"",2,"Lutetian","",47.8,41.3,11062,"gp_mid",5.65,43.37,"315",1,44.55,"lutetian",1
"11263",42113,"col","Selsey",-1.2115,50.804001,"Lee-on-the-Solent, Selsey Formation, L9",41998,"",9,"Lutetian","",47.8,41.3,11062,"gp_mid",5.65,43.37,"315",1,44.55,"lutetian",1
"11264",42114,"col","Selsey",-1.2115,50.804001,"Lee-on-the-Solent, Selsey Formation, L10",41998,"",3,"Lutetian","",47.8,41.3,11062,"gp_mid",5.65,43.37,"315",1,44.55,"lutetian",1
"11265",42115,"col","Selsey",-1.2115,50.804001,"Lee-on-the-Solent, Selsey Formation, L11i",41998,"",4,"Lutetian","",47.8,41.3,11062,"gp_mid",5.65,43.37,"315",1,44.55,"lutetian",1
"11266",42116,"col","Selsey",-1.2115,50.804001,"Lee-on-the-Solent, Selsey Formation, L11ii",41998,"",1,"Lutetian","",47.8,41.3,11062,"gp_mid",5.65,43.37,"315",1,44.55,"lutetian",1
"11267",42117,"col","Selsey",-1.2115,50.804001,"Lee-on-the-Solent, Selsey Formation, L11iii",41998,"",6,"Lutetian","",47.8,41.3,11062,"gp_mid",5.65,43.37,"315",1,44.55,"lutetian",1
"11514",42452,"col","",-0.83,51.337002,"Yateley, Bracklesham Beds, Hampshire",NA,"",1,"Lutetian","",47.8,41.3,11292,"gp_mid",6.04,43.88,"315",1,44.55,"lutetian",1
"11908",43002,"col","Centinela",-72.25,-50.5,"Bandurrias River, Calafate - Centinela Formation",NA,"",13,"Lutetian","",47.8,41.3,11392,"gp_mid",-64.64,-51.23,"291",1,44.55,"lutetian",1
"11910",43004,"col","Centinela",-72.25,-50.5,"Bandurrias River, Calafate - Upper Centinela Formation",NA,"",1,"Lutetian","",47.8,41.3,11392,"gp_mid",-64.64,-51.23,"291",1,44.55,"lutetian",1
"11911",43005,"col","Centinela",-72.25,-50.5,"Bandurrias River, Calafate - Lower Centinela Formation",NA,"",1,"Lutetian","",47.8,41.3,11392,"gp_mid",-64.64,-51.23,"291",1,44.55,"lutetian",1
"12565",44180,"col","",5.528333,43.918888,"Six kilometers east of Gignac (Lutetian of l'Hérault )",NA,"",2,"Lutetian","",47.8,41.3,11605,"gp_mid",10.95,36.18,"305",1,44.55,"lutetian",1
"13620",45524,"col","Kohat",72.19722,33.615276,"H-GSP 9204",NA,"Ganda Kas",1,"Lutetian","",47.8,41.3,11942,"gp_mid",74.41,11.44,"501",1,44.55,"lutetian",1
"13622",45527,"col","Kuldana",72.199997,33.658333,"H-GSP 9209",NA,"",2,"Lutetian","",47.8,41.3,11943,"gp_mid",74.43,11.48,"501",1,44.55,"lutetian",1
"13624",45529,"col","Kuldana",72.681664,33.783054,"Ganda Kas",NA,"includes Gingerich (1977) localities 2 & 11",16,"Lutetian","",47.8,41.3,11944,"gp_mid",74.86,11.49,"501",1,44.55,"lutetian",1
"13835",45920,"col","San Juan",-93.083336,16.666668,"La Mesa de Copoya, Chiapas, Mexico",NA,"Reef 3369",35,"Lutetian","",47.8,41.3,12233,"gp_mid",-76.88,21.59,"205",1,44.55,"lutetian",1
"14257",47022,"col","Chorgali",72.876999,32.692001,"South and southwest of Dalwal",NA,"",18,"Lutetian","",47.8,41.3,12500,"gp_mid",74.71,10.4,"501",1,44.55,"lutetian",1
"15128",48072,"col","",18.315001,47.475834,"Oroszlany",NA,"",2,"Lutetian","",47.8,41.3,12865,"gp_mid",24.18,34.86,"308",1,44.55,"lutetian",1
"15756",49887,"col","",18.450001,47.549999,"Felsogalla",NA,"Keselo-Hill, Tatabanya",3,"Lutetian","",47.8,41.3,13402,"gp_mid",24.32,34.89,"308",1,44.55,"lutetian",1
"17204",52200,"col","Kuldana",71.199997,33.599998,"Jozaria Rest House",NA,"",1,"Lutetian","",47.8,41.3,14034,"gp_mid",73.6,11.67,"501",1,44.55,"lutetian",1
"18500",55239,"col","",11.222144,45.600391,"Monte Bolca (Pesciara)",NA,"",76,"Lutetian","",47.8,41.3,14688,"gp_mid",17.81,35.09,"307",1,44.55,"lutetian",1
"18507",55255,"col","Nanjemoy",-76.991669,38.407223,"Pope's Creek, Nanjemoy Fm.",NA,"",13,"Lutetian","",47.8,41.3,14737,"gp_mid",-55.14,39.72,"109",1,44.55,"lutetian",1
"21661",60569,"col","",-72.550003,19.666668,"Station 9771",NA,"B 260 F",2,"Lutetian","",47.8,41.3,17411,"gp_mid",-64.09,20.62,"252",1,44.55,"lutetian",1
"21662",60570,"col","",-72.550003,19.666668,"Station 9857",NA,"B 260 Fa",3,"Lutetian","",47.8,41.3,17411,"gp_mid",-64.09,20.62,"252",1,44.55,"lutetian",1
"21663",60571,"col","",-72.550003,19.666668,"Station 9889",NA,"B 326 F",2,"Lutetian","",47.8,41.3,17411,"gp_mid",-64.09,20.62,"252",1,44.55,"lutetian",1
"21664",60572,"col","",-72.550003,19.666668,"Station 9861",NA,"B 267 F",3,"Lutetian","",47.8,41.3,17411,"gp_mid",-64.09,20.62,"252",1,44.55,"lutetian",1
"21665",60573,"col","",-72.666664,19.5,"Station 9792",NA,"W 316 F",13,"Lutetian","",47.8,41.3,17411,"gp_mid",-64.23,20.47,"252",1,44.55,"lutetian",1
"21666",60574,"col","",-72.666664,19.5,"Station 9952",NA,"W 345 F",6,"Lutetian","",47.8,41.3,17411,"gp_mid",-64.23,20.47,"252",1,44.55,"lutetian",1
"21667",60575,"col","",-72.666664,19.5,"Station 9950",NA,"W 343 F",3,"Lutetian","",47.8,41.3,17411,"gp_mid",-64.23,20.47,"252",1,44.55,"lutetian",1
"21668",60576,"col","",-72.666664,19.5,"Station 9754",NA,"W 288 F",1,"Lutetian","",47.8,41.3,17411,"gp_mid",-64.23,20.47,"252",1,44.55,"lutetian",1
"24375",65072,"col","Faluns de la Touraine",1.256667,47.390835,"Pontlevoy-Thenay",NA,"",17,"Lutetian","",47.8,41.3,18736,"gp_mid",7.45,39.84,"305",1,44.55,"lutetian",1
"24455",65226,"col","",38.677502,32.520279,"Wadi Ruweishid",NA,"",9,"Lutetian","",47.8,41.3,18800,"gp_mid",38.94,17.21,"503",1,44.55,"lutetian",1
"28458",71666,"col","",13.85,45.549999,"Crni Kal",NA,"Reef 3636",26,"Lutetian","",47.8,41.3,24224,"gp_mid",19.83,34.3,"307",1,44.55,"lutetian",1
"30228",75454,"col","",13.516667,45.966667,"Russiz, Gorizia",NA,"Reef 3634",28,"Lutetian","",47.8,41.3,25454,"gp_mid",19.78,34.77,"307",1,44.55,"lutetian",1
"30229",75455,"col","",1.95,48.849998,"Grignon, Yvelines, Paris Basin",NA,"",7,"Lutetian","",47.8,41.3,25456,"gp_mid",8.19,41.26,"305",1,44.55,"lutetian",1
"30634",76996,"col","",23.283333,47.266666,"Jibou area, serpulid-algal bioherm",NA,"Reef 3661",4,"Lutetian","",47.8,41.3,26052,"gp_mid",27.86,33.4,"308",1,44.55,"lutetian",1
"30691",77119,"col","",11,45.466667,"Avesa",NA,"",14,"Lutetian","",47.8,41.3,26110,"gp_mid",17.57,35.03,"307",1,44.55,"lutetian",1
"30792",77257,"col","Ilaro",3.233333,6.7,"Borehole 927 - Ilaro Fm",NA,"",74,"Lutetian","",47.8,41.3,26161,"gp_mid",3.56,-2.81,"714",1,44.55,"lutetian",1
"30925",77524,"col","",74.373611,33.241669,"Sindkhatudi Bone Bed",NA,"Sindkhatuti",11,"Lutetian","",47.8,41.3,31734,"gp_mid",76.09,10.58,"501",1,44.55,"lutetian",1
"30953",77611,"col","Bruxelles",3.45,51.083332,"Aalter Sands (Sables d'Aalter) - Bruxelles Formation",NA,"",84,"Lutetian","",47.8,41.3,24507,"gp_mid",9.71,43.42,"315",1,44.55,"lutetian",1
"30954",77612,"col","Bruxelles",4.3,50.916668,"Wemmel Sands (Sables d'Wemmel) - Bruxelles Formation",NA,"",14,"Lutetian","",47.8,41.3,24507,"gp_mid",10.43,43.22,"315",1,44.55,"lutetian",1
"30955",77613,"col","Bruxelles",4.333333,50.833332,"Bruxelles Sands (Sables d'Bruxelles) - Bruxelles Formation",NA,"",34,"Lutetian","",47.8,41.3,24507,"gp_mid",10.45,43.14,"315",1,44.55,"lutetian",1
"31751",79060,"col","Dammam",50.59,26.129999,"Hisai Jebel, 3 miles east of Rifaa",NA,"",6,"Lutetian","",47.8,41.3,26552,"gp_mid",48.49,9.33,"503",1,44.55,"lutetian",1
"32042",79943,"col","San Juan",-92.889999,16.59,"IHN 1005, Veinte de Noviembre",NA,"",45,"Lutetian","",47.8,41.3,26864,"gp_mid",-76.7,21.47,"205",1,44.55,"lutetian",1
"32467",81055,"col","Chiampo Marble",11.283333,45.549999,"Cava Lovara [upper Chiampo Marble] - Coleoidea",NA,"",1,"Lutetian","",47.8,41.3,27275,"gp_mid",17.84,35.03,"307",1,44.55,"lutetian",1
"32468",81056,"col","Chiampo Marble",11.283333,45.549999,"Cava Boschetto di Nogarole [upper Chiampo Marble] - Coleoidea",NA,"",1,"Lutetian","",47.8,41.3,27275,"gp_mid",17.84,35.03,"307",1,44.55,"lutetian",1
"32469",81057,"col","Chiampo Marble",11.283333,45.549999,"Cava Boschetto di Chiampo [upper Chiampo Marble] - Coleoidea",NA,"Cengio dell’Orbo",12,"Lutetian","",47.8,41.3,27275,"gp_mid",17.84,35.03,"307",1,44.55,"lutetian",1
"32471",81059,"col","Chiampo Marble",11.283333,45.549999,"Middle Chiampo Valley [upper Chiampo Marble]",NA,"",10,"Lutetian","",47.8,41.3,27275,"gp_mid",17.84,35.03,"307",1,44.55,"lutetian",1
"32543",81208,"col","Lisbon",-86.48333,31.299999,"ACov-1 Lisbon",NA,"",7,"Lutetian","",47.8,41.3,124,"gp_mid",-66.76,34.67,"109",1,44.55,"lutetian",1
"32544",81209,"col","Lisbon",-86.48333,31.299999,"ACov-7 Lisbon",NA,"",21,"Lutetian","",47.8,41.3,124,"gp_mid",-66.76,34.67,"109",1,44.55,"lutetian",1
"32545",81210,"col","Lisbon",-86.48333,31.299999,"ACov-12 Lisbon",NA,"",4,"Lutetian","",47.8,41.3,124,"gp_mid",-66.76,34.67,"109",1,44.55,"lutetian",1
"32547",81212,"col","Lisbon",-86.48333,31.299999,"ACov-6 Lisbon",NA,"",23,"Lutetian","",47.8,41.3,124,"gp_mid",-66.76,34.67,"109",1,44.55,"lutetian",1
"32565",81242,"col","Lisbon",-86.166664,31.200001,"ACof-2 Lisbon",NA,"",10,"Lutetian","",47.8,41.3,124,"gp_mid",-66.47,34.51,"109",1,44.55,"lutetian",1
"32566",81253,"col","Lisbon",-86.73333,31.316668,"ACon-4 Upper Lisbon",NA,"",36,"Lutetian","",47.8,41.3,124,"gp_mid",-67.01,34.73,"109",1,44.55,"lutetian",1
"32567",81254,"col","Lisbon",-86.48333,31.299999,"ACov-4 Upper Lisbon",NA,"",22,"Lutetian","",47.8,41.3,124,"gp_mid",-66.76,34.67,"109",1,44.55,"lutetian",1
"32568",81255,"col","Lisbon",-86.73333,31.316668,"ACov-5 Upper Lisbon",NA,"",11,"Lutetian","",47.8,41.3,124,"gp_mid",-67.01,34.73,"109",1,44.55,"lutetian",1
"32569",81256,"col","Lisbon",-85.849998,31.016666,"AGe-1",NA,"",1,"Lutetian","",47.8,41.3,124,"gp_mid",-66.2,34.27,"109",1,44.55,"lutetian",1
"32570",81257,"col","Lisbon",-85.849998,31.016666,"AGe-2",NA,"",9,"Lutetian","",47.8,41.3,124,"gp_mid",-66.2,34.27,"109",1,44.55,"lutetian",1
"32571",81258,"col","Lisbon",-87.566666,31.533333,"AMo-4 Upper Lisbon",NA,"",32,"Lutetian","",47.8,41.3,124,"gp_mid",-67.8,35.11,"109",1,44.55,"lutetian",1
"32572",81259,"col","Lisbon",-87.566666,31.533333,"AMo-6",NA,"",1,"Lutetian","",47.8,41.3,124,"gp_mid",-67.8,35.11,"109",1,44.55,"lutetian",1
"32574",81261,"col","Lisbon",-84.933334,31.366667,"GEa-3 Upper Lisbon",NA,"",3,"Lutetian","",47.8,41.3,124,"gp_mid",-65.18,34.44,"109",1,44.55,"lutetian",1
"32575",81262,"col","Lisbon",-84.933334,31.366667,"GEa-4 Upper Lisbon",NA,"",3,"Lutetian","",47.8,41.3,124,"gp_mid",-65.18,34.44,"109",1,44.55,"lutetian",1
"32576",81263,"col","Lisbon",-84.216667,32.066666,"GSu-1 Upper Lisbon",NA,"",1,"Lutetian","",47.8,41.3,124,"gp_mid",-64.26,34.98,"109",1,44.55,"lutetian",1
"32675",81505,"col","",76.966667,31.15,"Five Miles Northwest of Arki",NA,"",14,"Lutetian","",47.8,41.3,27484,"gp_mid",77.68,7.99,"501",1,44.55,"lutetian",1
"32676",81506,"col","",76.966667,31.15,"Six Miles Northwest of Arki",NA,"",6,"Lutetian","",47.8,41.3,27484,"gp_mid",77.68,7.99,"501",1,44.55,"lutetian",1
"35355",85735,"col","San Juan",-93.083336,16.716667,"Copoya TM-1",NA,"Reef 3369",13,"Lutetian","",47.8,41.3,8422,"gp_mid",-76.87,21.63,"205",1,44.55,"lutetian",1
"35356",85736,"col","San Juan",-92.716667,17.049999,"Simojovel road section B-8223",NA,"Reef 3912",8,"Lutetian","",47.8,41.3,8422,"gp_mid",-76.43,21.9,"205",1,44.55,"lutetian",1
"35711",190293,"col","Szoc Limestone",17.370001,46.981998,"Csabrendek, Darvastó",NA,"",1,"Lutetian","",47.8,41.3,63995,"gp_mid",23.23,34.65,"308",1,44.55,"lutetian",1
"38756",91339,"col","Jbel Tagount",-6.310833,31.415001,"Aznag",NA,"",28,"Lutetian","",47.8,41.3,30724,"gp_mid",-0.75,23.13,"714",1,44.55,"lutetian",1
"39552",92351,"col","Lisbon",-87.515556,31.540277,"PRI 778",NA,"",8,"Lutetian","",47.8,41.3,11845,"gp_mid",-67.74,35.1,"109",1,44.55,"lutetian",1
"40103",93595,"col","Kuldana",72.166664,33.633331,"Shepherd's Lake",NA,"H-GSP 9607",8,"Lutetian","",47.8,41.3,31707,"gp_mid",74.39,11.47,"501",1,44.55,"lutetian",1
"40732",94590,"col","",1.696667,49.124168,"Calcaire grossier, Chaussy, Val d'Oise",NA,"",48,"Lutetian","",47.8,41.3,31728,"gp_mid",8,41.55,"305",1,44.55,"lutetian",1
"41218",95141,"col","Kuldana",72.198608,33.616669,"H-GSP 146",NA,"",5,"Lutetian","",47.8,41.3,15199,"gp_mid",74.42,11.44,"501",1,44.55,"lutetian",1
"41219",95142,"col","Kuldana",72.186111,33.640278,"H-GSP 9205",NA,"",2,"Lutetian","",47.8,41.3,32320,"gp_mid",74.41,11.47,"501",1,44.55,"lutetian",1
"41222",95146,"col","Kuldana",72.188889,33.616669,"H-GSP 9206",87973,"Valley D",2,"Lutetian","",47.8,41.3,32320,"gp_mid",74.41,11.44,"501",1,44.55,"lutetian",1
"41223",95147,"col","Kuldana",71.202782,33.643055,"H-GSP 9207",NA,"Valley A, including H-GSP 9211",2,"Lutetian","",47.8,41.3,11996,"gp_mid",73.61,11.71,"501",1,44.55,"lutetian",1
"41224",95148,"col","Kuldana",72.1875,33.650002,"G-GSP 9605",NA,"Valley E",1,"Lutetian","",47.8,41.3,32320,"gp_mid",74.42,11.48,"501",1,44.55,"lutetian",1
"43387",98354,"col","Lisbon",-87.551392,31.604721,"PRI 1930",NA,"",6,"Lutetian","",47.8,41.3,11845,"gp_mid",-67.76,35.17,"109",1,44.55,"lutetian",1
"43643",99345,"col","Laredo",-99.440002,27.0425,"M 746",NA,"",1,"Lutetian","",47.8,41.3,11845,"gp_mid",-81.15,32.9,"101",1,44.55,"lutetian",1
"45818",101881,"col","",23.133333,46.799999,"Bedeciu",NA,"",1,"Lutetian","",47.8,41.3,34618,"gp_mid",27.54,33.01,"308",1,44.55,"lutetian",1
"46162",102349,"col","",27.700001,43.183334,"Beloslav",NA,"",4,"Lutetian","",47.8,41.3,34737,"gp_mid",29.63,28.5,"308",1,44.55,"lutetian",1
"46171",102358,"col","",27.716667,43.25,"Slunchevo",NA,"",2,"Lutetian","",47.8,41.3,34737,"gp_mid",29.67,28.56,"308",1,44.55,"lutetian",1
"47166",103866,"col","",27.700001,43.200001,"Strashimirovo",NA,"",1,"Lutetian","",47.8,41.3,34737,"gp_mid",29.64,28.52,"308",1,44.55,"lutetian",1
"47287",104015,"col","",27.65,43.150002,"Varna",NA,"",4,"Lutetian","",47.8,41.3,34737,"gp_mid",29.58,28.48,"308",1,44.55,"lutetian",1
"51014",109766,"col","",12.333333,51.616669,"Braunkohl Mine",NA,"Bitterfeld",1,"Lutetian","",47.8,41.3,36004,"gp_mid",17.39,43.65,"305",1,44.55,"lutetian",1
"51314",110070,"col","Chiampo",11.25,45.533333,"Chiampo",NA,"",66,"Lutetian","",47.8,41.3,36291,"gp_mid",17.8,35.02,"307",1,44.55,"lutetian",1
"56356",117103,"col","",11.21,45.578609,"Monte Bolca (BMNH collection)",NA,"",1,"Lutetian","",47.8,41.3,37630,"gp_mid",17.79,35.07,"307",1,44.55,"lutetian",1
"56357",117104,"col","",11.21,45.578609,"Monte Bolca (MNHN Paris Bol. collection)",NA,"",1,"Lutetian","",47.8,41.3,37630,"gp_mid",17.79,35.07,"307",1,44.55,"lutetian",1
"59040",120554,"col","",23.360001,46.470001,"Cluj-Manastur",NA,"",1,"Lutetian","",47.8,41.3,38535,"gp_mid",27.58,32.64,"308",1,44.55,"lutetian",1
"59325",120885,"col","",39.066387,49.528332,"Ikovo",NA,"Novopskov",50,"Lutetian","",47.8,41.3,38603,"gp_mid",40.43,41.64,"302",1,44.55,"lutetian",1
"60129",121968,"col","Fürstenau",7.220556,52.590832,"Dalum",NA,"",30,"Lutetian","",47.8,41.3,38795,"gp_mid",13.08,44.78,"315",1,44.55,"lutetian",1
"60551",123069,"col","",3.783333,50.916668,"Balegem",NA,"",2,"Lutetian","",47.8,41.3,39323,"gp_mid",9.98,43.24,"315",1,44.55,"lutetian",1
"60552",123070,"col","",-1.466667,49.416668,"Hauteville (RSNB collection)",NA,"",1,"Lutetian","",47.8,41.3,39323,"gp_mid",5.27,42,"305",1,44.55,"lutetian",1
"60553",123072,"col","Bracklesham",-1.4,50.900002,"Southampton Docks",NA,"",1,"Lutetian","",47.8,41.3,39323,"gp_mid",5.5,43.47,"315",1,44.55,"lutetian",1
"60554",123073,"col","Wemmel",4.3,50.900002,"Wemmel",NA,"",2,"Lutetian","",47.8,41.3,39323,"gp_mid",10.43,43.2,"315",1,44.55,"lutetian",1
"60555",123076,"col","",4.666667,50.633331,"Nil-Saint-Vincent",NA,"",1,"Lutetian","",47.8,41.3,39323,"gp_mid",10.72,42.92,"315",1,44.55,"lutetian",1
"60556",123077,"col","Lede",3.983333,50.950001,"Lede",NA,"",1,"Lutetian","",47.8,41.3,39323,"gp_mid",10.16,43.27,"315",1,44.55,"lutetian",1
"60557",123078,"col","Lede",3.333333,51.166668,"Oedelem, Lede Formation",NA,"",1,"Lutetian","",47.8,41.3,39323,"gp_mid",9.62,43.51,"315",1,44.55,"lutetian",1
"60558",123084,"col","Lede",4.333333,50.816666,"Saint-Gilles, Lede Formation",NA,"",1,"Lutetian","",47.8,41.3,39323,"gp_mid",10.45,43.12,"315",1,44.55,"lutetian",1
"60559",123095,"col","Wemmel",4.2,50.883331,"Asse (Tenberg)",NA,"",2,"Lutetian","",47.8,41.3,39323,"gp_mid",10.34,43.19,"315",1,44.55,"lutetian",1
"60560",123096,"col","Wemmel",4.383333,50.900002,"Neder-over-Heembeek",NA,"",2,"Lutetian","",47.8,41.3,39323,"gp_mid",10.5,43.2,"315",1,44.55,"lutetian",1
"60564",123107,"col","Calcaire grosse",1.883333,49.25,"Chaumont-en-Vexin",NA,"",3,"Lutetian","",47.8,41.3,39323,"gp_mid",8.17,41.66,"305",1,44.55,"lutetian",1
"60565",123108,"col","Brussel",4.55,50.916668,"Nederokkerzeel",NA,"",1,"Lutetian","",47.8,41.3,39323,"gp_mid",10.64,43.21,"315",1,44.55,"lutetian",1
"60566",123109,"col","Calcaire grosse",1.883333,48.799999,"Villiers-Neauphle",NA,"",2,"Lutetian","",47.8,41.3,39323,"gp_mid",8.13,41.22,"305",1,44.55,"lutetian",1
"61283",124263,"col","",3.933333,49.133331,"Courtagnon",NA,"",2,"Lutetian","",47.8,41.3,40043,"gp_mid",9.95,41.46,"315",1,44.55,"lutetian",1
"61305",124307,"col","Haidhof",16.333332,48.533333,"Haidhof",NA,"",1,"Lutetian","",47.8,41.3,40068,"gp_mid",20.71,40.48,"305",1,44.55,"lutetian",1
"61404",124457,"col","Brussels",4.444722,50.597778,"Loupoigne",NA,"",3,"Lutetian","",47.8,41.3,40171,"gp_mid",10.52,42.9,"315",1,44.55,"lutetian",1
"61405",124459,"col","Brussels",4.478611,50.915001,"Melsbroeck",NA,"Melsbroek",4,"Lutetian","",47.8,41.3,29875,"gp_mid",10.58,43.21,"315",1,44.55,"lutetian",1
"61407",124461,"col","Brussels Sand",4.340278,50.830002,"Saint-Gilles",NA,"Saint-Gilles-lez-Bruxelles; Saint Gilles, St. Gilles",6,"Lutetian","",47.8,41.3,29875,"gp_mid",10.45,43.13,"315",1,44.55,"lutetian",1
"61529",124685,"col","Brussels",4.440556,50.608334,"Vieux-Genappe",NA,"",1,"Lutetian","",47.8,41.3,40313,"gp_mid",10.52,42.91,"315",1,44.55,"lutetian",1
"61530",124686,"col","Brussels",4.388889,50.832222,"Etterbeek",NA,"Etterbeck",2,"Lutetian","",47.8,41.3,29875,"gp_mid",10.5,43.13,"315",1,44.55,"lutetian",1
"61820",125075,"col","Kuldana",42.690556,33.783333,"H-GSP 229",NA,"",1,"Lutetian","",47.8,41.3,52763,"gp_mid",42.64,17.87,"503",1,44.55,"lutetian",1
"61821",163051,"col","Kuldana",72.188889,33.616669,"H-GSP 56",NA,"",1,"Lutetian","",47.8,41.3,52763,"gp_mid",74.41,11.44,"501",1,44.55,"lutetian",1
"61822",125084,"col","Kuldana",72.199997,33.599998,"H-GSP 9611",NA,"Thatta North",2,"Lutetian","",47.8,41.3,52763,"gp_mid",74.41,11.43,"501",1,44.55,"lutetian",1
"63102",127283,"col","",10.991667,45.438057,"Albanello quarry",NA,"",11,"Lutetian","",47.8,41.3,41427,"gp_mid",17.55,35.01,"307",1,44.55,"lutetian",1
"63739",128434,"col","Csolnok Marl",18.33,47.34,"Csákberény 89 borehole",NA,"",1,"Lutetian","",47.8,41.3,41949,"gp_mid",24.13,34.73,"308",1,44.55,"lutetian",1
"71050",139195,"col","",11.3185,45.529999,"Cava Main di Arzignano (MSNV collection)",NA,"",2,"Lutetian","",47.8,41.3,47470,"gp_mid",17.85,35,"307",1,44.55,"lutetian",1
"74591",144537,"col","",11.21,45.59528,"Monte Purga, Vestenanova di Bolca",NA,"Monte Bolca",10,"Lutetian","",47.8,41.3,46758,"gp_mid",17.8,35.09,"307",1,44.55,"lutetian",1
"74874",145128,"col","",11.3185,45.529999,"Cava Main di Arzignano (Museo Civico G. Zannato collection)",NA,"",25,"Lutetian","",47.8,41.3,47477,"gp_mid",17.85,35,"307",1,44.55,"lutetian",1
"75037",145444,"col","Subathu",77.01667,30.983334,"Assilina spira abrardi-Assilina cuvillieri zone [Subathu Fm]",NA,"",6,"Lutetian","",47.8,41.3,47013,"gp_mid",77.68,7.82,"501",1,44.55,"lutetian",1
"75038",145445,"col","Subathu",77.01667,30.983334,"Musculus nuttalli-Parinomya blanfordiana zone [Subathu Fm]",NA,"",12,"Lutetian","",47.8,41.3,47013,"gp_mid",77.68,7.82,"501",1,44.55,"lutetian",1
"75843",146999,"col","",11.266,45.535999,"Cava Lovara, Chiampo",NA,"",34,"Lutetian","",47.8,41.3,47470,"gp_mid",17.82,35.02,"307",1,44.55,"lutetian",1
"79998",152680,"col","",11.28,45.665001,"Novale (Padova collection)",NA,"",1,"Lutetian","",47.8,41.3,49214,"gp_mid",17.89,35.13,"307",1,44.55,"lutetian",1
"80000",152648,"col","",11.2,45.595001,"Monte Bolca (De Zigno collection)",NA,"",1,"Lutetian","",47.8,41.3,49214,"gp_mid",17.79,35.09,"307",1,44.55,"lutetian",1
"80001",152649,"col","",11.2,45.595001,"Monte Bolca (Massalongo collection)",NA,"",4,"Lutetian","",47.8,41.3,49198,"gp_mid",17.79,35.09,"307",1,44.55,"lutetian",1
"80002",152650,"col","",11.2,45.595001,"Monte Bolca (Parolini collection)",NA,"",1,"Lutetian","",47.8,41.3,49198,"gp_mid",17.79,35.09,"307",1,44.55,"lutetian",1
"80003",152651,"col","",11.2,45.595001,"Monte Bolca (Padova collection)",NA,"",1,"Lutetian","",47.8,41.3,49199,"gp_mid",17.79,35.09,"307",1,44.55,"lutetian",1
"82119",157549,"col","Gallensis Limestone",9.44,47.290001,"Obere Leugangen north",NA,"",1,"Lutetian","",47.8,41.3,51824,"gp_mid",14.63,39.41,"305",1,44.55,"lutetian",1
"82120",157550,"col","Gallensis Limestone",9.46,47.290001,"Gfell, Brulisau",NA,"",1,"Lutetian","",47.8,41.3,51824,"gp_mid",14.64,39.41,"305",1,44.55,"lutetian",1
"82121",157551,"col","Gallensis Limestone",9.46,47.369999,"Schluecht-Tobeli north",NA,"",2,"Lutetian","",47.8,41.3,51824,"gp_mid",14.65,39.49,"305",1,44.55,"lutetian",1
"82124",157554,"col","Gallensis Limestone",9.46,47.369999,"SW of Blosers",NA,"",1,"Lutetian","",47.8,41.3,51824,"gp_mid",14.65,39.49,"305",1,44.55,"lutetian",1
"82125",157556,"col","Gallensis Limestone",9.46,47.310001,"Aulenbachtobel southeast",NA,"",1,"Lutetian","",47.8,41.3,51824,"gp_mid",14.64,39.43,"305",1,44.55,"lutetian",1
"82126",157557,"col","Gallensis Limestone",9.462,47.311001,"Aulenbachbrucke",NA,"",1,"Lutetian","",47.8,41.3,51824,"gp_mid",14.65,39.43,"305",1,44.55,"lutetian",1
"82127",157558,"col","Gallensis Greensand",9.39,47.27,"Chlus-Hollflatschen south side",NA,"",2,"Lutetian","",47.8,41.3,51824,"gp_mid",14.58,39.39,"305",1,44.55,"lutetian",1
"82128",157559,"col","Gallensis Greensand",9.39,47.27,"Chlus-Hollflatschen north side",NA,"",1,"Lutetian","",47.8,41.3,51824,"gp_mid",14.58,39.39,"305",1,44.55,"lutetian",1
"82129",157560,"col","Gallensis Greensand",9.46,47.32,"Aebiskraut (=Abischrut)",NA,"",2,"Lutetian","",47.8,41.3,51824,"gp_mid",14.65,39.44,"305",1,44.55,"lutetian",1
"82130",157561,"col","Gallensis Greensand",9.49,47.330002,"Langwald",NA,"",2,"Lutetian","",47.8,41.3,51824,"gp_mid",14.67,39.45,"305",1,44.55,"lutetian",1
"82131",157562,"col","Gallensis Greensand",9.537,47.327,"Schörgischnorren",NA,"",1,"Lutetian","",47.8,41.3,51824,"gp_mid",14.71,39.44,"305",1,44.55,"lutetian",1
"84958",161767,"col","Szoc Limestone",18.33,47.130001,"Urhida-1 borehole",NA,"",1,"Lutetian","",47.8,41.3,52691,"gp_mid",24.03,34.53,"308",1,44.55,"lutetian",1
"84960",161769,"col","Szoc Limestone",18.6,47.720001,"Mogyorsobanya-87 borehole",NA,"",2,"Lutetian","",47.8,41.3,52691,"gp_mid",24.52,35.01,"308",1,44.55,"lutetian",1
"84962",161771,"col","Szoc Limestone",17.540001,47.16,"Magyarpolany-40 borehole",NA,"",1,"Lutetian","",47.8,41.3,52691,"gp_mid",23.45,34.77,"308",1,44.55,"lutetian",1
"85750",163052,"col","Kuldana",72.188889,33.616669,"H-GSP 9208",NA,"",1,"Lutetian","",47.8,41.3,52763,"gp_mid",74.41,11.44,"501",1,44.55,"lutetian",1
"86272",164552,"col","",8.78,47.029999,"Surbrunnen/Gschwand",NA,"",2,"Lutetian","",47.8,41.3,51824,"gp_mid",14.03,39.17,"305",1,44.55,"lutetian",1
"86273",164553,"col","",8.93,47.34,"Aebiskraut/Eggli",NA,"",1,"Lutetian","",47.8,41.3,51824,"gp_mid",14.18,39.48,"305",1,44.55,"lutetian",1
"86274",164554,"col","",9.36,47,"Schwendi",NA,"",1,"Lutetian","",47.8,41.3,51824,"gp_mid",14.54,39.12,"305",1,44.55,"lutetian",1
"86275",164555,"col","",8.5,46.950001,"Schoneck",NA,"",1,"Lutetian","",47.8,41.3,51824,"gp_mid",13.78,39.1,"305",1,44.55,"lutetian",1
"87077",165979,"col","",-0.868,50.759998,"Bracklesham Bay",NA,"",3,"Lutetian","",47.8,41.3,54241,"gp_mid",5.94,43.31,"315",1,44.55,"lutetian",1
"87804",167484,"col","",18.285,47.231998,"Iszkaszentgyörgy",NA,"",1,"Lutetian","",47.8,41.3,54658,"gp_mid",24.05,34.64,"308",1,44.55,"lutetian",1
"87805",167485,"col","",18.285,47.231998,"Kincsesbánya, near Iszkaszentgyörgy",NA,"",1,"Lutetian","",47.8,41.3,54658,"gp_mid",24.05,34.64,"308",1,44.55,"lutetian",1
"87806",167486,"col","",13.94,45.279999,"Grdoselo forest track",NA,"",3,"Lutetian","",47.8,41.3,54659,"gp_mid",19.77,34.02,"307",1,44.55,"lutetian",1
"87868",167763,"col","Brussel",4.453056,50.855278,"Van Pachtenbeke sandpit",NA,"",1,"Lutetian","",47.8,41.3,54805,"gp_mid",10.55,43.15,"315",1,44.55,"lutetian",1
"87871",167775,"col","Brussels",4.370833,50.825001,"Ixelles",NA,"""cimetière de Burtin""; Elsene",1,"Lutetian","",47.8,41.3,54805,"gp_mid",10.48,43.13,"315",1,44.55,"lutetian",1
"87872",167776,"col","Brussels",4.323611,50.813889,"Forest, Sables de Bruxelles",NA,"Vorst",1,"Lutetian","",47.8,41.3,54805,"gp_mid",10.44,43.12,"315",1,44.55,"lutetian",1
"87873",167778,"col","Brussels",4.4875,50.851391,"Wezembeek-Oppem",NA,"",1,"Lutetian","",47.8,41.3,54805,"gp_mid",10.58,43.15,"315",1,44.55,"lutetian",1
"88024",168601,"col","Kattachi",130.48111,33.012501,"Kattachi, Omuta City",NA,"",14,"Lutetian","",47.8,41.3,61664,"gp_mid",126.42,39.55,"610",1,44.55,"lutetian",1
"89781",171515,"col","",11.235,45.525002,"Monte Serea, San Giovanni Ilarione",NA,"",2,"Lutetian","",47.8,41.3,55775,"gp_mid",17.79,35.02,"307",1,44.55,"lutetian",1
"89782",171516,"col","",11.235,45.525002,"San Giovanni Ilarione",NA,"",4,"Lutetian","",47.8,41.3,55776,"gp_mid",17.79,35.02,"307",1,44.55,"lutetian",1
"89783",171517,"col","",11.235,45.525002,"Monte Arzano",NA,"",1,"Lutetian","",47.8,41.3,55776,"gp_mid",17.79,35.02,"307",1,44.55,"lutetian",1
"89784",171518,"col","",11.27,45.52,"Ciupio",NA,"",1,"Lutetian","",47.8,41.3,55776,"gp_mid",17.81,35,"307",1,44.55,"lutetian",1
"89786",171519,"col","",11.255,45.535,"Bosco del Prete",NA,"",1,"Lutetian","",47.8,41.3,55776,"gp_mid",17.81,35.02,"307",1,44.55,"lutetian",1
"89788",171522,"col","Calcaire de Fresville",1.71,49.119999,"Les Garennes, Chaussy",NA,"",12,"Lutetian","",47.8,41.3,55777,"gp_mid",8.01,41.54,"305",1,44.55,"lutetian",1
"89789",171523,"col","",1.78,49.25,"Mont-de-Magny, Gisors (Eure)",NA,"",1,"Lutetian","",47.8,41.3,55777,"gp_mid",8.08,41.67,"305",1,44.55,"lutetian",1
"89790",171524,"col","",1.88,49.264999,"Chaumont-en-Vexin (Oise)",NA,"",1,"Lutetian","",47.8,41.3,55777,"gp_mid",8.17,41.68,"305",1,44.55,"lutetian",1
"89791",171525,"col","",1.74,49.200001,"Parnes, Oise (Deshayes collection)",NA,"",20,"Lutetian","",47.8,41.3,61542,"gp_mid",8.04,41.62,"305",1,44.55,"lutetian",1
"89792",171526,"col","",1.934,48.848,"Grignon (RSNB collection)",NA,"",166,"Lutetian","",47.8,41.3,58437,"gp_mid",8.18,41.26,"305",1,44.55,"lutetian",1
"89793",171527,"col","",3.945,49.145,"Courtagnon (Deshayes collection)",NA,"",4,"Lutetian","",47.8,41.3,61542,"gp_mid",9.96,41.47,"315",1,44.55,"lutetian",1
"89794",171528,"col","",1.88,49.264999,"Chaumont (Deshayes collection)",NA,"",5,"Lutetian","",47.8,41.3,61542,"gp_mid",8.17,41.68,"305",1,44.55,"lutetian",1
"89796",171530,"col","",3.33,49.375,"Soissons (Deshayes collection)",NA,"",4,"Lutetian","",47.8,41.3,61542,"gp_mid",9.45,41.72,"315",1,44.55,"lutetian",1
"89797",171531,"col","",1.6,48.794998,"Houdan (Deshayes collection)",NA,"",4,"Lutetian","",47.8,41.3,61542,"gp_mid",7.88,41.22,"305",1,44.55,"lutetian",1
"89798",171532,"col","",1.57,49.209999,"Fontenay",NA,"Fontenay-en-Vexin",37,"Lutetian","",47.8,41.3,55779,"gp_mid",7.9,41.64,"305",1,44.55,"lutetian",1
"89799",171533,"col","",2.25,49.325001,"Mouchy (Deshayes collection)",NA,"",22,"Lutetian","",47.8,41.3,61542,"gp_mid",8.5,41.72,"315",1,44.55,"lutetian",1
"89800",171534,"col","",2.465,49.330002,"Liancourt (Deshayes collection)",NA,"",2,"Lutetian","",47.8,41.3,55779,"gp_mid",8.69,41.72,"315",1,44.55,"lutetian",1
"89801",171535,"col","",3.875,49.075001,"Damery",NA,"",42,"Lutetian","",47.8,41.3,55779,"gp_mid",9.89,41.4,"315",1,44.55,"lutetian",1
"89802",171536,"col","",3.53,48.869999,"Montmirel (Deshayes collection)",NA,"",1,"Lutetian","",47.8,41.3,55779,"gp_mid",9.57,41.21,"305",1,44.55,"lutetian",1
"89804",171538,"col","",3.09,49.240002,"Villers-Cotterêts (Deshayes collection)",NA,"",1,"Lutetian","",47.8,41.3,55779,"gp_mid",9.22,41.6,"315",1,44.55,"lutetian",1
"89805",171539,"col","",2.83,49.415001,"Compiègne",NA,"",1,"Lutetian","",47.8,41.3,55779,"gp_mid",9.01,41.79,"315",1,44.55,"lutetian",1
"89806",171540,"col","",3,49.580002,"Noyon",NA,"",1,"Lutetian","",47.8,41.3,55779,"gp_mid",9.18,41.94,"315",1,44.55,"lutetian",1
"89807",171541,"col","",2.21,48.82,"Sèvres",NA,"",1,"Lutetian","",47.8,41.3,55779,"gp_mid",8.42,41.22,"305",1,44.55,"lutetian",1
"91626",176657,"col","Chiampo Marble",11.283333,45.549999,"Cava Boschetto di Nogarole Vicentino, Vicenza",NA,"",41,"Lutetian","",47.8,41.3,58193,"gp_mid",17.84,35.03,"307",1,44.55,"lutetian",1
"91636",176770,"col","Szoc Limestone",18.533333,47.116669,"Fejér",NA,"",1,"Lutetian","",47.8,41.3,58315,"gp_mid",24.18,34.47,"308",1,44.55,"lutetian",1
"91726",176971,"col","Chiampo",11.283333,45.483334,"Roncà",NA,"",1,"Lutetian","",47.8,41.3,58418,"gp_mid",17.8,34.96,"307",1,44.55,"lutetian",1
"92024",177665,"col","Marne Euganee",11.291667,45.554169,"Cava Albanello di Nogarole Vicentino",NA,"",16,"Lutetian","",47.8,41.3,58769,"gp_mid",17.84,35.03,"307",1,44.55,"lutetian",1
"92028",177670,"col","Chiampo",11.233333,45.525002,"de Croce Grande, San Giovanni Ilarione",NA,"",8,"Lutetian","",47.8,41.3,57958,"gp_mid",17.78,35.02,"307",1,44.55,"lutetian",1
"92074",177970,"col","Banc à verrins",1.936944,48.847221,"Falunière of Grignon Unlithified Sample 1",NA,"",91,"Lutetian","",47.8,41.3,58859,"gp_mid",8.18,41.26,"305",1,44.55,"lutetian",1
"92075",177971,"col","Banc à verrins",1.936944,48.847221,"Falunière of Grignon Unlithified Sample 2",NA,"",59,"Lutetian","",47.8,41.3,58859,"gp_mid",8.18,41.26,"305",1,44.55,"lutetian",1
"92076",177972,"col","Banc à verrins",1.936944,48.847221,"Falunière of Grignon Unlithified Sample 3",NA,"",73,"Lutetian","",47.8,41.3,58859,"gp_mid",8.18,41.26,"305",1,44.55,"lutetian",1
"92077",177973,"col","Banc à verrins",1.936944,48.847221,"Falunière of Grignon Lithified Sample 1",NA,"",10,"Lutetian","",47.8,41.3,58859,"gp_mid",8.18,41.26,"305",1,44.55,"lutetian",1
"92078",177974,"col","Banc à verrins",1.936944,48.847221,"Falunière of Grignon Lithified Sample 2",NA,"",21,"Lutetian","",47.8,41.3,58859,"gp_mid",8.18,41.26,"305",1,44.55,"lutetian",1
"92079",177975,"col","Banc à verrins",1.936944,48.847221,"Falunière of Grignon Lithified Sample 3",NA,"",31,"Lutetian","",47.8,41.3,58859,"gp_mid",8.18,41.26,"305",1,44.55,"lutetian",1
"92156",178055,"col","",1.56,48.82,"Saint-Lubin-de-la-Haye",NA,"Saint Lubin de la Haye",8,"Lutetian","",47.8,41.3,15831,"gp_mid",7.85,41.25,"305",1,44.55,"lutetian",1
"92169",178081,"col","Banc à verrins",1.936944,48.847221,"Parc de l'Institut national agronomique",NA,"",1,"Lutetian","",47.8,41.3,25129,"gp_mid",8.18,41.26,"305",1,44.55,"lutetian",1
"92171",178083,"col","",1.81,49.259998,"Chambors",NA,"",60,"Lutetian","",47.8,41.3,25129,"gp_mid",8.11,41.68,"305",1,44.55,"lutetian",1
"92172",178084,"col","",1.81,49.259998,"Trie-Château",NA,"",1,"Lutetian","",47.8,41.3,25129,"gp_mid",8.11,41.68,"305",1,44.55,"lutetian",1
"92173",178085,"col","Faluns de la Touraine",1.230556,47.400002,"Vallon de Charenton, Pontlevoy",NA,"",120,"Lutetian","",47.8,41.3,25129,"gp_mid",7.43,39.85,"305",1,44.55,"lutetian",1
"92176",178088,"col","",1.533333,48.950001,"Bréval",NA,"",9,"Lutetian","",47.8,41.3,58437,"gp_mid",7.84,41.38,"305",1,44.55,"lutetian",1
"92180",178106,"col","Landauer Mergel",8.033333,49.212502,"Temporary exposure at the road B10 between Birkweiler and Albersweiler",NA,"",1,"Lutetian","",47.8,41.3,58919,"gp_mid",13.52,41.38,"305",1,44.55,"lutetian",1
"92189",178119,"col","",1.75,49.200001,"Les Bôves, Parnes",NA,"Ferme des Bôves; Les Boves; Boves",23,"Lutetian","",47.8,41.3,58437,"gp_mid",8.05,41.62,"305",1,44.55,"lutetian",1
"92191",178124,"col","",1.6,48.783333,"Thionville sur Opton",NA,"Thionville-sur-Opton",15,"Lutetian","",47.8,41.3,58936,"gp_mid",7.88,41.21,"305",1,44.55,"lutetian",1
"92208",178158,"col","",2.266667,49.341667,"Trye-Chateau",NA,"",5,"Lutetian","",47.8,41.3,58437,"gp_mid",8.52,41.74,"315",1,44.55,"lutetian",1
"92239",178203,"col","Orizzonte di Ronca",11.283333,45.483334,"Roncà",NA,"",8,"Lutetian","",47.8,41.3,58437,"gp_mid",17.8,34.96,"307",1,44.55,"lutetian",1
"92762",179005,"col","Calcaire grosse",1.76,49.279999,"Boisgeloup, Gisors",NA,"",1,"Lutetian","",47.8,41.3,58318,"gp_mid",8.07,41.7,"305",1,44.55,"lutetian",1
"92872",179205,"col","",1.61,49.209999,"Requiécourt, Cahaignes",NA,"Ferme des Bôves; Les Boves; Boves",1,"Lutetian","",47.8,41.3,57817,"gp_mid",7.93,41.64,"305",1,44.55,"lutetian",1
"93307",179909,"col","",130.490005,33.049999,"Manda, Miike Coal-field (613 feet depth)",NA,"",1,"Lutetian","",47.8,41.3,59679,"gp_mid",126.42,39.59,"610",1,44.55,"lutetian",1
"93308",179910,"col","",130.490005,33.049999,"Manda, Miike Coal-field (625 feet depth)",NA,"",1,"Lutetian","",47.8,41.3,59679,"gp_mid",126.42,39.59,"610",1,44.55,"lutetian",1
"93309",179911,"col","",130.490005,33.049999,"Manda, Miike Coal-field (650 feet depth)",NA,"",1,"Lutetian","",47.8,41.3,59679,"gp_mid",126.42,39.59,"610",1,44.55,"lutetian",1
"93310",179912,"col","",130.490005,33.049999,"Manda, Miike Coal-field (842 feet depth)",NA,"",1,"Lutetian","",47.8,41.3,59679,"gp_mid",126.42,39.59,"610",1,44.55,"lutetian",1
"93315",179917,"col","",14.51,46.889999,"Richardstollen, Guttaring",NA,"",3,"Lutetian","",47.8,41.3,59684,"gp_mid",21,35.34,"307",1,44.55,"lutetian",1
"93316",179920,"col","",14.495,46.889999,"East slope of Sonnberges near Guttaring",NA,"",1,"Lutetian","",47.8,41.3,59685,"gp_mid",20.99,35.35,"307",1,44.55,"lutetian",1
"93470",180458,"col","Lillebælt Clay",9.808,55.599998,"SE coast of Trelde Næs (CHC collection)",NA,"",1,"Lutetian","",47.8,41.3,58642,"gp_mid",15.51,47.7,"302",1,44.55,"lutetian",1
"93471",180459,"col","Lillebælt Clay",9.808,55.599998,"SE coast of Trelde Næs (OBK collection)",NA,"",1,"Lutetian","",47.8,41.3,58642,"gp_mid",15.51,47.7,"302",1,44.55,"lutetian",1
"93472",180460,"col","Lillebælt Clay",9.808,55.599998,"SE coast of Trelde Næs (GPF collection)",NA,"",2,"Lutetian","",47.8,41.3,58642,"gp_mid",15.51,47.7,"302",1,44.55,"lutetian",1
"94448",183734,"col","",1.91,49.235001,"Le Vivray, Liancourt-Saint-Pierre (Morlet collection)",NA,"",1,"Lutetian","",47.8,41.3,61368,"gp_mid",8.2,41.65,"305",1,44.55,"lutetian",1
"94449",183735,"col","",1.74,49.200001,"Ferme de l'Aulnaie, Parnes (Sarazin collection)",NA,"",1,"Lutetian","",47.8,41.3,61368,"gp_mid",8.04,41.62,"305",1,44.55,"lutetian",1
"94450",183736,"col","",2.28,49.349998,"Saint-Félix, Oise (Morlet collection)",NA,"",1,"Lutetian","",47.8,41.3,61368,"gp_mid",8.53,41.75,"315",1,44.55,"lutetian",1
"94451",183737,"col","",1.63,49.200001,"Requiécourt (Oise) (Ledon collection)",NA,"",1,"Lutetian","",47.8,41.3,61368,"gp_mid",7.95,41.63,"305",1,44.55,"lutetian",1
"94452",183738,"col","",1.92,48.849998,"Coteau de la Laverie, Thiverval-Grignon (Morlet collection)",NA,"",1,"Lutetian","",47.8,41.3,61368,"gp_mid",8.17,41.26,"305",1,44.55,"lutetian",1
"94453",183739,"col","",1.86,48.880001,"Montainville, Yvelines (Morlet collection)",NA,"",1,"Lutetian","",47.8,41.3,61368,"gp_mid",8.12,41.3,"305",1,44.55,"lutetian",1
"94454",183740,"col","",1.875,48.855,"Beynes, Yvelines (Lhomme collection)",NA,"",1,"Lutetian","",47.8,41.3,61368,"gp_mid",8.13,41.27,"305",1,44.55,"lutetian",1
"94455",183741,"col","",1.305,49.005001,"Caillouet-Orgeville, Eure (Ledon collection)",NA,"",1,"Lutetian","",47.8,41.3,61368,"gp_mid",7.65,41.45,"305",1,44.55,"lutetian",1
"94513",183801,"col","",1.74,49.200001,"Parnes, Oise (Morlot collection)",NA,"",1,"Lutetian","",47.8,41.3,61368,"gp_mid",8.04,41.62,"305",1,44.55,"lutetian",1
"94514",183802,"col","",1.81,49.259998,"Chambors, Oise (1965-11 collection)",NA,"",1,"Lutetian","",47.8,41.3,61368,"gp_mid",8.11,41.68,"305",1,44.55,"lutetian",1
"94515",183803,"col","",2.37,49.209999,"Précy-sur-Oise (Cossmann collection)",NA,"",1,"Lutetian","",47.8,41.3,61368,"gp_mid",8.59,41.6,"315",1,44.55,"lutetian",1
"94571",183864,"col","Kohat",71.900002,33.605,"Fossil Bed F.2257, Panoba, Kohat",NA,"",5,"Lutetian","",47.8,41.3,599,"gp_mid",74.17,11.5,"501",1,44.55,"lutetian",1
"94572",183865,"col","Kohat",71.514999,33.595001,"Fossil Bed F.2341, Shekhan Nala, Kohat",NA,"",5,"Lutetian","",47.8,41.3,599,"gp_mid",73.85,11.58,"501",1,44.55,"lutetian",1
"94573",183866,"col","Kohat",71.514999,33.595001,"Fossil Bed F.2342, Shekhan Nala, Kohat",NA,"",2,"Lutetian","",47.8,41.3,599,"gp_mid",73.85,11.58,"501",1,44.55,"lutetian",1
"94625",183923,"col","Kohat",71.059998,33.450001,"Fossil Bed F.2114, Sirki Paila, Kohat",NA,"",3,"Lutetian","",47.8,41.3,599,"gp_mid",73.44,11.56,"501",1,44.55,"lutetian",1
"94631",183929,"col","Kohat",71.900002,33.605,"Fossil Bed F.2295, Panoba, Kohat",NA,"",2,"Lutetian","",47.8,41.3,599,"gp_mid",74.17,11.5,"501",1,44.55,"lutetian",1
"94636",183934,"col","Kohat",71.900002,33.605,"Fossil Bed F.2270, Panoba, Kohat",NA,"",1,"Lutetian","",47.8,41.3,599,"gp_mid",74.17,11.5,"501",1,44.55,"lutetian",1
"94637",183935,"col","Kohat",71.830002,33.584999,"Fossil Bed F.2183, Tarkhobi, Kohat",NA,"",3,"Lutetian","",47.8,41.3,599,"gp_mid",74.11,11.5,"501",1,44.55,"lutetian",1
"94649",183953,"col","Kohat",71.900002,33.605,"Fossil Bed F.2254, Panoba, Kohat",NA,"",2,"Lutetian","",47.8,41.3,599,"gp_mid",74.17,11.5,"501",1,44.55,"lutetian",1
"94650",183954,"col","Kohat",71.900002,33.605,"Fossil Bed F.2255, Panoba, Kohat",NA,"",2,"Lutetian","",47.8,41.3,599,"gp_mid",74.17,11.5,"501",1,44.55,"lutetian",1
"94651",183955,"col","Kohat",71.900002,33.605,"Fossil Bed F.2256, Panoba, Kohat",NA,"",2,"Lutetian","",47.8,41.3,599,"gp_mid",74.17,11.5,"501",1,44.55,"lutetian",1
"94652",183956,"col","Kohat",71.900002,33.605,"Fossil Bed F.2271, Panoba, Kohat",NA,"",2,"Lutetian","",47.8,41.3,599,"gp_mid",74.17,11.5,"501",1,44.55,"lutetian",1
"94653",183957,"col","Kohat",71.514999,33.595001,"Fossil Bed F.2334, Shekhan Nala, Kohat",NA,"",1,"Lutetian","",47.8,41.3,599,"gp_mid",73.85,11.58,"501",1,44.55,"lutetian",1
"94654",183958,"col","Kohat",71.514999,33.595001,"Fossil Bed F.2336, Shekhan Nala, Kohat",NA,"",1,"Lutetian","",47.8,41.3,599,"gp_mid",73.85,11.58,"501",1,44.55,"lutetian",1
"94655",183959,"col","Kohat",71.514999,33.595001,"Fossil Bed F.2338, Shekhan Nala, Kohat",NA,"",1,"Lutetian","",47.8,41.3,599,"gp_mid",73.85,11.58,"501",1,44.55,"lutetian",1
"94656",183960,"col","Kohat",71.514999,33.595001,"Fossil Bed F.2339, Shekhan Nala, Kohat",NA,"",1,"Lutetian","",47.8,41.3,599,"gp_mid",73.85,11.58,"501",1,44.55,"lutetian",1
"94659",183963,"col","Kohat",71.900002,33.605,"Fossil Bed F.2275, Panoba, Kohat",NA,"",1,"Lutetian","",47.8,41.3,599,"gp_mid",74.17,11.5,"501",1,44.55,"lutetian",1
"94660",183964,"col","Kohat",71.059998,33.450001,"Fossil Bed F.2109, Sirki Paila, Kohat",NA,"",1,"Lutetian","",47.8,41.3,599,"gp_mid",73.44,11.56,"501",1,44.55,"lutetian",1
"94685",184032,"col","Kohat",71.059998,33.450001,"Fossil Bed F.2113, Sirki Paila, Kohat",NA,"",3,"Lutetian","",47.8,41.3,599,"gp_mid",73.44,11.56,"501",1,44.55,"lutetian",1
"94696",184058,"col","Kohat",71.900002,33.605,"Fossil Bed F.2253, Panoba, Kohat",NA,"",1,"Lutetian","",47.8,41.3,599,"gp_mid",74.17,11.5,"501",1,44.55,"lutetian",1
"94697",184059,"col","Kohat",71.059998,33.450001,"Fossil Bed F.2107, Sirki Paila, Kohat",NA,"",1,"Lutetian","",47.8,41.3,599,"gp_mid",73.44,11.56,"501",1,44.55,"lutetian",1
"94698",184060,"col","Kohat",71.830002,33.584999,"Fossil Bed F.2184, Tarkhobi, Kohat",NA,"",1,"Lutetian","",47.8,41.3,599,"gp_mid",74.11,11.5,"501",1,44.55,"lutetian",1
"94719",184107,"col","",1.934,48.848,"Grignon (Lamarck collection)",NA,"",147,"Lutetian","",47.8,41.3,61514,"gp_mid",8.18,41.26,"305",1,44.55,"lutetian",1
"94720",184108,"col","",1.6,48.794998,"Houdan (Defrance collection)",NA,"",8,"Lutetian","",47.8,41.3,61514,"gp_mid",7.88,41.22,"305",1,44.55,"lutetian",1
"94721",184109,"col","",1.74,49.200001,"Parnes, Oise (Defrance collection)",NA,"",11,"Lutetian","",47.8,41.3,61514,"gp_mid",8.04,41.62,"305",1,44.55,"lutetian",1
"94722",184110,"col","",1.934,48.848,"Grignon (Defrance collection)",NA,"",151,"Lutetian","",47.8,41.3,61515,"gp_mid",8.18,41.26,"305",1,44.55,"lutetian",1
"94723",184111,"col","",2.325,49.025002,"Aumont, near Montmorency",NA,"",2,"Lutetian","",47.8,41.3,61515,"gp_mid",8.54,41.42,"305",1,44.55,"lutetian",1
"94724",184112,"col","",3.945,49.145,"Courtagnon (Lamarck collection)",NA,"",26,"Lutetian","",47.8,41.3,61515,"gp_mid",9.96,41.47,"315",1,44.55,"lutetian",1
"94725",184113,"col","",2.325,49.025002,"Paris area (unspecified)",NA,"",1,"Lutetian","",47.8,41.3,61515,"gp_mid",8.54,41.42,"305",1,44.55,"lutetian",1
"94726",184114,"col","",3.945,49.145,"Courtagnon (Montfort collection)",NA,"",1,"Lutetian","",47.8,41.3,61515,"gp_mid",9.96,41.47,"315",1,44.55,"lutetian",1
"94727",184115,"col","",3.09,49.240002,"Paris area, towards Villers-Coterets (Lamarck collection)",NA,"",1,"Lutetian","",47.8,41.3,19290,"gp_mid",9.22,41.6,"315",1,44.55,"lutetian",1
"94728",184116,"col","",1.88,49.264999,"Chaumont (Lamarck collection)",NA,"",6,"Lutetian","",47.8,41.3,19290,"gp_mid",8.17,41.68,"305",1,44.55,"lutetian",1
"94729",184117,"col","",2.09,49.43,"Beauvais (Lamarck collection)",NA,"",1,"Lutetian","",47.8,41.3,19290,"gp_mid",8.37,41.83,"315",1,44.55,"lutetian",1
"94733",184132,"col","",1.74,49.200001,"Parnes, Oise (de Jussieu collection)",NA,"",2,"Lutetian","",47.8,41.3,61527,"gp_mid",8.04,41.62,"305",1,44.55,"lutetian",1
"94734",184133,"col","",3.53,48.869999,"Montmiral, near Brie (Lamarck collection)",NA,"",1,"Lutetian","",47.8,41.3,61527,"gp_mid",9.57,41.21,"305",1,44.55,"lutetian",1
"94735",184134,"col","",1.74,49.200001,"Parnes, Oise (Lamarck collection)",NA,"",2,"Lutetian","",47.8,41.3,61528,"gp_mid",8.04,41.62,"305",1,44.55,"lutetian",1
"94736",184135,"col","",2.073,48.904999,"Saint-Germain-en-Laye (Lamarck collection)",NA,"",2,"Lutetian","",47.8,41.3,61529,"gp_mid",8.31,41.31,"305",1,44.55,"lutetian",1
"94737",184136,"col","",1.934,48.848,"Grignon (Richard collection)",NA,"",2,"Lutetian","",47.8,41.3,61529,"gp_mid",8.18,41.26,"305",1,44.55,"lutetian",1
"94738",184137,"col","",1.88,49.264999,"Chaumont (Defrance collection)",NA,"",3,"Lutetian","",47.8,41.3,61529,"gp_mid",8.17,41.68,"305",1,44.55,"lutetian",1
"94739",184138,"col","",3.945,49.145,"Courtagnon (Defrance collection)",NA,"",1,"Lutetian","",47.8,41.3,61530,"gp_mid",9.96,41.47,"315",1,44.55,"lutetian",1
"94741",184140,"col","",1.6,48.794998,"Houdan (Lamarck collection)",NA,"",2,"Lutetian","",47.8,41.3,61531,"gp_mid",7.88,41.22,"305",1,44.55,"lutetian",1
"94743",184142,"col","",1.9,48.799999,"Pontchartrain (Lamarck collection)",NA,"",3,"Lutetian","",47.8,41.3,61532,"gp_mid",8.15,41.22,"305",1,44.55,"lutetian",1
"94744",184143,"col","",1.9,48.799999,"Pontchartrain (Defrance collection)",NA,"",9,"Lutetian","",47.8,41.3,61532,"gp_mid",8.15,41.22,"305",1,44.55,"lutetian",1
"94746",184145,"col","",1.875,48.855,"Beynes (Defrance collection)",NA,"",8,"Lutetian","",47.8,41.3,61532,"gp_mid",8.13,41.27,"305",1,44.55,"lutetian",1
"94747",184146,"col","",1.93,48.849998,"Field near Grignon (Lamarck collection)",NA,"",1,"Lutetian","",47.8,41.3,61532,"gp_mid",8.18,41.26,"305",1,44.55,"lutetian",1
"94748",184147,"col","",2.33,48.834999,"Paris quarry stones",NA,"",2,"Lutetian","",47.8,41.3,61532,"gp_mid",8.52,41.23,"305",1,44.55,"lutetian",1
"94749",184148,"col","",2.48,48.834999,"Nogent-sur-Marne (Lamarck collection)",NA,"",1,"Lutetian","",47.8,41.3,61532,"gp_mid",8.66,41.22,"305",1,44.55,"lutetian",1
"94750",184149,"col","",1.62,48.794998,"Maulette (Lamarck collection)",NA,"",1,"Lutetian","",47.8,41.3,61532,"gp_mid",7.9,41.22,"305",1,44.55,"lutetian",1
"94751",184150,"col","",1.62,48.794998,"Maulette (Defrance collection)",NA,"",1,"Lutetian","",47.8,41.3,61532,"gp_mid",7.9,41.22,"305",1,44.55,"lutetian",1
"94752",184151,"col","",2.073,48.904999,"Saint-Germain-en-Laye (Brongniart collection)",NA,"",1,"Lutetian","",47.8,41.3,61533,"gp_mid",8.31,41.31,"305",1,44.55,"lutetian",1
"94753",184152,"col","",1.934,48.848,"Grignon (Brongniart collection)",NA,"",2,"Lutetian","",47.8,41.3,61533,"gp_mid",8.18,41.26,"305",1,44.55,"lutetian",1
"94754",184153,"col","",3.945,49.145,"Courtagnon (Brongniart collection)",NA,"",2,"Lutetian","",47.8,41.3,61533,"gp_mid",9.96,41.47,"315",1,44.55,"lutetian",1
"94755",184154,"col","",2.505,49.044998,"Louvres (Defrance collection)",NA,"",2,"Lutetian","",47.8,41.3,19294,"gp_mid",8.7,41.43,"305",1,44.55,"lutetian",1
"94756",184155,"col","",1.9,48.799999,"Ben, near Pontchartrain (Lamarck collection)",NA,"",2,"Lutetian","",47.8,41.3,19294,"gp_mid",8.15,41.22,"305",1,44.55,"lutetian",1
"94757",184156,"col","",1.93,48.849998,"Paris area (Lamarck collection)",NA,"",1,"Lutetian","",47.8,41.3,19294,"gp_mid",8.18,41.26,"305",1,44.55,"lutetian",1
"94758",184157,"col","",2.3,48.695,"Longjumeaux (Defrance collection)",NA,"",1,"Lutetian","",47.8,41.3,19294,"gp_mid",8.49,41.09,"305",1,44.55,"lutetian",1
"94759",184158,"col","",2.29,49.115002,"Presles (Lamarck collection)",NA,"",1,"Lutetian","",47.8,41.3,19293,"gp_mid",8.52,41.51,"305",1,44.55,"lutetian",1
"94761",184160,"col","",1.895,48.82,"Villiers (Defrance collection)",NA,"",1,"Lutetian","",47.8,41.3,61536,"gp_mid",8.14,41.24,"305",1,44.55,"lutetian",1
"94763",184164,"col","",-1.465,49.424999,"Hauteville (Defrance collection)",NA,"",6,"Lutetian","",47.8,41.3,61541,"gp_mid",5.27,42.01,"305",1,44.55,"lutetian",1
"94764",184165,"col","",-1.465,49.424999,"Hauteville (Lamarck collection)",NA,"",1,"Lutetian","",47.8,41.3,13365,"gp_mid",5.27,42.01,"305",1,44.55,"lutetian",1
"94823",184299,"col","Oyaki",130.725006,33.575001,"Aso Yoshikuma coal mine, Usui-town",NA,"",1,"Lutetian","",47.8,41.3,19609,"gp_mid",126.48,40.15,"610",1,44.55,"lutetian",1
"95023",184812,"col","",1.875,48.855,"Beynes (Schtrock collection)",NA,"",1,"Lutetian","",47.8,41.3,61800,"gp_mid",8.13,41.27,"305",1,44.55,"lutetian",1
"95024",184813,"col","",1.895,48.82,"Villiers-St-Frédéric (Merle collection)",NA,"",1,"Lutetian","",47.8,41.3,61800,"gp_mid",8.14,41.24,"305",1,44.55,"lutetian",1
"95025",184814,"col","",1.934,48.848,"Grignon (Merle collection)",NA,"",1,"Lutetian","",47.8,41.3,61800,"gp_mid",8.18,41.26,"305",1,44.55,"lutetian",1
"95026",184815,"col","",1.934,48.848,"Grignon (Deshayes collection)",NA,"",27,"Lutetian","",47.8,41.3,61542,"gp_mid",8.18,41.26,"305",1,44.55,"lutetian",1
"95027",184816,"col","",1.74,49.200001,"Parnes, Oise (Duclos collection)",NA,"",1,"Lutetian","",47.8,41.3,61542,"gp_mid",8.04,41.62,"305",1,44.55,"lutetian",1
"95030",184819,"col","",1.934,48.848,"Grignon (Lambotin collection)",NA,"",2,"Lutetian","",47.8,41.3,61542,"gp_mid",8.18,41.26,"305",1,44.55,"lutetian",1
"95032",184821,"col","",1.934,48.848,"Grignon (Duchatel collection)",NA,"",2,"Lutetian","",47.8,41.3,61542,"gp_mid",8.18,41.26,"305",1,44.55,"lutetian",1
"95033",184822,"col","",1.85,48.91,"Maulle (Deshayes collection)",NA,"",3,"Lutetian","",47.8,41.3,61542,"gp_mid",8.11,41.33,"305",1,44.55,"lutetian",1
"95034",184823,"col","",3.53,48.869999,"Montmirail (Deshayes collection)",NA,"",1,"Lutetian","",47.8,41.3,61542,"gp_mid",9.57,41.21,"305",1,44.55,"lutetian",1
"95035",184824,"col","",-1.465,49.424999,"Hauteville, near Valogne (Deshayes collection)",NA,"",7,"Lutetian","",47.8,41.3,61542,"gp_mid",5.27,42.01,"305",1,44.55,"lutetian",1
"95038",184827,"col","",2.16,48.439999,"Étampes (Deshayes collection)",NA,"",1,"Lutetian","",47.8,41.3,61542,"gp_mid",8.34,40.84,"305",1,44.55,"lutetian",1
"95040",184829,"col","",1.85,48.838001,"Ferme de l'Orme (Deshayes collection)",NA,"",2,"Lutetian","",47.8,41.3,61542,"gp_mid",8.11,41.26,"305",1,44.55,"lutetian",1
"95044",184833,"col","",3.33,49.375,"Soissons (Defrance collection)",NA,"",1,"Lutetian","",47.8,41.3,61542,"gp_mid",9.45,41.72,"315",1,44.55,"lutetian",1
"95047",184836,"col","",1.62,48.794998,"Maulette, near Houdan (Deshayes collection)",NA,"",1,"Lutetian","",47.8,41.3,61542,"gp_mid",7.9,41.22,"305",1,44.55,"lutetian",1
"95071",184968,"col","",11.276,45.566002,"Cava Albanello di Nogarole Vicentino (Museo Civico G. Zannato collection)",NA,"",4,"Lutetian","",47.8,41.3,47481,"gp_mid",17.84,35.04,"307",1,44.55,"lutetian",1
"96338",187560,"col","",3.233751,6.821629,"Oshosun",NA,"",15,"Lutetian","",47.8,41.3,34745,"gp_mid",3.58,-2.69,"714",1,44.55,"lutetian",1
"96340",187571,"col","Kressenberg",12.724883,47.826271,"Kressenberg (Kressenberg Subformation)",NA,"Kressenberg bei Neukirchen, Kressenberg Schwarzerzschichten",2,"Lutetian","",47.8,41.3,62957,"gp_mid",17.53,39.85,"305",1,44.55,"lutetian",1
"96341",187573,"col","",12.615833,47.816387,"Bad Adelholzen",NA,"Abfüllanlage Bad Adelholzener Alpenquellen GmbH",3,"Lutetian","",47.8,41.3,18796,"gp_mid",17.44,39.84,"305",1,44.55,"lutetian",1
"96660",188954,"col","",7.845062,52.487862,"Osteroden sand pit",NA,"",80,"Lutetian","",47.8,41.3,63443,"gp_mid",13.61,44.65,"315",1,44.55,"lutetian",1
"97131",190270,"col","Szoc Limestone",17.33,47.040001,"Gyepukajan, Hobaj Hill",NA,"",1,"Lutetian","",47.8,41.3,63995,"gp_mid",23.23,34.72,"308",1,44.55,"lutetian",1
"97132",190271,"col","Szoc Limestone",17.32,46.990002,"Csabrendek, Kozmatag bauxite mine (Assilina spira marl)",NA,"",2,"Lutetian","",47.8,41.3,63995,"gp_mid",23.2,34.67,"308",1,44.55,"lutetian",1
"97133",190272,"col","Szoc Limestone",17.32,46.990002,"Csabrendek, Kozmatag bauxite mine (Nummulites laevigatus limestone)",NA,"",2,"Lutetian","",47.8,41.3,63995,"gp_mid",23.2,34.67,"308",1,44.55,"lutetian",1
"97135",190274,"col","Szoc Limestone",17.35,46.990002,"Nagytarkany, Ceseteberek quarry (Assilina spira marl)",NA,"",1,"Lutetian","",47.8,41.3,63995,"gp_mid",23.22,34.66,"308",1,44.55,"lutetian",1
"97139",190278,"col","Szoc Limestone",17.365,46.994999,"Nagytarkany, Nagytarkay-9 bauxite lens (Assilina spira marl)",NA,"",2,"Lutetian","",47.8,41.3,63995,"gp_mid",23.23,34.67,"308",1,44.55,"lutetian",1
"97140",190279,"col","Szoc Limestone",17.365,46.994999,"Nagytarkany, Nagytarkay-9 bauxite lens (N. laevigatus limestone)",NA,"",1,"Lutetian","",47.8,41.3,63995,"gp_mid",23.23,34.67,"308",1,44.55,"lutetian",1
"97141",190280,"col","Szoc Limestone",17.365,46.994999,"Nagytarkany, Nagytarkay-9 bauxite lens (Lutetian marl)",NA,"",1,"Lutetian","",47.8,41.3,63995,"gp_mid",23.23,34.67,"308",1,44.55,"lutetian",1
"97144",190294,"col","Szoc Limestone",17.502001,47.006001,"Szőc, Szár Hill",NA,"",2,"Lutetian","",47.8,41.3,63995,"gp_mid",23.34,34.64,"308",1,44.55,"lutetian",1
"97145",190295,"col","Szoc Limestone",17.530001,47.012001,"Szőc, Malom valley",NA,"",2,"Lutetian","",47.8,41.3,63995,"gp_mid",23.37,34.64,"308",1,44.55,"lutetian",1
"97146",190296,"col","Szoc Limestone",17.530001,47.012001,"Szőc (GMHGI collection)",NA,"",1,"Lutetian","",47.8,41.3,63995,"gp_mid",23.37,34.64,"308",1,44.55,"lutetian",1
"97147",190297,"col","Szoc Limestone",17.52,47.032001,"Halimba (Lutetian limestone)",NA,"",5,"Lutetian","",47.8,41.3,63995,"gp_mid",23.37,34.66,"308",1,44.55,"lutetian",1
"97151",190301,"col","Szoc Limestone",17.604,47.084,"Ajka, Köleskepe groove",NA,"",2,"Lutetian","",47.8,41.3,63995,"gp_mid",23.46,34.68,"308",1,44.55,"lutetian",1
"97154",190304,"col","Szoc Limestone",17.66,47.099998,"Úrkút, Open-air manganese mine",NA,"",1,"Lutetian","",47.8,41.3,63995,"gp_mid",23.51,34.68,"308",1,44.55,"lutetian",1
"97156",190306,"col","Szoc Limestone",17.620001,47.117001,"Kislőd, Csojjányos valley, Öreg Hill quarry (N. laevigatus marly limestone)",NA,"",2,"Lutetian","",47.8,41.3,63995,"gp_mid",23.49,34.71,"308",1,44.55,"lutetian",1
"97157",190307,"col","Szoc Limestone",17.620001,47.117001,"Kislőd, Csojjányos valley, Öreg Hill quarry (Lutetian limestone)",NA,"",1,"Lutetian","",47.8,41.3,63995,"gp_mid",23.49,34.71,"308",1,44.55,"lutetian",1
"97158",190308,"col","Szoc Limestone",17.806999,47.195,"Hárskút",NA,"",1,"Lutetian","",47.8,41.3,63995,"gp_mid",23.67,34.73,"308",1,44.55,"lutetian",1
"97159",190309,"col","Szoc Limestone",17.6,47.235001,"Bakonyjákó",NA,"",1,"Lutetian","",47.8,41.3,63995,"gp_mid",23.53,34.82,"308",1,44.55,"lutetian",1
"97424",190865,"col","Selsey Sand",-0.805,50.734001,"Medmerry Farm, Selsey, bed Fisher xvii",NA,"",2,"Lutetian","",47.8,41.3,64169,"gp_mid",5.99,43.28,"315",1,44.55,"lutetian",1
"97428",190869,"col","",39.709999,-10,"South of Lindi",NA,"",1,"Lutetian","",47.8,41.3,64169,"gp_mid",39.03,-23.35,"701",1,44.55,"lutetian",1
"97431",190872,"col","Selsey Sand",-0.805,50.734001,"Selsey, bed Fisher 21",NA,"",4,"Lutetian","",47.8,41.3,64170,"gp_mid",5.99,43.28,"315",1,44.55,"lutetian",1
"97504",191166,"col","",18.190001,47.310001,"Balinka village",NA,"",1,"Lutetian","",47.8,41.3,64464,"gp_mid",24.01,34.74,"308",1,44.55,"lutetian",1
"97505",191167,"col","",17.940001,47.299999,"Dudar-218 borehole",NA,"",1,"Lutetian","",47.8,41.3,64464,"gp_mid",23.82,34.79,"308",1,44.55,"lutetian",1
"99089",196804,"col","",11.21,45.59528,"Pesciara and Monte Postale (Discoaster sublodoensis zone)",NA,"Monte Bolca",1,"Lutetian","",47.8,41.3,67021,"gp_mid",17.8,35.09,"307",1,44.55,"lutetian",1
"103706",207104,"col","",-0.223889,38.549721,"L’Arginent",NA,"",10,"Lutetian","",47.8,41.3,71298,"gp_mid",5.78,31.28,"304",1,44.55,"lutetian",1
"103905",207553,"col","",11.308411,45.621674,"Grolla",NA,"Grola",68,"Lutetian","",47.8,41.3,71560,"gp_mid",17.89,35.08,"307",1,44.55,"lutetian",1
"103906",207554,"col","",11.271488,45.544708,"Zanconato quarry",NA,"Valle di Chiampo",2,"Lutetian","",47.8,41.3,71561,"gp_mid",17.82,35.02,"307",1,44.55,"lutetian",1
"103907",207555,"col","",11.259472,45.559013,"Cava Porto",NA,"Chiampo",0,"Lutetian","",47.8,41.3,71561,"gp_mid",17.82,35.04,"307",1,44.55,"lutetian",1
"103908",207556,"col","",11.239474,45.577282,"Cava Braggi di Vestenanova",NA,"Chiampo",46,"Lutetian","",47.8,41.3,71561,"gp_mid",17.82,35.06,"307",1,44.55,"lutetian",1
"103909",207557,"col","",11.269085,45.583771,"Cava Bertocchi di San Pietro Mussolino",NA,"Chiampo",2,"Lutetian","",47.8,41.3,71561,"gp_mid",17.84,35.06,"307",1,44.55,"lutetian",1
"103962",207773,"col","",19.018078,47.507805,"Kis-Sväbhegy",NA,"",26,"Lutetian","",47.8,41.3,71666,"gp_mid",24.73,34.7,"308",1,44.55,"lutetian",1
"104129",208032,"col","",11.21,45.578609,"Vegroni (Monte Bolca)",NA,"",2,"Lutetian","",47.8,41.3,71885,"gp_mid",17.79,35.07,"307",1,44.55,"lutetian",1
"104638",209100,"col","Dammam",50.825001,25.225,"Umm Bab NE, Midra Shales 10",NA,"",2,"Lutetian","",47.8,41.3,72184,"gp_mid",48.6,8.41,"503",1,44.55,"lutetian",1
"104639",209101,"col","Dammam",50.849998,25.485001,"Zekrit, Umm Bab",NA,"",12,"Lutetian","",47.8,41.3,72184,"gp_mid",48.65,8.66,"503",1,44.55,"lutetian",1
"104640",209102,"col","Dammam",51.43,25.275,"Doha racecourse",NA,"",2,"Lutetian","",47.8,41.3,72184,"gp_mid",49.15,8.4,"503",1,44.55,"lutetian",1
"104641",209103,"col","Dammam",50.799999,25.25,"Al Subaigib, Umm Bab 11",NA,"",2,"Lutetian","",47.8,41.3,72184,"gp_mid",48.58,8.44,"503",1,44.55,"lutetian",1
"104642",209104,"col","Dammam",50.84,25.51,"Ras Abarug W, Umm Bab 22",NA,"",8,"Lutetian","",47.8,41.3,72184,"gp_mid",48.65,8.69,"503",1,44.55,"lutetian",1
"104643",209105,"col","Dammam",50.915001,25.285,"Usailah, Umm Bab 24",NA,"",2,"Lutetian","",47.8,41.3,72184,"gp_mid",48.69,8.46,"503",1,44.55,"lutetian",1
"104644",209106,"col","Dammam",50.84,25.51,"Ras Abarug W, Umm Bab 17",NA,"",6,"Lutetian","",47.8,41.3,72184,"gp_mid",48.65,8.69,"503",1,44.55,"lutetian",1
"104645",209107,"col","Dammam",50.860001,25.52,"Ras Abarug, Abarug 16",NA,"",1,"Lutetian","",47.8,41.3,72184,"gp_mid",48.67,8.7,"503",1,44.55,"lutetian",1
"104647",209109,"col","Dammam",50.84,25.51,"Ras Abarug W, Umm Bab 17 or 22",NA,"",1,"Lutetian","",47.8,41.3,72184,"gp_mid",48.65,8.69,"503",1,44.55,"lutetian",1
"104648",209110,"col","Dammam",50.860001,25.52,"Ras Abarug, Abarug 30",NA,"",1,"Lutetian","",47.8,41.3,72184,"gp_mid",48.67,8.7,"503",1,44.55,"lutetian",1
"104834",209368,"col","Tallahatta",-86.669586,31.376537,"Pigeon Creek",NA,"",11,"Lutetian","",47.8,41.3,72247,"gp_mid",-66.93,34.78,"109",1,44.55,"lutetian",1
"105036",209582,"col","Nanjemoy",-77.28389,37.767223,"Mill Pond Creek, Nanjemoy Fm.",NA,"",0,"Lutetian","",47.8,41.3,72294,"gp_mid",-55.63,39.15,"109",1,44.55,"lutetian",1
"105037",209583,"col","Nanjemoy",-77.416664,37.768333,"Bleak Hill Farm, Etna Mill",NA,"",1,"Lutetian","",47.8,41.3,72294,"gp_mid",-55.77,39.18,"109",1,44.55,"lutetian",1
"105038",209584,"col","Nanjemoy",-77.133331,38.316666,"Machodoc Creek",NA,"",1,"Lutetian","",47.8,41.3,72294,"gp_mid",-55.31,39.66,"109",1,44.55,"lutetian",1
"105179",209805,"col","Dammam",50.509998,26.15,"Cliff north-west of Rifaa",NA,"",2,"Lutetian","",47.8,41.3,26552,"gp_mid",48.42,9.36,"503",1,44.55,"lutetian",1
"105180",209806,"col","Dammam",50.580002,26.035,"ESE of Jebel Dukhan",NA,"",1,"Lutetian","",47.8,41.3,26552,"gp_mid",48.47,9.24,"503",1,44.55,"lutetian",1
"105181",209807,"col","Dammam",50.575001,25.98,"Cliff between Jan and Ain el Qar",NA,"",1,"Lutetian","",47.8,41.3,26552,"gp_mid",48.46,9.19,"503",1,44.55,"lutetian",1
"105182",209808,"col","Dammam",50.544998,26.129999,"Rifaa",NA,"",1,"Lutetian","",47.8,41.3,26552,"gp_mid",48.45,9.34,"503",1,44.55,"lutetian",1
"105183",209809,"col","Dammam",50.490002,26.135,"3 miles west of Rifaa",NA,"",1,"Lutetian","",47.8,41.3,26552,"gp_mid",48.4,9.35,"503",1,44.55,"lutetian",1
"105184",209810,"col","Dammam",50.535,26.174999,"3 miles north of Rifaa",NA,"",1,"Lutetian","",47.8,41.3,26552,"gp_mid",48.45,9.38,"503",1,44.55,"lutetian",1
"105185",209811,"col","Dammam",50.549999,25.950001,"Plateau in the south of the island",NA,"",1,"Lutetian","",47.8,41.3,26552,"gp_mid",48.44,9.16,"503",1,44.55,"lutetian",1
"105819",211009,"col","",34.600834,45.05722,"Prolom",NA,"",48,"Lutetian","",47.8,41.3,72875,"gp_mid",36.74,37.05,"302",1,44.55,"lutetian",1
"106633",212368,"col","Misoa",-71.321541,9.891456,"Lake Maracaibo borehole",NA,"",0,"Lutetian","",47.8,41.3,73378,"gp_mid",-56.31,8.74,"203",1,44.55,"lutetian",1
"106634",212369,"col","Misoa",-71.321541,9.891456,"Lake Maracaibo borehole",NA,"",23,"Lutetian","",47.8,41.3,73378,"gp_mid",-56.31,8.74,"203",1,44.55,"lutetian",1
