"","collection_no","record_type","formation","lng","lat","collection_name","collection_subset","collection_aka","n_occs","early_interval","late_interval","max_ma","min_ma","reference_no","paleomodel","paleolng","paleolat","geoplate","marine","mid_ma","time_bin","ext"
"1002",3568,"col","Crystal River Limestone",-83.581947,30.117222,"FDi-1 (Crystal River)",NA,"",4,"Priabonian","",38,33.9,124,"gp_mid",-68.58,33.09,"109",1,35.95,"priabonian",1
"1003",3569,"col","Crystal River Limestone",-85.226944,30.774166,"FJa-1 (Crystal River)",NA,"",14,"Priabonian","",38,33.9,124,"gp_mid",-70.11,33.99,"109",1,35.95,"priabonian",1
"1004",3570,"col","Crystal River Limestone",-83.175003,30.052778,"FLa-1 (Crystal River)",NA,"",18,"Priabonian","",38,33.9,124,"gp_mid",-68.18,32.96,"109",1,35.95,"priabonian",1
"1005",3571,"col","Crystal River Limestone",-83.175003,30.052778,"FLa-2 (Crystal River)",NA,"",6,"Priabonian","",38,33.9,124,"gp_mid",-68.18,32.96,"109",1,35.95,"priabonian",1
"1006",3572,"col","Crystal River Limestone",-82.446945,29.387222,"FLe-1 (Crystal River)",NA,"",5,"Priabonian","",38,33.9,124,"gp_mid",-67.58,32.2,"109",1,35.95,"priabonian",1
"1007",3573,"col","Crystal River Limestone",-82.168053,29.253332,"FMa-1 (Crystal River)",NA,"",6,"Priabonian","",38,33.9,124,"gp_mid",-67.33,32.02,"109",1,35.95,"priabonian",1
"1008",3574,"col","Crystal River Limestone",-83.387779,29.670834,"FTa-1 (Crystal River)",NA,"",2,"Priabonian","",38,33.9,124,"gp_mid",-68.48,32.62,"109",1,35.95,"priabonian",1
"1009",3575,"col","Crystal River Limestone",-83.387779,29.670834,"FTa-2 (Crystal River)",NA,"",5,"Priabonian","",38,33.9,124,"gp_mid",-68.48,32.62,"109",1,35.95,"priabonian",1
"1010",3576,"col","Crystal River Limestone",-83.387779,29.670834,"FTa-3 (Crystal River)",NA,"",4,"Priabonian","",38,33.9,124,"gp_mid",-68.48,32.62,"109",1,35.95,"priabonian",1
"1046",3715,"col","Neerrepen Sands",5.47,50.779999,"Francart Quarry",NA,"",14,"Priabonian","",38,33.9,230,"gp_mid",10.25,44.64,"315",1,35.95,"priabonian",1
"1658",4886,"col","Island Sandstone",171.350006,-42.033333,"Te Miko (Unit 2)",NA,"Decapod Bed; K30/f8723; K30/f37; K30/f37A; K30/f8510; K30/f9735",21,"Kaiatan","",37.2,36,301,"gp_mid",-170.01,-49.5,"806",1,36.6,"priabonian",1
"1659",4887,"col","Island Sandstone",171.350006,-42.033333,"Te Miko (Unit 4)",NA,"",9,"Kaiatan","",37.2,36,301,"gp_mid",-170.01,-49.5,"806",1,36.6,"priabonian",1
"1660",4888,"col","Island Sandstone",171.338898,-42.091,"Te Miko (Unit 5)",NA,"",3,"Kaiatan","Runangan",37.2,34.3,301,"gp_mid",-170.39,-49.52,"806",1,35.75,"priabonian",1
"2457",7295,"col","",34.983334,48.450001,"Dnieper River, Ukraine",NA,"",4,"Priabonian","",38,33.9,468,"gp_mid",36.36,41.88,"302",1,35.95,"priabonian",1
"2464",7318,"col","Williston Limestone",-82.867226,29.775,"FG-1 - Bell [Williston Limestone]",NA,"",17,"Priabonian","",38,33.9,471,"gp_mid",-67.93,32.64,"109",1,35.95,"priabonian",1
"2465",7319,"col","Williston Limestone",-82.749443,29.291668,"Fl3-10 - Otter Creek [Williston Limestone]",NA,"",8,"Priabonian","",38,33.9,471,"gp_mid",-67.91,32.15,"109",1,35.95,"priabonian",1
"2917",9069,"col","Bembridge Marls",-1.3636,50.737499,"Thorness Bay, Bembridge Marls, Isle of Wight",NA,"",2,"Late Eocene","",37.2,33.9,791,"gp_mid",4.17,44.91,"315",1,35.55,"priabonian",1
"3135",10703,"col","",12.883333,47.166668,"Eisenrichterstein, Germany",NA,"Reef 1729",141,"Priabonian","",38,33.9,3977,"gp_mid",18.72,38.32,"307",1,35.95,"priabonian",1
"3136",10963,"col","",12.15,47.783333,"Kirchberg, Neubeuern, Germany",NA,"Reef 1730",47,"Priabonian","",38,33.9,3977,"gp_mid",15.98,41.42,"305",1,35.95,"priabonian",1
"3638",13073,"col","Possagno Marl",11.866667,45.849998,"Possagno",NA,"",1,"Late Eocene","",37.2,33.9,10901,"gp_mid",17.36,37.29,"307",1,35.55,"priabonian",1
"3691",13354,"col","Nago Limestone",10.884722,45.886112,"Nago, Italy",NA,"Reef 2319",44,"Priabonian","",38,33.9,5994,"gp_mid",16.55,37.54,"307",1,35.95,"priabonian",1
"4068",21976,"col","Bouldnor",-1.36,50.737999,"Bembridge Marls (A'Court Smith collection)",NA,"ETE Locality 797",115,"Priabonian","",38,33.9,5087,"gp_mid",4.17,44.91,"315",1,35.95,"priabonian",1
"4895",27508,"col","Twiggs",-83.633331,32.700001,"J. M. Huber Corporation Kaolin (Clay) Pit, Twiggs Clay",NA,"",10,"Priabonian","",38,33.9,7576,"gp_mid",-68.06,35.64,"109",1,35.95,"priabonian",1
"4953",27641,"col","Crystal River",-82.599998,29.65,"Ocala Limerock Corporation Quarry",NA,"",1,"Late Eocene","",37.2,33.9,7608,"gp_mid",-67.68,32.48,"109",1,35.55,"priabonian",1
"5673",31607,"col","",-1.316667,50.666668,"Bembridge Limestone",NA,"Bembridge",5,"Priabonian","",38,33.9,8517,"gp_mid",4.2,44.84,"315",1,35.95,"priabonian",1
"6172",32917,"col","Ocala",-83.175003,30.052778,"Williston Shellrock Mine",NA,"",1,"Priabonian","",38,33.9,8825,"gp_mid",-68.18,32.96,"109",1,35.95,"priabonian",1
"6173",32918,"col","Ocala",-82.573608,29.690277,"Haile Quarry",NA,"",1,"Priabonian","",38,33.9,8825,"gp_mid",-67.65,32.51,"109",1,35.95,"priabonian",1
"6174",32919,"col","Ocala",-82.392624,29.595415,"Gainesville Quarry",NA,"Arredondo",2,"Priabonian","",38,33.9,8825,"gp_mid",-67.49,32.39,"109",1,35.95,"priabonian",1
"6175",32920,"col","Ocala",-82.499168,29.901943,"Sam Wall Quarry",NA,"",2,"Priabonian","",38,33.9,8825,"gp_mid",-67.53,32.71,"109",1,35.95,"priabonian",1
"6213",32992,"col","",10.0667,44.283298,"Varano",NA,"",1,"Priabonian","",38,33.9,8840,"gp_mid",15.24,36.2,"307",1,35.95,"priabonian",1
"6215",32994,"col","",10.5333,52.266701,"Braunschweig",NA,"",1,"Priabonian","",38,33.9,6036,"gp_mid",14.84,45.95,"315",1,35.95,"priabonian",1
"7277",34994,"col","Williston Limestone",-82.446945,29.387222,"Unspecified localities [Williston Limestone]",NA,"",1,"Priabonian","",38,33.9,9411,"gp_mid",-67.58,32.2,"109",1,35.95,"priabonian",1
"8280",202045,"col","Ocala",-83.997688,32.724308,"Knoxville",NA,"",1,"Priabonian","",38,33.9,61712,"gp_mid",-68.43,35.72,"109",1,35.95,"priabonian",1
"8659",37708,"col","",171.333328,-42.099998,"Pororari",NA,"",3,"Late Eocene","",37.2,33.9,10062,"gp_mid",-170.39,-49.53,"806",1,35.55,"priabonian",1
"8669",37718,"col","",171.333328,-42.099998,"Porari, GS 10490",37708,"",1,"Late Eocene","",37.2,33.9,10062,"gp_mid",-170.39,-49.53,"806",1,35.55,"priabonian",1
"9350",38858,"col","",-1.533333,50.666668,"Lacey's Farm Quarry (lower), Isle of Wight",NA,"Greens Quarry\r\nUB 7105",2,"Late Eocene","",37.2,33.9,10480,"gp_mid",4.01,44.85,"315",1,35.55,"priabonian",1
"9351",38859,"col","",-1.533333,50.666668,"Lacey's Farm Quarry (upper), Isle of Wight",NA,"Greens Quarry\r\nUB 6911",8,"Late Eocene","",37.2,33.9,10480,"gp_mid",4.01,44.85,"315",1,35.55,"priabonian",1
"9352",38860,"col","",-1.55,50.662498,"Headon Hill UB 7103, Osborne Beds, Isle of Wight",40853,"",1,"Late Eocene","",37.2,33.9,10480,"gp_mid",3.99,44.85,"315",1,35.55,"priabonian",1
"9353",38861,"col","",-1.55,50.662498,"Headon Hill HH5, Osborne Beds, Isle of Wight",39675,"UB 7106",2,"Late Eocene","",37.2,33.9,10480,"gp_mid",3.99,44.85,"315",1,35.55,"priabonian",1
"9354",38862,"col","Headon Hill",-1.216667,50.716667,"Fishbourne, Isle of Wight",NA,"UB 6909",13,"Late Eocene","",37.2,33.9,10480,"gp_mid",4.3,44.89,"315",1,35.55,"priabonian",1
"9355",38863,"col","",-1.083333,50.666668,"Whitecliff Bay Osborne Beds(lowest), Isle of Wight",40538,"UB 7066",1,"Late Eocene","",37.2,33.9,10480,"gp_mid",4.41,44.83,"315",1,35.55,"priabonian",1
"9356",38864,"col","",-1.083333,50.666668,"Whitecliff Bay Osborne Beds(middle), Isle of Wight",40538,"UB 7101",1,"Late Eocene","",37.2,33.9,10480,"gp_mid",4.41,44.83,"315",1,35.55,"priabonian",1
"9416",38953,"col","London Clay",1.272,51.846001,"Walton-on-the-Naze, London Clay, Unit 11",22801,"section TM 267243",1,"Late Eocene","",37.2,33.9,10537,"gp_mid",6.63,45.89,"315",1,35.55,"priabonian",1
"9515",39236,"col","Lower Headon Beds",-1.55,50.629166,"Headon Hill HH2, Lower Headon Beds, Isle of Wight",39677,"",27,"Late Eocene","",37.2,33.9,10589,"gp_mid",3.99,44.82,"315",1,35.55,"priabonian",1
"9516",39249,"col","Upper Headon Beds",-1.55,50.629166,"Headon Hill HH3, Upper Headon Beds, Isle of Wight",39676,"",17,"Late Eocene","",37.2,33.9,10589,"gp_mid",3.99,44.82,"315",1,35.55,"priabonian",1
"9517",39250,"col","Upper Headon Beds",-1.55,50.629166,"Headon Hill HH4, Upper Headon Beds, Isle of Wight",39676,"",13,"Late Eocene","",37.2,33.9,10589,"gp_mid",3.99,44.82,"315",1,35.55,"priabonian",1
"9518",39263,"col","Bembridge Limestone",-1.533333,50.666668,"Headon Hill HH6, Bembridge Limestone, Isle of Wight",40814,"",4,"Late Eocene","",37.2,33.9,10589,"gp_mid",4.01,44.85,"315",1,35.55,"priabonian",1
"9519",39264,"col","Bembridge Limestone",-1.533333,50.666668,"Headon Hill HH7, Bembridge Limestone, Isle of Wight",40814,"",12,"Late Eocene","",37.2,33.9,10482,"gp_mid",4.01,44.85,"315",1,35.55,"priabonian",1
"9520",39292,"col","Lower Headon Beds",-1.097222,50.673611,"Whitecliff Bay WB1, Isle of Wight",39704,"",5,"Late Eocene","",37.2,33.9,10589,"gp_mid",4.4,44.84,"315",1,35.55,"priabonian",1
"9521",39297,"col","Bembridge Marls",-1.091667,50.676388,"Whitecliff Bay WB2A, Bembridge Marls, Isle of Wight",39704,"",5,"Late Eocene","",37.2,33.9,10482,"gp_mid",4.4,44.84,"315",1,35.55,"priabonian",1
"9522",39298,"col","Bembridge Marls",-1.091667,50.676388,"Whitecliff Bay WB2B, Bembridge Marls, Isle of Wight",NA,"",3,"Late Eocene","",37.2,33.9,10482,"gp_mid",4.4,44.84,"315",1,35.55,"priabonian",1
"9523",39299,"col","Lower Headon Beds",-1.533333,50.666668,"Totland Bay, Lower Headon Beds, Isle of Wight",NA,"",21,"Late Eocene","",37.2,33.9,10589,"gp_mid",4.01,44.85,"315",1,35.55,"priabonian",1
"9524",39300,"col","Lower Hamstead Beds",-1.5,50.700001,"Bouldnor Cliff, Lower Hamstead Beds, Isle of Wight",NA,"",17,"Late Eocene","",37.2,33.9,10589,"gp_mid",4.04,44.88,"315",1,35.55,"priabonian",1
"9808",39662,"col","Headon Beds",-1.592778,50.724998,"Hordle Cliff Rodent Bed, Hampshire",NA,"Hordwell",91,"Late Eocene","",37.2,33.9,10566,"gp_mid",3.96,44.91,"315",1,35.55,"priabonian",1
"9812",39675,"col","Headon Hill",-1.566667,50.666668,"Alum Bay, Headon Beds (Beds 62-71), Isle of Wight",NA,"",6,"Late Eocene","",37.2,33.9,10745,"gp_mid",3.98,44.85,"315",1,35.55,"priabonian",1
"9813",39677,"col","Headon Hill",-1.566667,50.666668,"Alum Bay, Headon Beds (Beds 42-45), Isle of Wight",NA,"",3,"Late Eocene","",37.2,33.9,10745,"gp_mid",3.98,44.85,"315",1,35.55,"priabonian",1
"9824",39695,"col","Barton Beds",-1.566667,50.666668,"Alum Bay, Middle Barton Beds, Isle of Wight",NA,"""London Clay"" (Bed 29)",38,"Late Eocene","",37.2,33.9,10745,"gp_mid",3.98,44.85,"315",1,35.55,"priabonian",1
"9825",39696,"col","Barton Beds",-1.566667,50.666668,"Alum Bay, Middle Barton Beds, Isle of Wight",NA,"""London Clay"" (Beds 4-6)",31,"Late Eocene","",37.2,33.9,10907,"gp_mid",3.98,44.85,"315",1,35.55,"priabonian",1
"9833",39704,"col","Bembridge Marls",-1.083333,50.666668,"Whitecliff Bay, Bembridge Marl (Bed 37) Isle of Wight",NA,"",4,"Late Eocene","",37.2,33.9,10745,"gp_mid",4.41,44.83,"315",1,35.55,"priabonian",1
"9834",39705,"col","Bembridge Limestone",-1.083333,50.666668,"Whitecliff Bay, Bembridge Marl (Bed 36) Isle of Wight",NA,"",8,"Late Eocene","",37.2,33.9,10745,"gp_mid",4.41,44.83,"315",1,35.55,"priabonian",1
"10166",40267,"col","Hempstead",-1.45,50.724998,"Hempstead Cliff, Hempstead Series (bed 2), Isle of Wight",NA,"",18,"Late Eocene","",37.2,33.9,10868,"gp_mid",4.09,44.91,"315",1,35.55,"priabonian",1
"10167",40268,"col","Hempstead",-1.45,50.708332,"Hempstead Cliff, Hempstead Series (bed 4), Isle of Wight",NA,"",18,"Late Eocene","",37.2,33.9,10868,"gp_mid",4.09,44.89,"315",1,35.55,"priabonian",1
"10168",40270,"col","Hempstead",-1.45,50.708332,"Hempstead Cliff, Hempstead Series (bed 3), Isle of Wight",NA,"",7,"Late Eocene","",37.2,33.9,10868,"gp_mid",4.09,44.89,"315",1,35.55,"priabonian",1
"10403",40774,"col","Barton Beds",-1.083333,50.666668,"Whitecliff Bay, Barton Beds (Bed 17) Isle of Wight",NA,"",3,"Late Eocene","",37.2,33.9,10907,"gp_mid",4.41,44.83,"315",1,35.55,"priabonian",1
"10404",40777,"col","Barton Beds",-1.566667,50.666668,"Alum Bay, Lower Barton Beds, Isle of Wight",NA,"""London Clay"" (lowest bed)",6,"Late Eocene","",37.2,33.9,10907,"gp_mid",3.98,44.85,"315",1,35.55,"priabonian",1
"10451",40853,"col","Osborne Beds",-1.55,50.662498,"Headon Hill, Osborne Beds (Bed 7), Isle of Wight",NA,"",2,"Late Eocene","",37.2,33.9,10868,"gp_mid",3.99,44.85,"315",1,35.55,"priabonian",1
"10475",40887,"col","Headon Beds",-1.55,50.629166,"Headon Hill, Lower Headon Beds, Isle of Wight",39677,"",14,"Late Eocene","",37.2,33.9,10868,"gp_mid",3.99,44.82,"315",1,35.55,"priabonian",1
"10476",40890,"col","Headon Beds",-1.55,50.629166,"Headon Hill, Middle Headon Beds, Isle of Wight",NA,"",14,"Late Eocene","",37.2,33.9,10868,"gp_mid",3.99,44.82,"315",1,35.55,"priabonian",1
"10484",40913,"col","Bembridge Marls",-1.45,50.708332,"Hempstead Cliff, Bembridge Marls (bed 17)",NA,"",5,"Late Eocene","",37.2,33.9,10868,"gp_mid",4.09,44.89,"315",1,35.55,"priabonian",1
"10737",41453,"col","Inglis Limestone",-82.703331,29.225279,"FGS L-93 - Gulf Hammock [Inglis Limestone]",NA,"",46,"Priabonian","",38,33.9,11115,"gp_mid",-67.88,32.08,"109",1,35.95,"priabonian",1
"10745",41476,"col","Inglis Limestone",-82.701111,29.239721,"FGS VL-187 - Gulf Hammock [Inglis Limestone]",NA,"",3,"Priabonian","",38,33.9,11115,"gp_mid",-67.87,32.09,"109",1,35.95,"priabonian",1
"10757",41499,"col","Lower Headon Beds",-1.526389,50.691666,"Colwell Bay 1, Lower Headon Beds, Isle of Wight",NA,"",2,"Late Eocene","",37.2,33.9,11122,"gp_mid",4.02,44.88,"315",1,35.55,"priabonian",1
"10759",41502,"col","Headon Beds",-1.55,50.616669,"Headon Hill, Headon Beds, Isle of Wight",NA,"",1,"Late Eocene","",37.2,33.9,11122,"gp_mid",3.99,44.8,"315",1,35.55,"priabonian",1
"11147",204637,"col","Ocala",-83.221283,30.111443,"Dowling Springs",NA,"",1,"Late Eocene","",37.2,33.9,32917,"gp_mid",-68.22,33.03,"109",1,35.55,"priabonian",1
"11586",42566,"col","Barton Beds",-1.733333,50.783333,"Hinton Admiral, Hampshire, Middle Barton Beds",NA,"",2,"Late Eocene","",37.2,33.9,11308,"gp_mid",3.84,44.98,"315",1,35.55,"priabonian",1
"11602",42582,"col","Barton Beds",-1.083333,50.666668,"Whitecliff Bay, Barton Beds (Chama bed), Isle of Wight",NA,"",25,"Late Eocene","",37.2,33.9,11308,"gp_mid",4.41,44.83,"315",1,35.55,"priabonian",1
"11604",42584,"col","Barton Beds",-0.633333,51.283333,"Tunnel Hill, Lower Barton Beds, Surrey",NA,"",36,"Late Eocene","",37.2,33.9,11308,"gp_mid",4.88,45.42,"315",1,35.55,"priabonian",1
"11605",42586,"col","Barton Beds",-0.633333,51.283333,"Tunnel Hill, Upper Barton Beds, Surrey",NA,"",26,"Late Eocene","",37.2,33.9,11308,"gp_mid",4.88,45.42,"315",1,35.55,"priabonian",1
"11645",42634,"col","Barton Beds",-1.691667,50.738888,"Cliffend, Lower Barton Beds, A1, Hampshire",NA,"",7,"Late Eocene","",37.2,33.9,11344,"gp_mid",3.88,44.93,"315",1,35.55,"priabonian",1
"11646",42635,"col","Barton Beds",-1.691667,50.738888,"Cliffend, Lower Barton Beds, A2, Hampshire",NA,"",10,"Late Eocene","",37.2,33.9,11344,"gp_mid",3.88,44.93,"315",1,35.55,"priabonian",1
"11649",42640,"col","Barton Beds",-1.691667,50.738888,"Cliffend, Middle Barton Beds, C, Hampshire",NA,"",107,"Late Eocene","",37.2,33.9,11344,"gp_mid",3.88,44.93,"315",1,35.55,"priabonian",1
"11652",42643,"col","Barton Beds",-1.691667,50.738888,"Cliffend, Middle Barton Beds, E, Hampshire",NA,"",19,"Late Eocene","",37.2,33.9,11344,"gp_mid",3.88,44.93,"315",1,35.55,"priabonian",1
"11653",42644,"col","Barton Beds",-1.691667,50.738888,"Cliffend, Middle Barton Beds, F, Hampshire",NA,"",144,"Late Eocene","",37.2,33.9,11344,"gp_mid",3.88,44.93,"315",1,35.55,"priabonian",1
"11654",42645,"col","Barton Beds",-1.691667,50.738888,"Cliffend, Upper Barton Beds, G, Hampshire",NA,"",5,"Late Eocene","",37.2,33.9,11344,"gp_mid",3.88,44.93,"315",1,35.55,"priabonian",1
"11655",42646,"col","Barton Beds",-1.691667,50.738888,"Cliffend, Upper Barton Beds, H, Hampshire",NA,"Chama-Bed",13,"Late Eocene","",37.2,33.9,11344,"gp_mid",3.88,44.93,"315",1,35.55,"priabonian",1
"11657",42649,"col","Barton Beds",-1.691667,50.738888,"Cliffend, Upper Barton Beds, K, Hampshire",NA,"",16,"Late Eocene","",37.2,33.9,11344,"gp_mid",3.88,44.93,"315",1,35.55,"priabonian",1
"11664",42658,"col","Barton Beds",-1.733333,50.783333,"Bransgore, Lower Barton Beds, Hampshire",NA,"",70,"Late Eocene","",37.2,33.9,11344,"gp_mid",3.84,44.98,"315",1,35.55,"priabonian",1
"11665",42662,"col","Barton Beds",-1.783333,50.849998,"Poulner, Middle Barton Beds, Hampshire",NA,"",48,"Late Eocene","",37.2,33.9,11344,"gp_mid",3.81,45.05,"315",1,35.55,"priabonian",1
"11731",42787,"col","Carbonera",-73.57972,6.804722,"Hannatoma A: Carbonera Fm: El Cerrito, Columbia (Durham)",NA,"",16,"Late Eocene","",37.2,33.9,11374,"gp_mid",-62.04,6.6,"203",1,35.55,"priabonian",1
"11732",42788,"col","Carbonera",-73.57972,6.804722,"Hannatoma B: Carbonera Fm: El Cerrito, Columbia (Dusenbury)",NA,"",15,"Late Eocene","",37.2,33.9,11374,"gp_mid",-62.04,6.6,"203",1,35.55,"priabonian",1
"11734",42790,"col","Carbonera",-73.57972,6.804722,"Hannatoma D: Carbonera Fm: El Cerrito, Columbia (Hedberg)",NA,"",15,"Late Eocene","",37.2,33.9,11374,"gp_mid",-62.04,6.6,"203",1,35.55,"priabonian",1
"11735",42791,"col","Lower Sandy Shales",-72.349998,8.066667,"Hannatoma E: Lower Sandy Shales Fm: San Antonio, Venezuela (Kehrer)",NA,"",11,"Late Eocene","",37.2,33.9,11374,"gp_mid",-60.72,7.78,"203",1,35.55,"priabonian",1
"11736",42792,"col","Lower Sandy Shales",-72.349998,8.066667,"Hannatoma F: Sandy Shales Fm: San Antonio, Venezuela (Kehrer)",NA,"",16,"Late Eocene","",37.2,33.9,11374,"gp_mid",-60.72,7.78,"203",1,35.55,"priabonian",1
"12527",44095,"col","",78.339722,30.079721,"Nilkanth Mudstone Beds",NA,"",8,"Late Eocene","",37.2,33.9,11578,"gp_mid",79.35,11.31,"501",1,35.55,"priabonian",1
"12566",44181,"col","Fayette",5.528333,43.918888,"Gignac Ichnofossil site",NA,"one kilometer south of Gignac, Vaucluse",4,"Priabonian","",38,33.9,11605,"gp_mid",9.75,37.79,"305",1,35.95,"priabonian",1
"12567",44184,"col","Fayette",5.43,43.861668,"Saignon Ichnofossil site",NA,"Carlet, Vaucluse",5,"Priabonian","",38,33.9,11605,"gp_mid",9.66,37.74,"305",1,35.95,"priabonian",1
"12703",132660,"col","Ocala",-83.678055,32.394169,"Georgia Limestone Products Co. Quarry",NA,"Grigg's Cement Products Co., Georgia Limerock Products",2,"Priabonian","",38,33.9,42488,"gp_mid",-68.18,35.34,"109",1,35.95,"priabonian",1
"13548",45449,"col","Kovachinskaya",165.916672,60.416668,"Gulf of Korfa, Eastern Kamchatka (Ia)",NA,"",22,"Late Eocene","",37.2,33.9,11836,"gp_mid",161.4,66.58,"485",1,35.55,"priabonian",1
"13696",45640,"col","Clinchfield",-83.359169,32.905556,"Hardie Kaolin Mine",NA,"Wilkinson Mine, WKR Mine",53,"Priabonian","",38,33.9,12028,"gp_mid",-67.74,35.8,"109",1,35.95,"priabonian",1
"13811",45884,"col","Koun",49.530556,40.499168,"Sumgait River, Gobustan, Koun Formation",NA,"",4,"Priabonian","",38,33.9,37562,"gp_mid",49.88,34.29,"402",1,35.95,"priabonian",1
"14282",47060,"col","",35.1455,48.448002,"Rybal'skiy Quarry",NA,"",2,"Priabonian","",38,33.9,12529,"gp_mid",36.51,41.88,"302",1,35.95,"priabonian",1
"14288",47067,"col","Mandrikovka",35.1455,48.448002,"Rybal'skiy quarry",47060,"",7,"Priabonian","",38,33.9,12537,"gp_mid",36.51,41.88,"302",1,35.95,"priabonian",1
"15093",48026,"col","",32.683613,49.072498,"Chigirin",NA,"Tschigirin, Tyas'ma River",2,"Priabonian","",38,33.9,11981,"gp_mid",34.31,42.48,"302",1,35.95,"priabonian",1
"15094",48027,"col","",36.355278,49.702499,"Korobow Chutor",NA,"",1,"Priabonian","",38,33.9,29257,"gp_mid",37.55,43.15,"302",1,35.95,"priabonian",1
"15095",48028,"col","",37.2575,49.191113,"Bugajewka",NA,"Zmiev",1,"Priabonian","",38,33.9,26362,"gp_mid",38.37,42.65,"302",1,35.95,"priabonian",1
"15526",49167,"col","Tavda",63.583332,51.202221,"Kachar",NA,"",2,"Priabonian","",38,33.9,12996,"gp_mid",61.61,45.66,"402",1,35.95,"priabonian",1
"15755",49885,"col","Clinchfield",-83.636391,32.404999,"Pennsylvania-Dixie Cement Corporation quarry",NA,"Medusa Cement Company west quarry",4,"Priabonian","",38,33.9,12993,"gp_mid",-68.13,35.35,"109",1,35.95,"priabonian",1
"19300",56937,"col","Headon Hill",1.581944,50.790279,"Roydon",NA,"",1,"Priabonian","",38,33.9,67491,"gp_mid",6.8,44.82,"315",1,35.95,"priabonian",1
"19432",57123,"col","Ocala",-82.599998,29.700001,"Cummer Lumber Company Phosphate Mine Eocene",NA,"",1,"Priabonian","",38,33.9,15425,"gp_mid",-67.67,32.53,"109",1,35.95,"priabonian",1
"20152",57926,"col","Ocala",-84.552498,30.994167,"Red Bluff",NA,"",9,"Late Eocene","",37.2,33.9,15585,"gp_mid",-69.38,34.1,"109",1,35.55,"priabonian",1
"20153",57927,"col","Ocala",-84.561668,30.922501,"Bainbridge, north",NA,"",13,"Late Eocene","",37.2,33.9,15585,"gp_mid",-69.4,34.03,"109",1,35.55,"priabonian",1
"21614",60448,"col","",-82.692497,29.834167,"Devil's Eye Spring",NA,"",1,"Priabonian","",38,33.9,12000,"gp_mid",-67.74,32.67,"109",1,35.95,"priabonian",1
"21615",60449,"col","Crystal River",-82.152222,29.244444,"Coon Cave",NA,"",1,"Priabonian","",38,33.9,12000,"gp_mid",-67.32,32.01,"109",1,35.95,"priabonian",1
"21616",60450,"col","Crystal River",-83.237503,30.090834,"Dell Limerock Mine",NA,"",1,"Priabonian","",38,33.9,12000,"gp_mid",-68.24,33.01,"109",1,35.95,"priabonian",1
"21617",60451,"col","Ocala",-83.922501,31.903334,"Flint River",NA,"",4,"Priabonian","",38,33.9,8335,"gp_mid",-68.54,34.9,"109",1,35.95,"priabonian",1
"21687",60601,"col","",-72.666664,19.5,"Station 9813",NA,"B 163 F",1,"Late Eocene","",37.2,33.9,17411,"gp_mid",-65.52,20.82,"252",1,35.55,"priabonian",1
"21688",60603,"col","",-72.666664,19.5,"Station 9825",NA,"B 100 F",1,"Late Eocene","",37.2,33.9,17411,"gp_mid",-65.52,20.82,"252",1,35.55,"priabonian",1
"21689",60604,"col","",-72.650002,19.4,"Station 9770",NA,"B 229 F",2,"Late Eocene","",37.2,33.9,17411,"gp_mid",-65.52,20.72,"252",1,35.55,"priabonian",1
"21690",60605,"col","",-72.416664,19.166668,"Station 9887",NA,"B 334 F",3,"Late Eocene","",37.2,33.9,17411,"gp_mid",-65.31,20.46,"252",1,35.55,"priabonian",1
"21691",60606,"col","",-73.050003,18.85,"Station 9673",NA,"W 167 F",9,"Late Eocene","",37.2,33.9,17411,"gp_mid",-65.98,20.21,"252",1,35.55,"priabonian",1
"22269",61271,"col","Chickahominy",-76.385559,37.095554,"Langley Core, VA - 232.26-232.32 m (Chickahominy Fm)",NA,"762.0-762.2 ft",1,"Late Eocene","",37.2,33.9,17631,"gp_mid",-59.67,38.81,"109",1,35.55,"priabonian",1
"22270",61272,"col","Chickahominy",-76.385559,37.095554,"Langley Core, VA - 229.39-229.42 m (Chickahominy Fm)",NA,"752.6-752.7 ft",1,"Late Eocene","",37.2,33.9,17631,"gp_mid",-59.67,38.81,"109",1,35.55,"priabonian",1
"22271",61273,"col","Chickahominy",-76.385559,37.095554,"Langley Core, VA - 228.87-228.90 m (Chickahominy Fm)",NA,"750.9-751.0 ft",1,"Late Eocene","",37.2,33.9,17631,"gp_mid",-59.67,38.81,"109",1,35.55,"priabonian",1
"22272",61274,"col","Chickahominy",-76.385559,37.095554,"Langley Core, VA - 226.47-226.50 m (Chickahominy Fm)",NA,"743.0-743.1 ft",2,"Late Eocene","",37.2,33.9,17631,"gp_mid",-59.67,38.81,"109",1,35.55,"priabonian",1
"22273",61275,"col","Chickahominy",-76.385559,37.095554,"Langley Core, VA - 224.38-224.42 m (Chickahominy Fm)",NA,"736.16-736.3 ft",1,"Late Eocene","",37.2,33.9,17631,"gp_mid",-59.67,38.81,"109",1,35.55,"priabonian",1
"22276",61277,"col","Chickahominy",-76.385559,37.095554,"Langley Core, VA - 214.02-214.06 m (Chickahominy Fm)",NA,"702.15-702.3 ft",1,"Late Eocene","",37.2,33.9,17631,"gp_mid",-59.67,38.81,"109",1,35.55,"priabonian",1
"22277",61278,"col","Chickahominy",-76.385559,37.095554,"Langley Core, VA - 212.45 m (Chickahominy Fm)",NA,"697.0 ft",1,"Late Eocene","",37.2,33.9,17631,"gp_mid",-59.67,38.81,"109",1,35.55,"priabonian",1
"22278",61279,"col","Chickahominy",-76.385559,37.095554,"Langley Core, VA - 212.08 m (Chickahominy Fm)",NA,"695.8 ft",1,"Late Eocene","",37.2,33.9,17631,"gp_mid",-59.67,38.81,"109",1,35.55,"priabonian",1
"22279",61280,"col","Chickahominy",-76.385559,37.095554,"Langley Core, VA - 211.84-211.88 m (Chickahominy Fm)",NA,"695.0-695.15 ft",1,"Late Eocene","",37.2,33.9,17631,"gp_mid",-59.67,38.81,"109",1,35.55,"priabonian",1
"22280",61281,"col","Chickahominy",-76.385559,37.095554,"Langley Core, VA - 205.56-205.59 m (Chickahominy Fm)",NA,"674.4-674.5 ft",2,"Late Eocene","",37.2,33.9,17631,"gp_mid",-59.67,38.81,"109",1,35.55,"priabonian",1
"24349",65035,"col","",11.374167,45.633888,"Priabona",NA,"",1,"Priabonian","",38,33.9,18727,"gp_mid",16.86,37.2,"307",1,35.95,"priabonian",1
"24542",65404,"col","",6.511667,43.847778,"Castellane",NA,"",1,"Priabonian","",38,33.9,18852,"gp_mid",10.64,37.68,"305",1,35.95,"priabonian",1
"25318",66423,"col","Clinchfield",-83.60611,32.424168,"Indian Creek",NA,"Locality 9",3,"Priabonian","",38,33.9,18983,"gp_mid",-68.1,35.36,"109",1,35.95,"priabonian",1
"26540",68584,"col","",12.166667,47.666668,"Oberaudorf",NA,"",2,"Priabonian","",38,33.9,19773,"gp_mid",18.33,38.95,"307",1,35.95,"priabonian",1
"27742",70632,"col","Wilson Bluff",126.099998,-32.066666,"Wilson Bluff Fm - Cocklebiddy Cave",NA,"",3,"Late Eocene","",37.2,33.9,9081,"gp_mid",128.98,-52.89,"801",1,35.55,"priabonian",1
"27743",70633,"col","Wilson Bluff",126.099998,-32.066666,"Wilson Bluff Fm - Toolinna Cove",NA,"",3,"Late Eocene","",37.2,33.9,9081,"gp_mid",128.98,-52.89,"801",1,35.55,"priabonian",1
"27746",70636,"col","Wilson Bluff",126.099998,-32.066666,"Wilson Bluff or Toolinna Limestone - Toolinna Cove",NA,"",1,"Late Eocene","",37.2,33.9,9081,"gp_mid",128.98,-52.89,"801",1,35.55,"priabonian",1
"27747",70637,"col","Toolinna Limestone",126.099998,-32.066666,"Toolinna Limestone - Toolinna Cove",NA,"",7,"Late Eocene","",37.2,33.9,9081,"gp_mid",128.98,-52.89,"801",1,35.55,"priabonian",1
"27748",70638,"col","Toolinna Limestone",126.099998,-32.066666,"Toolinna Limestone - Booanya Well",NA,"",2,"Late Eocene","",37.2,33.9,9081,"gp_mid",128.98,-52.89,"801",1,35.55,"priabonian",1
"27749",70639,"col","Toolinna Limestone",124.01667,-33.116669,"Toolinna Limestone - Wylie Scarp",NA,"",6,"Late Eocene","",37.2,33.9,9081,"gp_mid",126.32,-54.19,"801",1,35.55,"priabonian",1
"27983",70918,"col","Okinoshima",132.550003,32.716667,"Okinoshima Fm (lowest part) - Okinoshima",NA,"",3,"Late Eocene","",37.2,33.9,23772,"gp_mid",129.12,36.95,"610",1,35.55,"priabonian",1
"27984",70919,"col","Okinoshima",132.550003,32.716667,"Okinoshima Fm (lower part) - Okinoshima",NA,"",7,"Late Eocene","",37.2,33.9,23772,"gp_mid",129.12,36.95,"610",1,35.55,"priabonian",1
"27985",70920,"col","Okinoshima",132.550003,32.716667,"Okinoshima Fm (upper part) - Okinoshima",NA,"",16,"Late Eocene","",37.2,33.9,23772,"gp_mid",129.12,36.95,"610",1,35.55,"priabonian",1
"27988",70922,"col","Kirimiya",130.04306,32.84111,"Kirimiya Fm (glauconite-bearing sst) - Isahaya",NA,"",12,"Late Eocene","",37.2,33.9,23772,"gp_mid",126.51,36.65,"610",1,35.55,"priabonian",1
"27989",70923,"col","Kirimiya",130.04306,32.84111,"Saburaishi Mbr, Kirimiya Fm - Isahaya",NA,"",5,"Late Eocene","",37.2,33.9,23772,"gp_mid",126.51,36.65,"610",1,35.55,"priabonian",1
"27990",70924,"col","Itchoda",130.166672,32.416668,"Itchoda Fm - Amakusa",NA,"",9,"Late Eocene","",37.2,33.9,23772,"gp_mid",126.74,36.26,"610",1,35.55,"priabonian",1
"27991",70925,"col","Sakasegawa",130.166672,32.416668,"Sakasegawa Fm - Amakusa",NA,"",7,"Late Eocene","",37.2,33.9,23772,"gp_mid",126.74,36.26,"610",1,35.55,"priabonian",1
"27992",70926,"col","Kawamagari",130.166672,32.416668,"Kawamagari Fm - Asakusa",NA,"",10,"Late Eocene","",37.2,33.9,23772,"gp_mid",126.74,36.26,"610",1,35.55,"priabonian",1
"28585",71975,"col","Jacksonian",-83.425003,32.424999,"Penn-Dixie Portland Cement quarry",NA,"",4,"Late Eocene","",37.2,33.9,24336,"gp_mid",-67.91,35.34,"109",1,35.55,"priabonian",1
"29081",73434,"col","Jacksonian",-83.5,32.741669,"Huber Kaolin Quarry",NA,"",25,"Late Eocene","",37.2,33.9,24336,"gp_mid",-67.92,35.66,"109",1,35.55,"priabonian",1
"29179",73586,"col","",-83.25,30.233334,"Quarry west of Dowling Park, Lafayette",NA,"",6,"Late Eocene","",37.2,33.9,24674,"gp_mid",-68.22,33.15,"109",1,35.55,"priabonian",1
"30541",76602,"col","Yaw",94.23333,21.666668,"Kyaukkwet Chaung (Yaw stage)",NA,"",5,"Late Eocene","",37.2,33.9,25899,"gp_mid",98.49,10.17,"617",1,35.55,"priabonian",1
"30542",76603,"col","Yaw",94.300003,21.283333,"Thetkegyin (Yaw stage)",NA,"",3,"Late Eocene","",37.2,33.9,25899,"gp_mid",98.77,9.89,"617",1,35.55,"priabonian",1
"30663",77068,"col","Mandrikovka",34.983334,48.450001,"Dnipropetrovsk, Mandrikovka Formation",NA,"Reef 3924",20,"Priabonian","",38,33.9,29186,"gp_mid",36.36,41.88,"302",1,35.95,"priabonian",1
"30763",77227,"col","Kharkov",42.200832,47.717499,"Tsimlyanskaya",NA,"Tsimlyanskaya Station",1,"Priabonian","",38,33.9,26143,"gp_mid",42.83,41.28,"302",1,35.95,"priabonian",1
"31348",78433,"col","Okinoshima",129.883331,32.75,"Nagasaki 2 [Okinoshima Formation]",NA,"",1,"Late Eocene","",37.2,33.9,26376,"gp_mid",126.37,36.54,"610",1,35.55,"priabonian",1
"31464",78563,"col","",111.48333,0.083333,"Melawi Group",NA,"",7,"Late Eocene","",37.2,33.9,26409,"gp_mid",120.78,1.73,"620",1,35.55,"priabonian",1
"31465",78564,"col","Silantek",111.98333,0.883333,"Silantek Formation",NA,"",3,"Late Eocene","",37.2,33.9,26409,"gp_mid",120.97,2.66,"620",1,35.55,"priabonian",1
"31466",78565,"col","",11.374167,45.633888,"Priabona",NA,"",174,"Priabonian","",38,33.9,26411,"gp_mid",16.86,37.2,"307",1,35.95,"priabonian",1
"31490",78617,"col","Marna di Possagno",13.374444,46.156387,"Marna di Possagno Formation",NA,"",105,"Priabonian","",38,33.9,26438,"gp_mid",18.73,37.26,"307",1,35.95,"priabonian",1
"31908",79433,"col","Middle Headon Beds",-1.566667,50.816666,"Brockenhurst",NA,"",3,"Priabonian","",38,33.9,26581,"gp_mid",4,45,"315",1,35.95,"priabonian",1
"32459",81043,"col","Marna di Priabona",11.75,45.5,"Marne a Briozoi, Valle dell'Onte [Marna di Priabona Fm] - Coleoidea",NA,"",28,"Priabonian","",38,33.9,27270,"gp_mid",17.12,36.99,"307",1,35.95,"priabonian",1
"32549",81225,"col","Okinoshima",129.550003,32.866669,"Loc. 133 [Okinoshima Fm]",NA,"",1,"Late Eocene","",37.2,33.9,27378,"gp_mid",126,36.6,"610",1,35.55,"priabonian",1
"32550",81226,"col","Okinoshima",129.550003,32.866669,"Loc. 134 [Okinoshima Fm]",NA,"",3,"Late Eocene","",37.2,33.9,27378,"gp_mid",126,36.6,"610",1,35.55,"priabonian",1
"32552",81228,"col","Okinoshima",129.550003,32.866669,"Loc. 137 [Okinoshima Fm]",NA,"",2,"Late Eocene","",37.2,33.9,27378,"gp_mid",126,36.6,"610",1,35.55,"priabonian",1
"32555",81231,"col","Okinoshima",129.550003,32.866669,"Loc. 140 [Okinoshima Fm]",NA,"",2,"Late Eocene","",37.2,33.9,27378,"gp_mid",126,36.6,"610",1,35.55,"priabonian",1
"32556",81232,"col","Okinoshima",129.550003,32.866669,"Loc. 141 [Okinoshima Fm]",NA,"",9,"Late Eocene","",37.2,33.9,27378,"gp_mid",126,36.6,"610",1,35.55,"priabonian",1
"32557",81233,"col","Okinoshima",129.550003,32.866669,"Loc. 132 [Okinoshima Fm]",NA,"",2,"Late Eocene","",37.2,33.9,27378,"gp_mid",126,36.6,"610",1,35.55,"priabonian",1
"32558",81234,"col","Okinoshima",129.550003,32.866669,"Loc. 143 [Okinoshima Fm]",NA,"",1,"Late Eocene","",37.2,33.9,27378,"gp_mid",126,36.6,"610",1,35.55,"priabonian",1
"32560",81236,"col","Okinoshima",129.766663,32.700001,"Loc. 148 [Okinoshima Fm]",NA,"",3,"Late Eocene","",37.2,33.9,27378,"gp_mid",126.26,36.47,"610",1,35.55,"priabonian",1
"34514",84267,"col","Crystal River",-82.702225,29.839167,"Santa Fe River Locality 1",NA,"",1,"Priabonian","",38,33.9,13400,"gp_mid",-67.75,32.68,"109",1,35.95,"priabonian",1
"34546",84324,"col","",-1.083333,43.616669,"David",NA,"",1,"Priabonian","",38,33.9,28259,"gp_mid",3.7,37.8,"305",1,35.95,"priabonian",1
"34739",84655,"col","",11.418889,45.373611,"Colli Berici",NA,"Coralanzone",1,"Late Eocene","",37.2,33.9,28392,"gp_mid",16.79,36.94,"307",1,35.55,"priabonian",1
"35353",85732,"col","Ixtaclum Shale",-92.716667,17.049999,"Simojovel road section B-8199",NA,"",11,"Late Eocene","",37.2,33.9,8422,"gp_mid",-80.29,21.57,"205",1,35.55,"priabonian",1
"35354",85734,"col","Ixtaclum Shale",-92.76667,17.016666,"Simojovel road section B-8120",NA,"",3,"Late Eocene","",37.2,33.9,8422,"gp_mid",-80.35,21.54,"205",1,35.55,"priabonian",1
"35865",86616,"col","Brockenhurst Beds",-1.571944,50.817223,"Brockenhurst",NA,"",21,"Priabonian","",38,33.9,15072,"gp_mid",3.99,45,"315",1,35.95,"priabonian",1
"35891",86682,"col","Kievskaya",33.416668,48,"Staro-Dobrovol'skiy Rudnik",NA,"",3,"Late Eocene","",37.2,33.9,29186,"gp_mid",34.98,41.42,"302",1,35.55,"priabonian",1
"35915",86750,"col","Kievskaya",34.049999,47.666668,"Ordzhonikidze",NA,"",2,"Late Eocene","",37.2,33.9,29186,"gp_mid",35.55,41.09,"302",1,35.55,"priabonian",1
"35941",86778,"col","Kievskaya",36.033333,48.200001,"Vasil'kovka",NA,"",2,"Late Eocene","",37.2,33.9,29186,"gp_mid",37.31,41.65,"302",1,35.55,"priabonian",1
"36436",87473,"col","Promina",16.15,43.849998,"Drnis area",NA,"",12,"Late Eocene","",37.2,33.9,29455,"gp_mid",20.18,34.47,"307",1,35.55,"priabonian",1
"37055",88288,"col","",-22.049999,70.150002,"Cyrena bed a, Kap Brewster",NA,"",4,"Late Eocene","",37.2,33.9,29643,"gp_mid",2.1,63.21,"102",1,35.55,"priabonian",1
"37056",88289,"col","",-22.049999,70.150002,"Cyrena bed b, Kap Brewster",NA,"",7,"Late Eocene","",37.2,33.9,29643,"gp_mid",2.1,63.21,"102",1,35.55,"priabonian",1
"37057",88290,"col","",-22.049999,70.150002,"Cyrena bed c, Kap Brewster",NA,"",1,"Late Eocene","",37.2,33.9,29643,"gp_mid",2.1,63.21,"102",1,35.55,"priabonian",1
"37058",88291,"col","",-22.049999,70.150002,"Cyrena bed d, Kap Brewster",NA,"",4,"Late Eocene","",37.2,33.9,29643,"gp_mid",2.1,63.21,"102",1,35.55,"priabonian",1
"37059",88292,"col","",-22.049999,70.150002,"Cyrena bed e, Kap Brewster",NA,"",4,"Late Eocene","",37.2,33.9,29643,"gp_mid",2.1,63.21,"102",1,35.55,"priabonian",1
"37612",89007,"col","",171.21666,-42.383331,"S44/736, GS 4872 Port Elizabeth Beach",NA,"",5,"Kaiatan","",37.2,36,29819,"gp_mid",-169.87,-49.85,"806",1,36.6,"priabonian",1
"37634",89038,"col","Kaiata Siltstone",171.25,-42.383331,"S44 Dunollie",NA,"",1,"Kaiatan","",37.2,36,29819,"gp_mid",-169.84,-49.84,"806",1,36.6,"priabonian",1
"37687",89134,"col","",171.350006,-42.033333,"GS 28, S37 Fox River",NA,"",1,"Kaiatan","",37.2,36,29819,"gp_mid",-170.01,-49.5,"806",1,36.6,"priabonian",1
"37755",89238,"col","Ocala Limestone",-83.253609,30.254168,"Mill Creek Quarry [Ocala Limestone]",NA,"Loc. UF ZL004",1,"Late Eocene","",37.2,33.9,29921,"gp_mid",-68.22,33.17,"109",1,35.55,"priabonian",1
"37756",89239,"col","Ocala Limestone",-83.253609,30.254168,"Suwannee American Cement Quarry [Ocala Limestone]",NA,"Loc. UF SU014",1,"Late Eocene","",37.2,33.9,29921,"gp_mid",-68.22,33.17,"109",1,35.55,"priabonian",1
"38255",90479,"col","McBean",-81.933334,33.25,"McBean Creek",NA,"Locality 1",18,"Late Eocene","",37.2,33.9,30439,"gp_mid",-66.21,35.91,"109",1,35.55,"priabonian",1
"38256",90480,"col","McBean",-81.816666,33.233334,"Shell Bluff",NA,"Locality 2",12,"Late Eocene","",37.2,33.9,30439,"gp_mid",-66.1,35.88,"109",1,35.55,"priabonian",1
"38598",91104,"col","Ocala Limestone",-83.637222,32.413612,"PRI 1167",NA,"",5,"Priabonian","",38,33.9,11845,"gp_mid",-68.13,35.36,"109",1,35.95,"priabonian",1
"38599",91105,"col","Ocala Limestone",-83.637222,32.413612,"PRI 1168",NA,"",5,"Priabonian","",38,33.9,11845,"gp_mid",-68.13,35.36,"109",1,35.95,"priabonian",1
"38608",91113,"col","Barnwell",-81.897781,33.148056,"PRI 2215",NA,"",2,"Late Eocene","",37.2,33.9,11845,"gp_mid",-66.2,35.81,"109",1,35.55,"priabonian",1
"38635",91140,"col","Ocala Limestone",-82.567497,29.680279,"Dickerson Limerock mines, Haile complex, Alachua County",NA,"",1,"Late Eocene","",37.2,33.9,30435,"gp_mid",-67.64,32.5,"109",1,35.55,"priabonian",1
"39179",91875,"col","Ocala Limestone",-82.409164,29.605,"M 38",NA,"",2,"Priabonian","",38,33.9,11845,"gp_mid",-67.5,32.4,"109",1,35.95,"priabonian",1
"39338",92044,"col","Inglis Limestone",-82.64389,29.445,"M 319 - Bronson [Inglis Limestone]",NA,"",2,"Priabonian","",38,33.9,11845,"gp_mid",-67.77,32.28,"109",1,35.95,"priabonian",1
"39496",92257,"col","Ocala Limestone",-82.167778,29.253611,"M 52",NA,"",5,"Priabonian","",38,33.9,11845,"gp_mid",-67.33,32.02,"109",1,35.95,"priabonian",1
"39497",92258,"col","Ocala Limestone",-83.6325,32.840832,"M 56",NA,"",1,"Priabonian","",38,33.9,11845,"gp_mid",-68.03,35.78,"109",1,35.95,"priabonian",1
"39498",92259,"col","Ocala Limestone",-82.015556,33.09,"M 57",NA,"",1,"Priabonian","",38,33.9,11845,"gp_mid",-66.33,35.77,"109",1,35.95,"priabonian",1
"39499",92260,"col","Ocala Limestone",-82.015556,33.09,"M 58",NA,"",1,"Priabonian","",38,33.9,11845,"gp_mid",-66.33,35.77,"109",1,35.95,"priabonian",1
"39501",92263,"col","Ocala Limestone",-82.41111,30.001667,"M 62",NA,"",1,"Priabonian","",38,33.9,11845,"gp_mid",-67.42,32.79,"109",1,35.95,"priabonian",1
"39504",92266,"col","Ocala Limestone",-83.498611,32.800556,"M 65",NA,"",1,"Priabonian","",38,33.9,11845,"gp_mid",-67.9,35.72,"109",1,35.95,"priabonian",1
"39584",92391,"col","Inglis Limestone",-82.71167,29.237778,"PRI 3201 - Gulf Hammock [Inglis Limestone]",NA,"",38,"Priabonian","",38,33.9,11845,"gp_mid",-67.88,32.09,"109",1,35.95,"priabonian",1
"39606",92432,"col","Barnwell Sand",-81.719444,33.560555,"Sta. 4593 - Deearadeaux [Barnwell Sand]",NA,"",33,"Late Eocene","",37.2,33.9,31145,"gp_mid",-65.92,36.18,"109",1,35.55,"priabonian",1
"39608",92434,"col","Santee Limestone",-80.766388,33.683613,"Sta. 7990 - Belle Broughton Plantation [Santee Limestone]",NA,"Loc. 148",7,"Late Eocene","",37.2,33.9,31145,"gp_mid",-64.93,36.16,"109",1,35.55,"priabonian",1
"39719",92603,"col","Ocala Limestone",-82.573334,29.690556,"TU 449 - Haile [Ocala Limestone]",NA,"",1,"Late Eocene","",37.2,33.9,31182,"gp_mid",-67.65,32.51,"109",1,35.55,"priabonian",1
"39816",92770,"col","",-75.116386,39,"Brandywine Lighthouse well, 825 ft",NA,"",6,"Late Eocene","",37.2,33.9,31286,"gp_mid",-57.9,40.47,"109",1,35.55,"priabonian",1
"39824",92785,"col","Crystal River Limestone",-82.190277,29.293888,"Martin Station [Crystal River Limestone]",NA,"",8,"Late Eocene","",37.2,33.9,31304,"gp_mid",-67.34,32.06,"109",1,35.55,"priabonian",1
"43612",98629,"col","Barnwell",-81.897781,33.148056,"M 886",NA,"",2,"Late Eocene","",37.2,33.9,11845,"gp_mid",-66.2,35.81,"109",1,35.55,"priabonian",1
"43631",98650,"col","Ocala Limestone",-84.15583,31.578611,"PRI 1178",NA,"",2,"Priabonian","",38,33.9,11845,"gp_mid",-68.85,34.62,"109",1,35.95,"priabonian",1
"43632",98651,"col","Ocala Limestone",-84.15583,31.578611,"M 461",NA,"",2,"Priabonian","",38,33.9,11845,"gp_mid",-68.85,34.62,"109",1,35.95,"priabonian",1
"43634",98653,"col","Ocala Limestone",-83.731667,32.458332,"PRI 1182",NA,"",12,"Priabonian","",38,33.9,11845,"gp_mid",-68.22,35.42,"109",1,35.95,"priabonian",1
"43635",98654,"col","Ocala Limestone",-83.637222,32.413612,"PRI 1183",NA,"",4,"Priabonian","",38,33.9,11845,"gp_mid",-68.13,35.36,"109",1,35.95,"priabonian",1
"43637",98656,"col","Barnwell",-82.41111,33,"M 888",NA,"",1,"Late Eocene","",37.2,33.9,11845,"gp_mid",-66.75,35.74,"109",1,35.55,"priabonian",1
"43638",98657,"col","Barnwell",-82.41111,33,"M 889",NA,"",1,"Late Eocene","",37.2,33.9,11845,"gp_mid",-66.75,35.74,"109",1,35.55,"priabonian",1
"43639",98658,"col","Barnwell",-82.096664,33.314167,"M 705",NA,"",1,"Late Eocene","",37.2,33.9,11845,"gp_mid",-66.36,36,"109",1,35.55,"priabonian",1
"44135",99191,"col","Ocala limestone",-82.51889,29.530001,"PRI 25",NA,"",1,"Priabonian","",38,33.9,11845,"gp_mid",-67.63,32.35,"109",1,35.95,"priabonian",1
"44136",99192,"col","Ocala limestone",-82.606392,29.646389,"PRI 903",NA,"",1,"Priabonian","",38,33.9,11845,"gp_mid",-67.69,32.48,"109",1,35.95,"priabonian",1
"44137",99193,"col","Crystal River",-82.606392,29.646389,"M 882",NA,"",1,"Priabonian","",38,33.9,11845,"gp_mid",-67.69,32.48,"109",1,35.95,"priabonian",1
"44139",99195,"col","Crystal River",-82.817497,29.613333,"M 883",NA,"",1,"Priabonian","",38,33.9,11845,"gp_mid",-67.91,32.48,"109",1,35.95,"priabonian",1
"44149",99205,"col","Crystal River",-82.446671,29.387501,"M 884",NA,"",1,"Priabonian","",38,33.9,11845,"gp_mid",-67.58,32.2,"109",1,35.95,"priabonian",1
"44150",99206,"col","Crystal River",-82.446671,29.387501,"M 885",NA,"",1,"Priabonian","",38,33.9,11845,"gp_mid",-67.58,32.2,"109",1,35.95,"priabonian",1
"44173",99252,"col","Crystal River",-82.167778,29.253611,"PRI 3620",NA,"",6,"Priabonian","",38,33.9,11845,"gp_mid",-67.33,32.02,"109",1,35.95,"priabonian",1
"46097",102229,"col","",27.766666,42.950001,"Rudnik",NA,"",9,"Priabonian","",38,33.9,34737,"gp_mid",29.58,31.35,"308",1,35.95,"priabonian",1
"46098",102230,"col","",27.083332,42.866669,"Lyulyakovo",NA,"",66,"Priabonian","",38,33.9,34737,"gp_mid",28.99,31.39,"308",1,35.95,"priabonian",1
"46114",102293,"col","",27.633333,42.650002,"Chimovo",NA,"",3,"Priabonian","",38,33.9,34737,"gp_mid",29.38,31.08,"308",1,35.95,"priabonian",1
"46157",102341,"col","",24.433332,43.400002,"Dolni Dubnik",NA,"",2,"Priabonian","",38,33.9,34737,"gp_mid",26.94,32.39,"308",1,35.95,"priabonian",1
"46159",102343,"col","",24.816668,42.233334,"Kalekovets",NA,"",2,"Priabonian","",38,33.9,34737,"gp_mid",26.91,31.19,"308",1,35.95,"priabonian",1
"46168",102355,"col","",27.716667,42.983334,"Dolni Chiflik",NA,"",1,"Priabonian","",38,33.9,34737,"gp_mid",29.55,31.39,"308",1,35.95,"priabonian",1
"46176",102363,"col","",26.4,42.683334,"Sotirya",NA,"",6,"Priabonian","",38,33.9,34737,"gp_mid",28.36,31.33,"308",1,35.95,"priabonian",1
"47083",103735,"col","",26.116667,42.733334,"Sar'yar",NA,"",2,"Priabonian","",38,33.9,34737,"gp_mid",28.14,31.43,"308",1,35.95,"priabonian",1
"47086",103738,"col","",26.15,42.75,"Novachevo",NA,"",2,"Priabonian","",38,33.9,34737,"gp_mid",28.18,31.44,"308",1,35.95,"priabonian",1
"47089",103741,"col","",25.5,43.099998,"Momin Sbor",NA,"",1,"Priabonian","",38,33.9,34737,"gp_mid",27.74,31.9,"308",1,35.95,"priabonian",1
"47090",103742,"col","",27.483334,42.599998,"Mina Cherno More",NA,"",14,"Priabonian","",38,33.9,34737,"gp_mid",29.24,31.06,"308",1,35.95,"priabonian",1
"47103",103757,"col","",27.1,42.883331,"Rupcha",NA,"",2,"Priabonian","",38,33.9,34737,"gp_mid",29.01,31.4,"308",1,35.95,"priabonian",1
"47105",103759,"col","",27.733334,43.283333,"Kalimantsi",NA,"",1,"Priabonian","",38,33.9,34737,"gp_mid",29.65,31.68,"308",1,35.95,"priabonian",1
"47106",103760,"col","",27.200001,42.883331,"Duskotna",NA,"",18,"Priabonian","",38,33.9,34737,"gp_mid",29.09,31.38,"308",1,35.95,"priabonian",1
"47107",103761,"col","",27.616667,43.016666,"Goren Chiflik",NA,"",1,"Priabonian","",38,33.9,34737,"gp_mid",29.47,31.44,"308",1,35.95,"priabonian",1
"47109",103763,"col","",25.133333,42.283333,"Tyurkmen",NA,"",2,"Priabonian","",38,33.9,34737,"gp_mid",27.19,31.18,"308",1,35.95,"priabonian",1
"47110",103764,"col","",25.616667,43.066666,"Altunovski Quarry, Turnovo",NA,"",4,"Priabonian","",38,33.9,34737,"gp_mid",27.82,31.85,"308",1,35.95,"priabonian",1
"47111",103765,"col","",25.416668,43.083332,"Balvan",NA,"",4,"Priabonian","",38,33.9,34737,"gp_mid",27.66,31.9,"308",1,35.95,"priabonian",1
"47114",103768,"col","",26.183332,42.733334,"Byala",NA,"",6,"Priabonian","",38,33.9,34737,"gp_mid",28.2,31.42,"308",1,35.95,"priabonian",1
"47164",103864,"col","",27.4,43.116669,"Komarevo",NA,"",4,"Priabonian","",38,33.9,34737,"gp_mid",29.32,31.57,"308",1,35.95,"priabonian",1
"47167",103867,"col","",25,42.216667,"Shishmantsi",NA,"",2,"Priabonian","",38,33.9,34737,"gp_mid",27.06,31.14,"308",1,35.95,"priabonian",1
"47187",103887,"col","",27.483334,42.616669,"Khodzhamar",NA,"",1,"Priabonian","",38,33.9,34737,"gp_mid",29.25,31.07,"308",1,35.95,"priabonian",1
"47210",103931,"col","",27.15,42.883331,"Planinitsa",NA,"",1,"Priabonian","",38,33.9,34737,"gp_mid",29.05,31.39,"308",1,35.95,"priabonian",1
"47211",103932,"col","",26.083332,42.733334,"Borov Dol",NA,"",2,"Priabonian","",38,33.9,34737,"gp_mid",28.12,31.44,"308",1,35.95,"priabonian",1
"47212",103933,"col","",27.666668,42.950001,"Krivini",NA,"",0,"Priabonian","",38,33.9,34737,"gp_mid",29.5,31.36,"308",1,35.95,"priabonian",1
"47216",103937,"col","",24.483334,43.700001,"Gigen",NA,"",1,"Priabonian","",38,33.9,34737,"gp_mid",27.07,32.67,"308",1,35.95,"priabonian",1
"47217",103938,"col","",25.333332,42.200001,"Chirpan",NA,"",2,"Priabonian","",38,33.9,34737,"gp_mid",27.33,31.06,"308",1,35.95,"priabonian",1
"47221",103942,"col","",27.716667,43.25,"Slunchevo",NA,"",1,"Priabonian","",38,33.9,34737,"gp_mid",29.62,31.65,"308",1,35.95,"priabonian",1
"47242",103963,"col","",26.233334,42.75,"Vuglen",NA,"",1,"Priabonian","",38,33.9,34737,"gp_mid",28.24,31.43,"308",1,35.95,"priabonian",1
"47243",103964,"col","",26.416668,42.616669,"Khadzhi Dimitur",NA,"",1,"Priabonian","",38,33.9,34737,"gp_mid",28.36,31.27,"308",1,35.95,"priabonian",1
"49761",108261,"col","Chegan",56.799999,46.599998,"North Precipice, Ustjurt Plateau",NA,"",1,"Priabonian","",38,33.9,35921,"gp_mid",56.04,40.7,"402",1,35.95,"priabonian",1
"49762",108262,"col","Chegan",60.5,46.950001,"North coast of the Aral Sea",NA,"",1,"Priabonian","",38,33.9,35921,"gp_mid",59.35,41.24,"402",1,35.95,"priabonian",1
"53762",113118,"col","Adaev",52.808334,44.111389,"Monata",NA,"",13,"Priabonian","",38,33.9,36745,"gp_mid",52.63,38.03,"402",1,35.95,"priabonian",1
"54237",113829,"col","Bembridge Marls",-1.345,50.75,"North end of Thorness Bay, Bembridge Marls (BMNH collection)",NA,"",19,"Priabonian","",38,33.9,51852,"gp_mid",4.19,44.93,"315",1,35.95,"priabonian",1
"61077",123876,"col","Kharkov",42.237221,47.716389,"Khoroshevskii Cossack Village",NA,"Khoroshevskaya",1,"Priabonian","",38,33.9,41149,"gp_mid",42.86,41.28,"302",1,35.95,"priabonian",1
"61115",123959,"col","Bouldnor",-1.36,50.737999,"Bembridge Marls (Brodie coll)",NA,"",268,"Priabonian","",38,33.9,37729,"gp_mid",4.17,44.91,"315",1,35.95,"priabonian",1
"61116",157666,"col","Bouldnor",-1.36,50.737999,"Thorness Bay, Bembridge Marls (MNEMG coll)",NA,"",16,"Priabonian","",38,33.9,51854,"gp_mid",4.17,44.91,"315",1,35.95,"priabonian",1
"61117",123960,"col","Bouldnor",-1.36,50.737999,"Bembridge Marls (Hooley coll)",NA,"",213,"Priabonian","",38,33.9,39932,"gp_mid",4.17,44.91,"315",1,35.95,"priabonian",1
"61118",123961,"col","Bouldnor",-1.36,50.737999,"Bembridge Marls (Jarzembowski coll)",NA,"",3,"Priabonian","",38,33.9,5087,"gp_mid",4.17,44.91,"315",1,35.95,"priabonian",1
"61393",124431,"col","",12.934722,47.696667,"Halthurm",NA,"",5,"Late Eocene","",37.2,33.9,40158,"gp_mid",18.98,38.81,"307",1,35.55,"priabonian",1
"63045",127165,"col","",11.533333,45.533333,"Fontanella of Grancona",NA,"",1,"Late Eocene","",37.2,33.9,41330,"gp_mid",16.95,37.07,"307",1,35.55,"priabonian",1
"63175",127464,"col","",-0.38,42.31472,"Huesca, near",NA,"",1,"Priabonian","",38,33.9,41514,"gp_mid",4.59,37.01,"304",1,35.95,"priabonian",1
"63299",127743,"col","Bembridge Marls",-1.36,50.737999,"Thorness Bay, Bembridge Marls, Isle of Wight (IWCMS coll)",NA,"",14,"Priabonian","",38,33.9,9429,"gp_mid",4.17,44.91,"315",1,35.95,"priabonian",1
"63740",128437,"col","Padrag Marl",17.440001,47.099998,"Devecser 4 borehole",NA,"",2,"Priabonian","",38,33.9,41949,"gp_mid",22.43,37.31,"308",1,35.95,"priabonian",1
"63741",128440,"col","Padrag Marl",18,47.316666,"Cset√©ny 61 borehole, 272 m",NA,"",1,"Priabonian","",38,33.9,41949,"gp_mid",22.97,37.4,"308",1,35.95,"priabonian",1
"64380",129546,"col","Bouldnor",-1.348,50.742001,"Bembridge marls, east end of Thorness Bay",NA,"",1,"Priabonian","",38,33.9,5011,"gp_mid",4.18,44.92,"315",1,35.95,"priabonian",1
"66555",132552,"col","Tobacco Road",-82.816666,32.950001,"Tennile Lime Sinks",NA,"",1,"Priabonian","",38,33.9,42488,"gp_mid",-67.18,35.76,"109",1,35.95,"priabonian",1
"66597",132611,"col","Crystal River",-83.138054,29.319721,"Cedar Key, north",NA,"",1,"Priabonian","",38,33.9,42488,"gp_mid",-68.3,32.24,"109",1,35.95,"priabonian",1
"66649",132702,"col","Crystal River",-83.248055,30.205278,"D. H. Bell Site",NA,"",1,"Priabonian","",38,33.9,42488,"gp_mid",-68.22,33.13,"109",1,35.95,"priabonian",1
"66650",132703,"col","Crystal River",-85.22361,30.788055,"Marianna, north",NA,"",0,"Priabonian","",38,33.9,42488,"gp_mid",-70.11,34,"109",1,35.95,"priabonian",1
"66738",132817,"col","Crystal River",-83.395279,29.665001,"Steinhatchee",NA,"Steinhatchee 1",1,"Priabonian","",38,33.9,42488,"gp_mid",-68.49,32.62,"109",1,35.95,"priabonian",1
"66838",133024,"col","Twiggs",-83.324722,32.863056,"Gordon",NA,"",1,"Priabonian","",38,33.9,42488,"gp_mid",-67.71,35.75,"109",1,35.95,"priabonian",1
"70260",138115,"col","Calcareniti di Castelgomberto",11.583333,45.450001,"Lumignano, Vicenza, Calcareniti di Castelgomberto",NA,"",10,"Priabonian","",38,33.9,44169,"gp_mid",16.96,36.98,"307",1,35.95,"priabonian",1
"70689",138667,"col","Ocala",-84.15583,31.578611,"Albany",NA,"",1,"Priabonian","",38,33.9,44423,"gp_mid",-68.85,34.62,"109",1,35.95,"priabonian",1
"71728",140087,"col","",-82.81028,32.981667,"Sandersville",NA,"",2,"Priabonian","",38,33.9,45232,"gp_mid",-67.16,35.79,"109",1,35.95,"priabonian",1
"72882",141892,"col","",-60.627499,43.849167,"CP1  P-51 well (475-480m)",NA,"",3,"Late Eocene","",37.2,33.9,46092,"gp_mid",-42.31,42.87,"108",1,35.55,"priabonian",1
"73538",142966,"col","Jackson",-80.627777,33.595833,"Belle Broughton plantation, 1/2 mi SE of Creston, on branch of Halfway Swamp",NA,"",1,"Late Eocene","",37.2,33.9,45555,"gp_mid",-64.81,36.05,"109",1,35.55,"priabonian",1
"73540",142971,"col","",-82.301666,29.658056,"Alachua County",NA,"",1,"Late Eocene","",37.2,33.9,45555,"gp_mid",-67.38,32.44,"109",1,35.55,"priabonian",1
"73541",142972,"col","",-82.821114,29.317778,"Levy County",NA,"",1,"Late Eocene","",37.2,33.9,45555,"gp_mid",-67.98,32.19,"109",1,35.55,"priabonian",1
"73542",142973,"col","",-82.127777,29.278889,"Marion County",NA,"",1,"Late Eocene","",37.2,33.9,45555,"gp_mid",-67.28,32.04,"109",1,35.55,"priabonian",1
"76007",147179,"col","",13.15,48.116669,"Molasse Zone",NA,"",7,"Priabonian","",38,33.9,47498,"gp_mid",16.89,41.72,"305",1,35.95,"priabonian",1
"76447",147703,"col","",11.533333,45.416668,"Mossano village, Coralline crust wackestone facies",NA,"",14,"Priabonian","",38,33.9,47541,"gp_mid",16.91,36.95,"307",1,35.95,"priabonian",1
"76448",147704,"col","",11.533333,45.416668,"Mossano village, small Nummulites and rhodolith packstone facies",NA,"",15,"Priabonian","",38,33.9,47541,"gp_mid",16.91,36.95,"307",1,35.95,"priabonian",1
"76539",147798,"col","",11.533333,45.416668,"Mossano village, Orthophragminid rudstone facies",NA,"",14,"Priabonian","",38,33.9,47541,"gp_mid",16.91,36.95,"307",1,35.95,"priabonian",1
"76540",147799,"col","",11.533333,45.416668,"Mossano village, Orthophragminid packstone facies",NA,"",12,"Priabonian","",38,33.9,47541,"gp_mid",16.91,36.95,"307",1,35.95,"priabonian",1
"76541",147800,"col","",11.533333,45.416668,"Mossano village, Crustose coralline algal pavement facies facies",NA,"",16,"Priabonian","",38,33.9,47541,"gp_mid",16.91,36.95,"307",1,35.95,"priabonian",1
"77908",149316,"col","Langental Beds",15.4055,-27.396,"Langental, NE of Bogenfels",NA,"",112,"Priabonian","",38,33.9,47897,"gp_mid",11.49,-36.23,"701",1,35.95,"priabonian",1
"79394",151433,"col"," Nago Limestone",11.116667,46.049999,"Trentino, Nago Limestone, coral facies 1",NA,"",28,"Priabonian","",38,33.9,48390,"gp_mid",16.81,37.65,"307",1,35.95,"priabonian",1
"79395",151434,"col"," Nago Limestone",11.116667,46.049999,"Trentino, Nago Limestone, coral facies 2",NA,"",32,"Priabonian","",38,33.9,48390,"gp_mid",16.81,37.65,"307",1,35.95,"priabonian",1
"79882",152423,"col","Wilson Bluff",126.037003,-32.043999,"Murra-el-elevyn Cave (GSWA collection)",NA,"",4,"Priabonian","",38,33.9,49060,"gp_mid",128.88,-52.88,"801",1,35.95,"priabonian",1
"79883",152505,"col","Wilson Bluff",126.037003,-32.043999,"Murra-el-elevyn Cave (WAM collection)",NA,"",2,"Priabonian","",38,33.9,49060,"gp_mid",128.88,-52.88,"801",1,35.95,"priabonian",1
"79892",152465,"col","Toolinna Limestone",123.894997,-33.591,"Israelite Bay",NA,"",3,"Priabonian","",38,33.9,49060,"gp_mid",126.26,-54.67,"801",1,35.95,"priabonian",1
"79896",152468,"col","Toolinna Limestone",125.026001,-32.729,"Toolinna Cove",NA,"",6,"Priabonian","",38,33.9,49060,"gp_mid",127.65,-53.68,"801",1,35.95,"priabonian",1
"79898",152469,"col","Wilson Bluff",126.035004,-32.27,"Twilight Cove",NA,"",3,"Priabonian","",38,33.9,49060,"gp_mid",128.94,-53.1,"801",1,35.95,"priabonian",1
"79899",152470,"col","Wilson Bluff",125.917,-31.966,"Cocklebiddy Cave",NA,"Cockelbiddy Cave",3,"Priabonian","",38,33.9,49060,"gp_mid",128.7,-52.82,"801",1,35.95,"priabonian",1
"79902",152471,"col","Werillup",123.769997,-32.189999,"Kullingobinya Dam, Balladonia",NA,"",1,"Priabonian","",38,33.9,49060,"gp_mid",125.76,-53.3,"801",1,35.95,"priabonian",1
"79904",152474,"col","Toolinna Limestone",123.610001,-32.759998,"Booanya Well, Nanambinia Station",NA,"",4,"Priabonian","",38,33.9,49060,"gp_mid",125.66,-53.88,"801",1,35.95,"priabonian",1
"79906",152475,"col","Wilson Bluff Limestone",125.917,-31.966,"Swallow Cave, Cocklebiddy Station",NA,"",1,"Priabonian","",38,33.9,49060,"gp_mid",128.7,-52.82,"801",1,35.95,"priabonian",1
"79909",152534,"col","Wilson Bluff",125.917,-31.966,"Cocklebiddy Cave, 44.2-70.2 m below top of formation",NA,"Cockelbiddy Cave",1,"Priabonian","",38,33.9,49060,"gp_mid",128.7,-52.82,"801",1,35.95,"priabonian",1
"79912",152538,"col","Toolinna Limestone",125.026001,-32.729,"Toolinna Cove, 30.1-33.6 m above sea level",NA,"",1,"Priabonian","",38,33.9,49060,"gp_mid",127.65,-53.68,"801",1,35.95,"priabonian",1
"79924",152502,"col","Marna Euganea",11.691,45.327999,"Via Siesa, Castelnuovo of Teolo",NA,"",6,"Priabonian","",38,33.9,49093,"gp_mid",17,36.84,"307",1,35.95,"priabonian",1
"79932",152519,"col","Wilson Bluff",123.849998,-33.400002,"Malcolm Scarp, 9-12.3 m below plain",NA,"",2,"Priabonian","",38,33.9,49060,"gp_mid",126.15,-54.49,"801",1,35.95,"priabonian",1
"79933",152520,"col","Wilson Bluff",123.849998,-33.400002,"Malcolm Scarp, 12.3-15.3 m below plain",NA,"",2,"Priabonian","",38,33.9,49060,"gp_mid",126.15,-54.49,"801",1,35.95,"priabonian",1
"79935",152523,"col","Toolinna Limestone",125.026001,-32.729,"Toolinna Cove, 24.6 m above sea level",NA,"",1,"Priabonian","",38,33.9,49060,"gp_mid",127.65,-53.68,"801",1,35.95,"priabonian",1
"79943",152539,"col","Toolinna Limestone",125.026001,-32.729,"Toolinna Cove, 24.4 m above sea level",NA,"",1,"Priabonian","",38,33.9,49060,"gp_mid",127.65,-53.68,"801",1,35.95,"priabonian",1
"79945",152541,"col","Wilson Bluff",125.917,-31.966,"Cocklebiddy Station, Nullarbor Plain",NA,"",1,"Priabonian","",38,33.9,49060,"gp_mid",128.7,-52.82,"801",1,35.95,"priabonian",1
"79973",152582,"col","Arguis",-0.566667,42.366669,"Rasal locality, Ainsa-Jaca Basin, coral boundstone facies",NA,"",37,"Priabonian","",38,33.9,49125,"gp_mid",4.42,37.06,"304",1,35.95,"priabonian",1
"79974",152583,"col","Arguis",-0.566667,42.366669,"Rasal locality, Ainsa-Jaca Basin, skeletal packstone facies",NA,"",11,"Priabonian","",38,33.9,49125,"gp_mid",4.42,37.06,"304",1,35.95,"priabonian",1
"79975",152584,"col","Arguis",-0.566667,42.366669,"Rasal locality, Ainsa-Jaca Basin, coral rudstone facies",NA,"",9,"Priabonian","",38,33.9,49125,"gp_mid",4.42,37.06,"304",1,35.95,"priabonian",1
"79976",152585,"col","Arguis",-0.566667,42.366669,"Rasal locality, Ainsa-Jaca Basin, bryozoan floatstone facies",NA,"",6,"Priabonian","",38,33.9,49125,"gp_mid",4.42,37.06,"304",1,35.95,"priabonian",1
"79977",152586,"col","Arguis",-0.566667,42.366669,"Rasal locality, Ainsa-Jaca Basin, Sandstones facies",NA,"",3,"Priabonian","",38,33.9,49125,"gp_mid",4.42,37.06,"304",1,35.95,"priabonian",1
"81364",155831,"col","Kaiata Mudstone",171.347504,-42.083809,"K30/f8619 - Perpendicular Point [Kaiata Mudstone]",NA,"S37/f0619",2,"Kaiatan","Runangan",37.2,34.3,50994,"gp_mid",-170.39,-49.51,"806",1,35.75,"priabonian",1
"81365",155832,"col","Kaiata Mudstone",171.347504,-42.083809,"K30/f8732 - Perpendicular Point [Kaiata Mudstone]",NA,"S37/f0732",1,"Kaiatan","Runangan",37.2,34.3,50994,"gp_mid",-170.39,-49.51,"806",1,35.75,"priabonian",1
"81366",155833,"col","Kaiata Mudstone",171.347504,-42.083809,"K30/f8864 - Perpendicular Point [Kaiata Mudstone]",NA,"S37/f0864",2,"Kaiatan","Runangan",37.2,34.3,50994,"gp_mid",-170.39,-49.51,"806",1,35.75,"priabonian",1
"81367",155834,"col","Kaiata Mudstone",171.431427,-42.142342,"K30/f8687 - Bullock Creek [Kaiata Mudstone]",NA,"S37/f0687",1,"Kaiatan","",37.2,36,50994,"gp_mid",-169.85,-49.56,"806",1,36.6,"priabonian",1
"81368",155835,"col","Kaiata Mudstone",171.337524,-42.096958,"K30/f8614 - Bullock Creek [Kaiata Mudstone]",NA,"S37/f0614",3,"Kaiatan","",37.2,36,50994,"gp_mid",-169.98,-49.56,"806",1,36.6,"priabonian",1
"81369",155836,"col","Kaiata Mudstone",171.322205,-42.4328,"K31/f8467 - Brunner Mine [Kaiata Mudstone]",NA,"S44/f0467",1,"Kaiatan","",37.2,36,50994,"gp_mid",-169.73,-49.85,"806",1,36.6,"priabonian",1
"81672",156628,"col","Bembridge Marls",-1.36,50.737999,"Thorness Bay, Bembridge Marls, Isle of Wight (BMB coll)",NA,"",16,"Priabonian","",38,33.9,51361,"gp_mid",4.17,44.91,"315",1,35.95,"priabonian",1
"82186",157667,"col","Bouldnor",-1.36,50.737999,"Thorness Bay, Bembridge Marls (Portsmouth coll)",NA,"",1,"Priabonian","",38,33.9,51854,"gp_mid",4.17,44.91,"315",1,35.95,"priabonian",1
"82187",157670,"col","Bembridge Marls",-1.378,50.734001,"Burnt Wood, Bembridge Marls (BMNH collection)",NA,"",1,"Priabonian","",38,33.9,51861,"gp_mid",4.16,44.91,"315",1,35.95,"priabonian",1
"82188",157669,"col","Bouldnor",-1.36,50.737999,"Bembridge Marls (CAMSM collection)",NA,"",9,"Priabonian","",38,33.9,51852,"gp_mid",4.17,44.91,"315",1,35.95,"priabonian",1
"83698",160118,"col","Williston Limestone",-82.480278,29.668333,"Abandoned limerock quarry, FL Highway 26 [Williston Limestone]",NA,"",1,"Priabonian","",38,33.9,52258,"gp_mid",-67.56,32.48,"109",1,35.95,"priabonian",1
"83919",160396,"col","Dry Branch",-81.70417,33.115833,"CM Loc. S-228 - Griffins Landing [Griffins Landing Mbr, Dry Branch Fm]",NA,"",1,"Late Eocene","",37.2,33.9,52308,"gp_mid",-66.01,35.75,"109",1,35.55,"priabonian",1
"83920",160397,"col","Dry Branch",-81.70417,33.115833,"UNCW Loc. Z-622 - Griffins Landing [Griffins Landing Mbr, Dry Branch Fm]",NA,"",15,"Late Eocene","",37.2,33.9,52308,"gp_mid",-66.01,35.75,"109",1,35.55,"priabonian",1
"83921",160398,"col","Dry Branch",-81.70417,33.115833,"McK Loc. 03 - Griffins Landing [Griffins Landing Mbr, Dry Branch Fm]",NA,"",3,"Late Eocene","",37.2,33.9,52308,"gp_mid",-66.01,35.75,"109",1,35.55,"priabonian",1
"83922",160399,"col","Dry Branch",-81.418335,33.5825,"SCGS 2-42 (20 m) - Aiken Co. Road 14 [Griffins Landing Mbr, Dry Branch Fm]",NA,"",3,"Late Eocene","",37.2,33.9,52308,"gp_mid",-65.61,36.16,"109",1,35.55,"priabonian",1
"83923",160400,"col","Dry Branch",-81.427498,33.575558,"SCGS 2-49 (14 m) - Aiken Co. Road 14 [Griffins Landing Mbr, Dry Branch Fm]",NA,"",8,"Late Eocene","",37.2,33.9,52308,"gp_mid",-65.62,36.15,"109",1,35.55,"priabonian",1
"85360",162500,"col","Tongeren",5.686165,50.820728,"ENCI Quarry, Eocene",NA,"Sint-Pietersberg",1,"Priabonian","",38,33.9,52921,"gp_mid",10.44,44.68,"315",1,35.95,"priabonian",1
"89649",171373,"col","Marnes de la C√¥te des Basques",-1.55,43.466667,"Biarritz, C√¥te des Basques (BMNH collection)",NA,"",4,"Priabonian","",38,33.9,55728,"gp_mid",3.56,38.19,"304",1,35.95,"priabonian",1
"89650",171374,"col","",-1.1,43.549999,"Peyrehorade (Arribaouts)",NA,"",1,"Priabonian","",38,33.9,55728,"gp_mid",3.67,37.73,"305",1,35.95,"priabonian",1
"90345",172987,"col","Amravati",74.508331,21.566668,"Valia, Broach District",NA,"",1,"Priabonian","",38,33.9,56246,"gp_mid",74.1,3.73,"501",1,35.95,"priabonian",1
"90868",174732,"col","Ocala",-82.561386,29.700277,"Dickerson Limerock Mines (Haile Complex)",NA,"UF AL004",1,"Priabonian","",38,33.9,57098,"gp_mid",-67.63,32.52,"109",1,35.95,"priabonian",1
"91693",176842,"col","Pahi Greensand",174.300003,-36.200001,"Q08/f268, Pahi turtle",NA,"",1,"Priabonian","",38,33.9,58365,"gp_mid",-171.51,-43.24,"806",1,35.95,"priabonian",1
"92855",179132,"col","",7.716667,46.666668,"South of Lake Thun",NA,"",2,"Late Eocene","",37.2,33.9,59283,"gp_mid",11.93,40.45,"305",1,35.55,"priabonian",1
"93158",179751,"col","Silberberg",11.816667,51.808334,"Latdorf Beds. Brown charring pit, Latdorf, 5 km eastnortheast from Bernburg",NA,"Lattorf",32,"Priabonian","",38,33.9,59612,"gp_mid",15.94,45.45,"315",1,35.95,"priabonian",1
"93170",179763,"col","Mandrikovka",34.983334,48.450001,"Mandrikovka, Dnipropetrovsk",NA,"",2,"Priabonian","",38,33.9,59623,"gp_mid",36.36,41.88,"302",1,35.95,"priabonian",1
"93192",179786,"col","Molare",8.316667,44.433334,"Dego",NA,"",2,"Priabonian","",38,33.9,59423,"gp_mid",13.82,36.74,"307",1,35.95,"priabonian",1
"93193",179787,"col","Molare",8.283333,44.366669,"Carcare",NA,"",3,"Priabonian","",38,33.9,59423,"gp_mid",13.76,36.69,"307",1,35.95,"priabonian",1
"93194",179788,"col","Molare",8.383333,44.516666,"Pareto",NA,"",1,"Priabonian","",38,33.9,59423,"gp_mid",13.91,36.81,"307",1,35.95,"priabonian",1
"93672",181272,"col","Headon Beds",-1.592778,50.724998,"Hordle Cliff (generic, non-specific locality)",NA,"Hordwell",6,"Late Eocene","",37.2,33.9,60271,"gp_mid",3.96,44.91,"315",1,35.55,"priabonian",1
"94043",182498,"col","Cemalettin",34.792778,41.529446,"BOY-1, Boyabat",NA,"",1,"Priabonian","",38,33.9,60699,"gp_mid",36.33,34.96,"511",1,35.95,"priabonian",1
"94310",183530,"col","",32.683613,49.072498,"Saturday",NA,"",1,"Priabonian","",38,33.9,60839,"gp_mid",34.31,42.48,"302",1,35.95,"priabonian",1
"94469",183757,"col","",11.87,45.849998,"Possagno (Quaggiotto collection)",NA,"",2,"Priabonian","",38,33.9,61368,"gp_mid",17.36,37.29,"307",1,35.95,"priabonian",1
"94470",183758,"col","Marnes de la C√¥te des Basques",-1.57,43.472,"C√¥te-des-Basques, Biarritz (Dup√©rier collection)",NA,"",3,"Priabonian","",38,33.9,61368,"gp_mid",3.54,38.19,"304",1,35.95,"priabonian",1
"94471",183759,"col","Marnes de la C√¥te des Basques",-1.57,43.472,"C√¥te-des-Basques, Biarritz (Staadt collection)",NA,"",2,"Priabonian","",38,33.9,61368,"gp_mid",3.54,38.19,"304",1,35.95,"priabonian",1
"94472",183760,"col","",11.96,45.860001,"Curogna, Pederobba (Cossmann collection)",NA,"",1,"Priabonian","",38,33.9,61368,"gp_mid",17.44,37.28,"307",1,35.95,"priabonian",1
"94519",183807,"col","Marnes de la C√¥te des Basques",-1.57,43.472,"C√¥te-des-Basques, Biarritz (Cossmann collection)",NA,"",2,"Priabonian","",38,33.9,61368,"gp_mid",3.54,38.19,"304",1,35.95,"priabonian",1
"94993",184757,"col","Headon Hill",-1.537222,50.68972,"Colwell Bay",NA,"",1,"Priabonian","",38,33.9,61794,"gp_mid",4.01,44.88,"315",1,35.95,"priabonian",1
"95980",186786,"col","",35.1455,48.448002,"UDR1-UDR5, Rybalsky Quarry, Dnipropetrovsk",NA,"",11,"Priabonian","",38,33.9,62633,"gp_mid",36.51,41.88,"302",1,35.95,"priabonian",1
"96015",186852,"col","Nisului Valley",24.299999,45.633331,"Turnu Rosu",NA,"",2,"Late Eocene","",37.2,33.9,62655,"gp_mid",27.53,34.57,"308",1,35.55,"priabonian",1
"96331",187519,"col","",11.465,45.424721,"Grancona roadcut",NA,"",1,"Priabonian","",38,33.9,62933,"gp_mid",16.85,36.98,"307",1,35.95,"priabonian",1
"96342",187575,"col","",0.328056,47.325832,"Grand Morier, assemblage no. 1",NA,"",1,"Late Eocene","",37.2,33.9,62965,"gp_mid",5.33,41.43,"305",1,35.55,"priabonian",1
"97059",189957,"col","Andrew Lake",-176.615829,51.95639,"Adak Island loc. 2",NA,"",13,"Late Eocene","",37.2,33.9,63861,"gp_mid",-173.45,60.2,"416",1,35.55,"priabonian",1
"100835",202013,"col","Dry Branch",-81.681709,33.624866,"North Aiken Site",NA,"SC96.97",14,"Priabonian","",38,33.9,69202,"gp_mid",-65.87,36.24,"109",1,35.95,"priabonian",1
"100836",202014,"col","Dry Branch",-84.742775,33.50444,"South Aiken Site",NA,"",24,"Priabonian","",38,33.9,69202,"gp_mid",-69.01,36.6,"101",1,35.95,"priabonian",1
"101761",203225,"col","Itchoda",130.166672,32.416668,"Itchoda-mura",NA,"",1,"Late Eocene","",37.2,33.9,61622,"gp_mid",126.74,36.26,"610",1,35.55,"priabonian",1
"101763",203227,"col","",130.166672,32.416668,"Mirokudake",NA,"",9,"Late Eocene","",37.2,33.9,61622,"gp_mid",126.74,36.26,"610",1,35.55,"priabonian",1
"101942",203464,"col","",-84.449997,31.33,"Baker County, GA",NA,"",3,"Late Eocene","",37.2,33.9,16640,"gp_mid",-69.2,34.42,"109",1,35.55,"priabonian",1
"101950",203472,"col","Ocala",-82.478699,29.403002,"Johnson's Lime Sink",NA,"",3,"Late Eocene","",37.2,33.9,16640,"gp_mid",-67.61,32.22,"109",1,35.55,"priabonian",1
"102062",203667,"col","Ocala",-83.320137,29.797169,"Clara, near",NA,"",3,"Priabonian","",38,33.9,61653,"gp_mid",-68.38,32.73,"109",1,35.95,"priabonian",1
"102462",204624,"col","",-85.057297,31.127823,"Chattahoochee river at US 84",NA,"",1,"Priabonian","",38,33.9,32917,"gp_mid",-69.86,34.31,"109",1,35.95,"priabonian",1
"102475",204638,"col","Ocala",-84.818077,31.171267,"Joe Shingler's",NA,"",1,"Late Eocene","",37.2,33.9,32917,"gp_mid",-69.61,34.32,"109",1,35.55,"priabonian",1
"102476",204639,"col","Ocala",-84.743256,31.170853,"Colquitt",NA,"",1,"Late Eocene","",37.2,33.9,32917,"gp_mid",-69.53,34.31,"109",1,35.55,"priabonian",1
"102494",204714,"col","Ocala",-83.174858,30.067518,"Taylor County rock pit",NA,"",2,"Priabonian","",38,33.9,32917,"gp_mid",-68.18,32.98,"109",1,35.95,"priabonian",1
"102495",204715,"col","Ocala",-84.147118,31.607395,"Kinchafoonee Creek dam",NA,"",3,"Priabonian","",38,33.9,32917,"gp_mid",-68.83,34.64,"109",1,35.95,"priabonian",1
"103784",207195,"col","Bembridge Marls",-1.378,50.734001,"Hempstead Ledge",NA,"Hampstead",2,"Priabonian","",38,33.9,46872,"gp_mid",4.16,44.91,"315",1,35.95,"priabonian",1
"103785",207258,"col","Bembridge Marls",-1.39,50.730999,"Saltmead Ledge (Yule collection)",NA,"",4,"Priabonian","",38,33.9,71354,"gp_mid",4.14,44.91,"315",1,35.95,"priabonian",1
"103786",207259,"col","Bembridge Marls",-1.347,50.743999,"Sticelett Ledge (Yule collection)",NA,"",1,"Priabonian","",38,33.9,71354,"gp_mid",4.18,44.92,"315",1,35.95,"priabonian",1
"103787",207291,"col","Bouldnor",-1.438,50.723999,"Hampstead Ledge (Jarzembowski collection)",NA,"",1,"Priabonian","",38,33.9,71383,"gp_mid",4.1,44.9,"315",1,35.95,"priabonian",1
"103788",207292,"col","Bouldnor",-1.36,50.737999,"Bembridge Marls (MIWG collection)",NA,"",2,"Priabonian","",38,33.9,71383,"gp_mid",4.17,44.91,"315",1,35.95,"priabonian",1
"103902",207550,"col","",11.483889,45.380554,"Campolongo di Val Liona",NA,"",92,"Priabonian","",38,33.9,71548,"gp_mid",16.85,36.93,"307",1,35.95,"priabonian",1
"103904",207552,"col","",11.383,45.657001,"Buso della Rana",NA,"Monte di Malo",9,"Priabonian","",38,33.9,71559,"gp_mid",16.88,37.22,"307",1,35.95,"priabonian",1
"103936",207634,"col","",11.37216,45.634518,"Grotta T. Poscola",NA,"",6,"Priabonian","",38,33.9,47482,"gp_mid",16.86,37.2,"307",1,35.95,"priabonian",1
"103937",207635,"col","",11.362375,45.648979,"Piazzola Rio Rana",NA,"",1,"Priabonian","",38,33.9,47482,"gp_mid",16.86,37.21,"307",1,35.95,"priabonian",1
"103938",207636,"col","",11.383576,45.642799,"Boro",NA,"",1,"Priabonian","",38,33.9,47482,"gp_mid",16.87,37.2,"307",1,35.95,"priabonian",1
"103949",207746,"col","",3.412097,51.386055,"de Zwarte Polder",NA,"\r\nNieuwvliet-Bad",3,"Priabonian","",38,33.9,71649,"gp_mid",8.48,45.33,"315",1,35.95,"priabonian",1
"103971",207785,"col","Priabona Marl",10.966667,45.466667,"Parona, Eocene",NA,"",12,"Priabonian","",38,33.9,71692,"gp_mid",16.45,37.13,"307",1,35.95,"priabonian",1
"104846",209381,"col","Margas de Argu√≠s",-0.259444,42.499722,"Yebra de Basa",NA,"",1,"Priabonian","",38,33.9,72261,"gp_mid",4.71,37.19,"304",1,35.95,"priabonian",1
"105870",211078,"col","Gehlberg",10.994194,52.156002,"Tagebau Treue, Priabonian",NA,"Treue 3, Nordwand",2,"Priabonian","",38,33.9,72902,"gp_mid",15.24,45.82,"315",1,35.95,"priabonian",1
"105872",211084,"col","Gehlberg",11.011111,52.224445,"Helmstedt, Priabonian",NA,"",2,"Priabonian","",38,33.9,72902,"gp_mid",15.26,45.89,"315",1,35.95,"priabonian",1
"105945",211298,"col","Prussian",19.972086,54.868675,"Kaliningrad Amber Plant JSC",NA,"",1,"Priabonian","",38,33.9,72957,"gp_mid",23.22,48.33,"302",1,35.95,"priabonian",1
"105973",211382,"col","Dry Branch",-83.589996,32.490002,"Oaky Woods WMA",NA,"GA037",1,"Priabonian","",38,33.9,68339,"gp_mid",-68.07,35.42,"109",1,35.95,"priabonian",1
"108007",214253,"col","Santo Spirito",14.1,42.166668,"Maiella Mountin, Priabonian substrate, top of foraminiferal assemblage",NA,"",5,"Priabonian","",38,33.9,73843,"gp_mid",17.86,33.3,"307",1,35.95,"priabonian",1
