"","collection_no","record_type","formation","lng","lat","collection_name","collection_subset","collection_aka","n_occs","early_interval","late_interval","max_ma","min_ma","reference_no","paleomodel","paleolng","paleolat","geoplate","mid_ma","ext"
"2404",4880,"col","River Bend",-77.044441,35.108334,"Martin Marrieta Quarry",NA,"",40,"Rupelian","",33.9,28.1,297,"gp_mid",-63.04,37.11,"109",31,1
"3693",9067,"col","Calcaire Grossier d'Etrechy",2.233333,48.483334,"Auvers 80150, Calcaire Grossier d'Etrechy, Gisement d'Auvers-Saint-Georges, Esso",NA,"",32,"Early Oligocene","",33.9,28.4,789,"gp_mid",6.78,43.34,"305",31.15,1
"3694",9073,"col","Falun de Jeurs",2.233333,48.483334,"Auvers 80120, d'Auvers-Saint-Georges, Falun de Jeurs, Essonne, France",NA,"",60,"Early Oligocene","",33.9,28.4,789,"gp_mid",6.78,43.34,"305",31.15,1
"3723",9079,"col","Falun de Jeurs",2.233333,48.483334,"Auvers 80030, d'Auvers-Saint-Georges, Falun de Jeurs, Essonne, France",NA,"",57,"Early Oligocene","",33.9,28.4,789,"gp_mid",6.78,43.34,"305",31.15,1
"3726",9127,"col","Falun de Jeurs",2.175,48.466667,"Jeurs 66348A, Gisement de Jeurs, Falun de Jeurs, Essonne, France",NA,"",16,"Early Oligocene","",33.9,28.4,789,"gp_mid",6.73,43.33,"305",31.15,1
"3727",9128,"col","Falun de Jeurs",2.175,48.466667,"Jeurs 66348B, Gisement de Jeurs, Falun de Jeurs, Essonne, France",NA,"",11,"Early Oligocene","",33.9,28.4,789,"gp_mid",6.73,43.33,"305",31.15,1
"3729",9130,"col","Falun de Jeurs",2.175,48.466667,"Jeurs 66345, Gisement de Jeurs, Falun de Jeurs, Essonne, France",NA,"",40,"Early Oligocene","",33.9,28.4,789,"gp_mid",6.73,43.33,"305",31.15,1
"3730",9131,"col","Falun de Jeurs",2.175,48.466667,"Jeurs 66344, Gisement de Jeurs, Falun de Jeurs, Essonne, France",NA,"",41,"Early Oligocene","",33.9,28.4,789,"gp_mid",6.73,43.33,"305",31.15,1
"3731",9132,"col","Falun de Jeurs",2.175,48.466667,"Jeurs 66343, Gisement de Jeurs, Falun de Jeurs, Essonne, France",NA,"",49,"Early Oligocene","",33.9,28.4,789,"gp_mid",6.73,43.33,"305",31.15,1
"3732",9133,"col","Falun de Jeurs",2.175,48.466667,"Jeurs 66342, Gisement de Jeurs, Falun de Jeurs, Essonne, France",NA,"",45,"Early Oligocene","",33.9,28.4,789,"gp_mid",6.73,43.33,"305",31.15,1
"3733",9134,"col","Falun de Jeurs",2.175,48.466667,"Jeurs 66341, Gisement de Jeurs, base of Falun de Morigny, Essonne, France",NA,"",40,"Early Oligocene","",33.9,28.4,789,"gp_mid",6.73,43.33,"305",31.15,1
"3738",9076,"col","Falun de Jeurs",2.233333,48.483334,"Auvers 80100, d'Auvers-Saint-Georges, Falun de Jeurs, Essonne, France",NA,"",75,"Early Oligocene","",33.9,28.4,789,"gp_mid",6.78,43.34,"305",31.15,1
"3739",9078,"col","Falun de Jeurs",2.233333,48.483334,"Auvers 80060, d'Auvers-Saint-Georges, Falun de Jeurs, Essonne, France",NA,"",67,"Early Oligocene","",33.9,28.4,789,"gp_mid",6.78,43.34,"305",31.15,1
"3740",9135,"col","Falun de Jeurs",2.2,48.450001,"Morigny I 66379, Gisement de Morigny, Falun de Jeurs, Essonne, France",NA,"",48,"Early Oligocene","",33.9,28.4,789,"gp_mid",6.75,43.31,"305",31.15,1
"3741",9169,"col","Falun de Jeurs",2.2,48.450001,"Morigny I 66378, Gisement de Morigny, Falun de Jeurs, Essonne, France",NA,"",62,"Early Oligocene","",33.9,28.4,789,"gp_mid",6.75,43.31,"305",31.15,1
"3742",9171,"col","Falun de Jeurs",2.2,48.450001,"Morigny I 66377, Gisement de Morigny, Falun de Jeurs, Essonne, France",NA,"",56,"Early Oligocene","",33.9,28.4,789,"gp_mid",6.75,43.31,"305",31.15,1
"3743",9173,"col","Falun de Morigny",2.2,48.450001,"Morigny II 66383, Gisement de Morigny, Falun de Morigny, Essonne, France",NA,"",51,"Early Oligocene","",33.9,28.4,789,"gp_mid",6.75,43.31,"305",31.15,1
"3744",9175,"col","Falun de Morigny",2.2,48.450001,"Morigny II 66381, Gisement de Morigny, Falun de Morigny, Essonne, France",NA,"",37,"Early Oligocene","",33.9,28.4,789,"gp_mid",6.75,43.31,"305",31.15,1
"3746",9177,"col","Falun de Morigny",2.2,48.450001,"Morigny II 66381B, Gisement de Morigny, Falun de Morigny, Essonne, France",NA,"",44,"Early Oligocene","",33.9,28.4,789,"gp_mid",6.75,43.31,"305",31.15,1
"3747",9172,"col","Falun de Morigny",2.2,48.450001,"Morigny I 66376, Gisement de Morigny, Falun de Morigny, Essonne, France",NA,"",46,"Early Oligocene","",33.9,28.4,789,"gp_mid",6.75,43.31,"305",31.15,1
"3748",9174,"col","Falun de Morigny",2.2,48.450001,"Morigny II 66382, Gisement de Morigny, Falun de Morigny, Essonne, France",NA,"",48,"Early Oligocene","",33.9,28.4,789,"gp_mid",6.75,43.31,"305",31.15,1
"3750",9179,"col","Falun de Morigny",2.2,48.450001,"Morigny II 66381A, Gisement de Morigny, Falun de Morigny, Essonne, France",NA,"",35,"Early Oligocene","",33.9,28.4,789,"gp_mid",6.75,43.31,"305",31.15,1
"3752",9181,"col","Sable de Vauroux-Saint-Antoine",2.25,48.5,"Vauroux-St. Antoine B (Moulinvaux), Gisement d'Etampes, Sable de Vauroux-Saint-A",NA,"",52,"Early Oligocene","",33.9,28.4,789,"gp_mid",6.8,43.36,"305",31.15,1
"3753",9182,"col","Falun d'Ormoy",2.15,48.400002,"Ormoy I 66363, Gisement d'Ormoy-la-Riviere, Falun d'Ormoy, Essonne, France",NA,"",24,"Early Oligocene","",33.9,28.4,789,"gp_mid",6.7,43.26,"305",31.15,1
"3754",9183,"col","Falun d'Ormoy",2.15,48.400002,"Ormoy II 66374, Gisement d'Ormoy-la-Riviere, Falun d'Ormoy, Essonne, France",NA,"",26,"Early Oligocene","",33.9,28.4,789,"gp_mid",6.7,43.26,"305",31.15,1
"3755",9193,"col","Conglomerat a Pierrefitte",2.25,48.5,"Pierrefitte II 66359, Gisement de Pierrefitte, Conglomerat de Pierrefitte, Esson",NA,"",67,"Early Oligocene","",33.9,28.4,789,"gp_mid",6.8,43.36,"305",31.15,1
"3757",9180,"col","Sable de Vauroux-Saint-Antoine",2.15,48.433334,"Vauroux-St. Antoine A (Av. de Paris), Gisement d'Etampes, Sable de Vauroux-Saint",NA,"",73,"Early Oligocene","",33.9,28.4,789,"gp_mid",6.7,43.29,"305",31.15,1
"3758",9266,"col","Falun de Pierrefitte&grave;",2.25,48.5,"Pierrefitte I 66353, Gisement de Pierrefitte, Falun de Pierrefitte, Essonne, Fra",NA,"",54,"Early Oligocene","",33.9,28.4,789,"gp_mid",6.8,43.36,"305",31.15,1
"3759",9267,"col","Falun de Pierrefitte&grave;",2.25,48.5,"Pierrefitte I 66354, Gisement de Pierrefitte, Falun de Pierrefitte, Essonne, Fra",NA,"",57,"Early Oligocene","",33.9,28.4,789,"gp_mid",6.8,43.36,"305",31.15,1
"3760",9268,"col","Falun de Pierrefitte",2.25,48.5,"Pierrefitte I 66355, Gisement de Pierrefitte, Falun de Pierrefitte, Essonne, Fra",NA,"",57,"Early Oligocene","",33.9,28.4,789,"gp_mid",6.8,43.36,"305",31.15,1
"3761",9269,"col","Falun de Pierrefitte",2.25,48.5,"Pierrefitte II 66358, Gisement de Pierrefitte, Falun de Pierrefitte, Essonne, Fr",NA,"",66,"Early Oligocene","",33.9,28.4,789,"gp_mid",6.8,43.36,"305",31.15,1
"8400",17341,"col","",-82.366669,29.633333,"I-75",NA,"",53,"Whitneyan","",33.3,30.8,2738,"gp_mid",-69.12,32.45,"109",32.05,1
"12820",24148,"col","Gornji Grad Beds",14.8,46.283333,"Gornji Grad, Algal-Coral facies",NA,"Reef 3189",12,"Rupelian","",33.9,28.1,6826,"gp_mid",19.36,38.38,"307",31,1
"17381",31604,"col","",36.383331,39.116112,"Yenikoy",NA,"Yeniköy",8,"Early Oligocene","",33.9,28.4,8520,"gp_mid",37.79,33.34,"504",31.15,1
"17382",31605,"col","Lignite-Sandstone",26.809444,40.916943,"Kavakdere",NA,"",17,"Early Oligocene","",33.9,28.4,8520,"gp_mid",28.23,31.22,"308",31.15,1
"17383",31606,"col","Lignite-Sandstone",26.820278,41.003887,"Kocayarma",NA,"",19,"Early Oligocene","",33.9,28.4,8520,"gp_mid",28.26,31.3,"308",31.15,1
"17526",31748,"col","Borgloon",4.816667,50.849998,"Hoogbutsel",NA,"",53,"Early Oligocene","",33.9,28.4,8517,"gp_mid",9.34,45.59,"315",31.15,1
"17531",31753,"col","",2.016667,45.200001,"Soumailles",NA,"",5,"Early Oligocene","",33.9,28.4,8517,"gp_mid",6.29,40.07,"305",31.15,1
"17546",31767,"col","",3.866667,45.016666,"Ronzon",NA,"Quercy Phosphorite, Phospherites du Quercy",32,"Early Oligocene","",33.9,28.4,8517,"gp_mid",7.98,39.81,"305",31.15,1
"17849",32084,"col","",3.866667,45.016666,"Courelle Quarry",31767,"",1,"Early Oligocene","",33.9,28.4,8622,"gp_mid",7.98,39.81,"305",31.15,1
"19943",34630,"col","",11.733333,49.583332,"Weisserburg 8",NA,"",13,"Early Oligocene","",33.9,28.4,10641,"gp_mid",15.47,44.08,"305",31.15,1
"21652",36984,"col","",10.683333,48.799999,"Ronheim",NA,"",26,"Early Oligocene","",33.9,28.4,9890,"gp_mid",14.47,43.33,"305",31.15,1
"21732",37085,"col","",1.25,41.917,"Right side of Barranco de Vilanova",NA,"",3,"Rupelian","",33.9,28.1,9948,"gp_mid",5.46,37.18,"304",31,1
"21975",37518,"col","Calcaires de Vacheres",5.516667,43.866669,"Locus C, Saint Martin de Castillon, excavation in 1970-1971",NA,"Saint-Martin-de-Castillon; St-Martin-de-Castillon; Calavon",24,"MP 24","",33.9,28.4,10040,"gp_mid",9.41,38.59,"305",31.15,1
"22026",37567,"col","Calcaires de Vacheres",5.516667,43.866669,"Locus E, Saint Martin de Castillon, excavation in 1970-1971",NA,"Saint-Martin-de-Castillon; St-Martin-de-Castillon; Calavon",11,"MP 24","",33.9,28.4,10040,"gp_mid",9.41,38.59,"305",31.15,1
"28115",45500,"col","Ashley",-80.088608,32.963333,"Woodstock Station",NA,"",8,"Rupelian","",33.9,28.1,11915,"gp_mid",-66.58,35.42,"109",31,1
"28200",45585,"col","",3.216667,46.333057,"Branssat",NA,"",1,"Early Oligocene","",33.9,28.4,10778,"gp_mid",7.49,41.15,"305",31.15,1
"28342",45777,"col","Ashley",-80.151665,32.96722,"Chandler Bridge Creek (Ashley Fm.)",NA,"",16,"Rupelian","",33.9,28.1,12126,"gp_mid",-66.64,35.43,"109",31,1
"28369",45761,"col","Ashley",-80.133331,32.900002,"Greer's Landing",NA,"",1,"Rupelian","",33.9,28.1,47600,"gp_mid",-66.64,35.36,"109",31,1
"28385",45778,"col","Ashley",-80.146385,32.961666,"Eagle Creek, Ashley Formation",NA,"",1,"Rupelian","",33.9,28.1,12126,"gp_mid",-66.64,35.43,"109",31,1
"28625",46094,"col","Rupel",12.384722,51.202221,"Böhlen",NA,"",3,"Rupelian","",33.9,28.1,12298,"gp_mid",16.16,45.68,"305",31,1
"28627",46096,"col","Rupel",12.326111,51.218334,"Zwenkau",NA,"",11,"Rupelian","",33.9,28.1,12298,"gp_mid",16.11,45.7,"305",31,1
"28628",46097,"col","Bohlen",12.464167,51.193054,"Espenhain/Sachsen",NA,"",24,"MP 22","",33.9,28.4,12298,"gp_mid",16.23,45.67,"305",31.15,1
"28629",46098,"col","Rupel",12.211667,51.125557,"Profen",NA,"",3,"Rupelian","",33.9,28.1,12298,"gp_mid",16,45.61,"305",31,1
"28631",46100,"col","Rupel",11.9725,51.754444,"Köthen",NA,"",1,"Rupelian","",33.9,28.1,12298,"gp_mid",15.83,46.24,"315",31,1
"32032",50155,"col","Hump Ridge Coal Measures",167.316193,-46.4977,"S167/f582",NA,"GS 4987",7,"Rupelian","",33.9,28.1,13481,"gp_mid",-169.61,-48.05,"807",31,1
"33605",52047,"col","Boom",4.363611,51.086109,"Boom (Rupelian)",NA,"",14,"Rupelian","",33.9,28.1,13940,"gp_mid",8.95,45.85,"315",31,1
"35934",55520,"col","Ashley",-79.830833,32.926109,"Wando River",NA,"",1,"Rupelian","",33.9,28.1,14985,"gp_mid",-66.32,35.35,"109",31,1
"36017",65173,"col","",12.371389,51.339722,"Leipzig",NA,"Weisselsterbecken",9,"Rupelian","",33.9,28.1,18782,"gp_mid",16.16,45.82,"305",31,1
"38901",58985,"col","Ashley",-80.171387,32.974167,"Trolley Road",NA,"",1,"Rupelian","",33.9,28.1,16733,"gp_mid",-66.66,35.44,"109",31,1
"40130",60444,"col","Ashley",-80.197777,32.974167,"Dorchester Creek (Ashley Formation)",NA,"",1,"Rupelian","",33.9,28.1,17344,"gp_mid",-66.69,35.45,"109",31,1
"40131",60445,"col","Ashley",-80.394447,32.843613,"Martins Landing",NA,"",1,"Rupelian","",33.9,28.1,17344,"gp_mid",-66.91,35.35,"109",31,1
"40132",60447,"col","Ashley",-80.174721,32.991943,"Greenhurst Subdivision",NA,"",1,"Rupelian","",33.9,28.1,17344,"gp_mid",-66.66,35.46,"109",31,1
"40332",60656,"col","Suwannee Limestone",-82.690002,28.4,"USGS Loc. 7356 - N of Hudson [Suwannee Lmst]",NA,"Mansfield Loc. 30",5,"Rupelian","",33.9,28.1,17425,"gp_mid",-70.1,31.27,"109",31,1
"40337",60661,"col","Suwannee Limestone",-82.690002,28.5,"USGS Loc. 12761 - N of Hudson [Suwannee Lmst]",NA,"Mansfield Loc. 31",7,"Rupelian","",33.9,28.1,17425,"gp_mid",-70.08,31.37,"109",31,1
"40339",60663,"col","Suwannee Limestone",-82.18,28.200001,"USGS Loc. 12762 - N of Hudson [Suwannee Lmst]",NA,"Mansfield Loc. 29",11,"Rupelian","",33.9,28.1,17425,"gp_mid",-69.61,31.01,"109",31,1
"40341",60665,"col","Suwannee Limestone",-82.389999,28.559999,"USGS Loc. 7361, 7362, 7363 - Brooksville [Suwannee Lmst]",NA,"USGS Loc. 11113, 12317, 12318, 12319, 12320, 12322, 12755, 12756, 12757, 12758, 13853",46,"Rupelian","",33.9,28.1,17425,"gp_mid",-69.76,31.39,"109",31,1
"40348",60672,"col","Suwannee Limestone",-82.699997,30.110001,"USGS Loc. 4960, 6827, 12307 - Bass [Suwannee Lmst]",NA,"Mansfield Loc. 48",5,"Rupelian","",33.9,28.1,17425,"gp_mid",-69.79,32.96,"109",31,1
"40598",60951,"col","Suwannee Limestone",-82.709999,29.92,"USGS Loc. 6818, 12749 - Near Ft. White [Suwannee Lms]",NA,"Mansfield Loc. 47",4,"Rupelian","",33.9,28.1,17425,"gp_mid",-69.84,32.78,"109",31,1
"40600",60953,"col","Suwannee Limestone",-82.75,29.870001,"USGS Loc. 12035 - W of Santa Fe River [Suwannee Lmst]",NA,"Mansfield Loc. 49",2,"Rupelian","",33.9,28.1,17425,"gp_mid",-69.89,32.73,"109",31,1
"40620",60972,"col","Suwannee Limestone",-82.940002,29.809999,"USGS Loc. 12739 - Noble Ferry Bridge [Suwanee Lmst]",NA,"Mansfield Loc. 55",1,"Rupelian","",33.9,28.1,17425,"gp_mid",-70.09,32.7,"109",31,1
"40621",60973,"col","Suwannee Limestone",-82.940002,29.809999,"USGS Loc. 12738 - Ellaville [Suwannee Lmst]",NA,"Mansfield Loc. 54",1,"Rupelian","",33.9,28.1,17425,"gp_mid",-70.09,32.7,"109",31,1
"40761",61119,"col","Suwannee Limestone",-82.592499,28.9025,"Crystal River Rock Co. Quarry - Bed 9 (Suwannee Lmst)",NA,"",1,"Early Oligocene","",33.9,28.4,17557,"gp_mid",-69.9,31.76,"109",31.15,1
"40763",61121,"col","Suwannee Limestone",-82.592499,28.9025,"Crystal River Rock Co. Quarry - Bed 11 (Suwannee Lmst)",NA,"",2,"Early Oligocene","",33.9,28.4,17557,"gp_mid",-69.9,31.76,"109",31.15,1
"40764",61122,"col","Suwannee Limestone",-82.592499,28.9025,"Crystal River Rock Co. Quarry - Bed 12 (Suwannee Lmst)",NA,"",5,"Early Oligocene","",33.9,28.4,17557,"gp_mid",-69.9,31.76,"109",31.15,1
"40765",61123,"col","Suwannee Limestone",-82.592499,28.9025,"Crystal River Rock Co. Quarry - Bed 13 (Suwannee Lmst)",NA,"",7,"Early Oligocene","",33.9,28.4,17557,"gp_mid",-69.9,31.76,"109",31.15,1
"40914",61286,"col","Old Church",-76.385559,37.095554,"Langley Core, VA - 155.48-155.51 m (Old Church Fm)",NA,"510.1-510.2 ft",1,"Early Oligocene","",33.9,28.4,17631,"gp_mid",-61.94,38.97,"109",31.15,1
"43384",65062,"col","",9.299722,47.692501,"Obermatt Quarry",NA,"Stetten",1,"Rupelian","",33.9,28.1,18736,"gp_mid",13.14,42.27,"305",31,1
"43397",65077,"col","Alzey",8.036667,49.785557,"Flonheim",NA,"",5,"Rupelian","",33.9,28.1,18736,"gp_mid",12.15,44.41,"315",31,1
"43398",65078,"col","",8.156944,49.759445,"Alzey",NA,"",3,"Early Oligocene","",33.9,28.4,18736,"gp_mid",12.26,44.38,"315",31.15,1
"43407",65088,"col","Alzey",7.983889,49.794724,"Eckelsheim",NA,"",2,"Rupelian","",33.9,28.1,18736,"gp_mid",12.1,44.42,"315",31,1
"44229",66190,"col","Ashley",-80.106941,32.8125,"COC AF-18",NA,"",4,"Rupelian","",33.9,28.1,18958,"gp_mid",-66.63,35.27,"109",31,1
"44230",66191,"col","Ashley",-80.233887,32.978333,"COC AF-17",NA,"",1,"Rupelian","",33.9,28.1,18958,"gp_mid",-66.72,35.46,"109",31,1
"45455",68021,"col","",8.816667,49.150002,"Frauenweiler",NA,"Grube Unterfeld; Bott-Eder clay pit; Rauenberg",296,"Rupelian","",33.9,28.1,25150,"gp_mid",12.81,43.74,"305",31,1
"46227",68876,"col","Calcaires lithographiques de Vachères",5.633333,43.933334,"Pichovet",NA,"",4,"MP 24","",33.9,28.4,19878,"gp_mid",9.52,38.65,"305",31.15,1
"46792",69805,"col","",-2.3375,48.475834,"Vayres-sure-Essone",NA,"Carrière de La Roche-Cassée",41,"Early Oligocene","",33.9,28.4,23435,"gp_mid",2.62,43.55,"305",31.15,1
"47462",70764,"col","Waita",130.5,33.833332,"Loc. 6109 (cycle W-11) - Waita Formation",NA,"",12,"Early Oligocene","",33.9,28.4,23726,"gp_mid",127.29,36.27,"610",31.15,1
"47463",70765,"col","Waita",130.5,33.833332,"Loc. 6098a (cycle W-10) - Waita Formation",NA,"",11,"Early Oligocene","",33.9,28.4,23726,"gp_mid",127.29,36.27,"610",31.15,1
"47464",70766,"col","Waita",130.5,33.833332,"Loc. 6097 (cycle W-10) - Waita Formation",NA,"",4,"Early Oligocene","",33.9,28.4,23726,"gp_mid",127.29,36.27,"610",31.15,1
"47465",70767,"col","Waita",130.5,33.833332,"Loc. 6096 (cycle W-10) - Waita Formation",NA,"",5,"Early Oligocene","",33.9,28.4,23726,"gp_mid",127.29,36.27,"610",31.15,1
"47466",70768,"col","Waita",130.5,33.833332,"Loc. 6082 (cycle W-9) - Waita Formation",NA,"",4,"Early Oligocene","",33.9,28.4,23726,"gp_mid",127.29,36.27,"610",31.15,1
"47467",70769,"col","Waita",130.5,33.833332,"Loc. 6083 (cycle W-9) - Waita Formation",NA,"",4,"Early Oligocene","",33.9,28.4,23726,"gp_mid",127.29,36.27,"610",31.15,1
"47468",70770,"col","Waita",130.5,33.833332,"Loc. 6062 (cycle W-7) - Waita Formation",NA,"",0,"Early Oligocene","",33.9,28.4,23726,"gp_mid",127.29,36.27,"610",31.15,1
"47469",70771,"col","Waita",130.5,33.833332,"Loc. 6049 (cycle W-6) - Waita Formation",NA,"",0,"Early Oligocene","",33.9,28.4,23726,"gp_mid",127.29,36.27,"610",31.15,1
"47470",70772,"col","Waita",130.5,33.833332,"Loc. 6027 (cycle W-5) - Waita Formation",NA,"",0,"Early Oligocene","",33.9,28.4,23726,"gp_mid",127.29,36.27,"610",31.15,1
"47471",70773,"col","Waita",130.5,33.833332,"Loc. 6022 (cycle W-4) - Waita Formation",NA,"",0,"Early Oligocene","",33.9,28.4,23726,"gp_mid",127.29,36.27,"610",31.15,1
"47472",70774,"col","Waita",130.5,33.833332,"Loc. 6011a (cycle W-3) - Waita Formation",NA,"",5,"Early Oligocene","",33.9,28.4,23726,"gp_mid",127.29,36.27,"610",31.15,1
"47473",70775,"col","Waita",130.5,33.833332,"Loc. 6010a (cycle W-3) - Waita Formation",NA,"",10,"Early Oligocene","",33.9,28.4,23726,"gp_mid",127.29,36.27,"610",31.15,1
"47474",70776,"col","Waita",130.5,33.833332,"Loc. 6008 (cycle W-3) - Waita Formation",NA,"",8,"Early Oligocene","",33.9,28.4,23726,"gp_mid",127.29,36.27,"610",31.15,1
"47475",70777,"col","Waita",130.5,33.833332,"Loc. 6006 (cycle W-3) - Waita Formation",NA,"",1,"Early Oligocene","",33.9,28.4,23726,"gp_mid",127.29,36.27,"610",31.15,1
"47476",70778,"col","Waita",130.5,33.833332,"Loc. 6005 (cycle W-3) - Waita Formation",NA,"",2,"Early Oligocene","",33.9,28.4,23726,"gp_mid",127.29,36.27,"610",31.15,1
"47477",70779,"col","Waita",130.5,33.833332,"Loc. 4309 (cycle W-1b) - Waita Formation",NA,"",5,"Early Oligocene","",33.9,28.4,23726,"gp_mid",127.29,36.27,"610",31.15,1
"47478",70780,"col","Waita",130.5,33.833332,"Loc. 4310a (cycle W-1b) - Waita Formation",NA,"",8,"Early Oligocene","",33.9,28.4,23726,"gp_mid",127.29,36.27,"610",31.15,1
"47479",70781,"col","Waita",130.5,33.833332,"Loc. 4312 (cycle W-1b) - Waita Formation",NA,"",1,"Early Oligocene","",33.9,28.4,23726,"gp_mid",127.29,36.27,"610",31.15,1
"47480",70782,"col","Waita",130.5,33.833332,"Loc. 4315 (cycle W-1b) - Waita Formation",NA,"",4,"Early Oligocene","",33.9,28.4,23726,"gp_mid",127.29,36.27,"610",31.15,1
"47481",70783,"col","Waita",130.5,33.833332,"Loc. 4317 (cycle W-1b) - Waita Formation",NA,"",4,"Early Oligocene","",33.9,28.4,23726,"gp_mid",127.29,36.27,"610",31.15,1
"47482",70784,"col","Waita",130.5,33.833332,"Loc. 4306 (cycle W-1a) - Waita Formation",NA,"",1,"Early Oligocene","",33.9,28.4,23726,"gp_mid",127.29,36.27,"610",31.15,1
"47498",70809,"col","Waita",130.5,33.833332,"Loc. 6094 (cycle W-9) - Waita Formation",NA,"",2,"Early Oligocene","",33.9,28.4,23726,"gp_mid",127.29,36.27,"610",31.15,1
"47499",70810,"col","Waita",130.5,33.833332,"Loc. 6086 (cycle W-9) - Waita Formation",NA,"",6,"Early Oligocene","",33.9,28.4,23726,"gp_mid",127.29,36.27,"610",31.15,1
"47500",70811,"col","Waita",130.5,33.833332,"Loc. 6087 (cycle W-9) - Waita Formation",NA,"",3,"Early Oligocene","",33.9,28.4,23726,"gp_mid",127.29,36.27,"610",31.15,1
"47501",70812,"col","Waita",130.5,33.833332,"Loc. 6014 (cycle W-3) - Waita Formation",NA,"",3,"Early Oligocene","",33.9,28.4,23726,"gp_mid",127.29,36.27,"610",31.15,1
"47502",70813,"col","Waita",130.5,33.833332,"Loc. 4406 (cycle W-2) - Waita Formation",NA,"",2,"Early Oligocene","",33.9,28.4,23726,"gp_mid",127.29,36.27,"610",31.15,1
"47579",70892,"col","Waita",130.5,33.833332,"Loc. 6043 (cycle W-5) - Waita Formation",NA,"",5,"Early Oligocene","",33.9,28.4,23726,"gp_mid",127.29,36.27,"610",31.15,1
"47580",70893,"col","Waita",130.5,33.833332,"Loc. 6012 (cycle W-3) - Waita Formation",NA,"",5,"Early Oligocene","",33.9,28.4,23726,"gp_mid",127.29,36.27,"610",31.15,1
"47581",70894,"col","Waita",130.5,33.833332,"Loc. 4407 (cycle W-2) - Waita Formation",NA,"",1,"Early Oligocene","",33.9,28.4,23726,"gp_mid",127.29,36.27,"610",31.15,1
"47582",70895,"col","Waita",130.5,33.833332,"Loc. 6001a (cycle W-3) - Waita Formation",NA,"",10,"Early Oligocene","",33.9,28.4,23726,"gp_mid",127.29,36.27,"610",31.15,1
"47583",70896,"col","Waita",130.5,33.833332,"Loc. 4402 (cycle W-2) - Waita Formation",NA,"",8,"Early Oligocene","",33.9,28.4,23726,"gp_mid",127.29,36.27,"610",31.15,1
"47584",70897,"col","Waita",130.5,33.833332,"Loc. 4308a (cycle W-1a) - Waita Formation",NA,"",3,"Early Oligocene","",33.9,28.4,23726,"gp_mid",127.29,36.27,"610",31.15,1
"48138",71672,"col","Chilikty",57.330002,46.659443,"Donguz-Tau",NA,"Chelkar-Teniz",5,"Early Oligocene","",33.9,28.4,24211,"gp_mid",56.74,41.4,"402",31.15,1
"49269",73965,"col","",5.25,43.950001,"Murs",NA,"",9,"MP 23","",33.9,28.4,24833,"gp_mid",9.17,38.69,"305",31.15,1
"49778",74630,"col","Eptachorion",21.17111,40.125278,"Mesolouri (Eptachorion Fm)",NA,"",7,"Rupelian","",33.9,28.1,25005,"gp_mid",23.13,31.32,"307",31,1
"49784",74638,"col","",5.583333,43.849998,"Céreste",NA,"",3,"MP 22","MP 24",33.9,28.4,25116,"gp_mid",9.47,38.57,"305",31.15,1
"49869",74855,"col","",-1.033333,43.616669,"Gaas, Aquitaine",NA,"",11,"Rupelian","",33.9,28.1,25224,"gp_mid",3.35,38.64,"305",31,1
"50482",75867,"col","Borgloon",4.816667,50.816666,"Boutersem TGV",NA,"",28,"MP 21","",33.9,28.4,28428,"gp_mid",9.33,45.56,"315",31.15,1
"50993",77157,"col","Nari",67,30.166668,"Nari beds - NE of Quetta, Baluchistan",NA,"",19,"Early Oligocene","",33.9,28.4,26063,"gp_mid",67.02,25.41,"506",31.15,1
"50994",77158,"col","Nari",66,28,"Nari beds - Kudin, Baluchistan",NA,"",21,"Early Oligocene","",33.9,28.4,26063,"gp_mid",66.22,23.19,"507",31.15,1
"51166",77401,"col","Nari",66,28,"Nari beds - Takatu, Baluchistan",NA,"",6,"Early Oligocene","",33.9,28.4,26063,"gp_mid",66.22,23.19,"507",31.15,1
"51684",78396,"col","Arita",129.75,33.333332,"Arita 1",NA,"",1,"Early Oligocene","",33.9,28.4,26376,"gp_mid",126.62,35.68,"610",31.15,1
"51687",78399,"col","Kiuragi",129.75,33.333332,"Kiuragi",NA,"",1,"Early Oligocene","",33.9,28.4,26376,"gp_mid",126.62,35.68,"610",31.15,1
"52149",79061,"col","",55.584999,26.952223,"Khamir (Oligocene limestone)",NA,"",6,"Early Oligocene","",33.9,28.4,26552,"gp_mid",53.3,14.16,"503",31.15,1
"52150",79062,"col","",55.584999,26.952223,"Kuh-i-Namak (Oligocene limestone)",NA,"",1,"Early Oligocene","",33.9,28.4,26552,"gp_mid",53.3,14.16,"503",31.15,1
"52386",79603,"col","Eptachorion",21.141666,40.125832,"Doutsiko, Mesohellenic Basin",NA,"Reef 3798",30,"Rupelian","",33.9,28.1,26716,"gp_mid",23.1,31.32,"307",31,1
"52646",80184,"col","Suwannee Limestone",-82.181114,28.23361,"Terramar Pit [Suwannee Limestone]",NA,"",79,"Early Oligocene","",33.9,28.4,26976,"gp_mid",-69.61,31.04,"109",31.15,1
"53352",81596,"col","",6.768056,51.432777,"Duisburg",NA,"Kaiserberg",1,"Rupelian","",33.9,28.1,27521,"gp_mid",11.14,46.1,"315",31,1
"53353",81597,"col","",6.847222,51.296944,"Ratingen",NA,"Fliegselskamp",1,"Rupelian","",33.9,28.1,27521,"gp_mid",11.2,45.96,"315",31,1
"53354",81598,"col","",6.875833,51.58139,"Lake Kirchheller Heide",NA,"Bottrop",1,"Rupelian","",33.9,28.1,27521,"gp_mid",11.25,46.24,"315",31,1
"55348",84461,"col","Vachères limestones",5.6725,43.972778,"Revest-des-Brousses",NA,"Luberon",2,"MP 24","",33.9,28.4,28309,"gp_mid",9.56,38.69,"305",31.15,1
"55397",84513,"col","",4.266667,51.133331,"Steendorp (Rupelian)",NA,"",2,"Rupelian","",33.9,28.1,28330,"gp_mid",8.87,45.9,"315",31,1
"55659",84825,"col","",8.45,50.083332,"Hofheim-Wallau",NA,"",1,"Rupelian","",33.9,28.1,28479,"gp_mid",12.55,44.69,"315",31,1
"55949",85235,"col","",5.6,43.933334,"Oppedette",NA,"Le Grand Banc",1,"Rupelian","",33.9,28.1,28684,"gp_mid",9.49,38.66,"305",31,1
"56291",85745,"col","Rancho Berlin Sandstone",-92.916664,16.85,"Colonia Manguito",NA,"Reef 3913",13,"Early Oligocene","",33.9,28.4,8422,"gp_mid",-82.34,21.17,"205",31.15,1
"56292",85755,"col","Rancho Berlin Sandstone",-92.699997,17.083332,"Simojovel road section B-8230",NA,"",3,"Early Oligocene","",33.9,28.4,8422,"gp_mid",-82.09,21.38,"205",31.15,1
"57300",87248,"col","",6.799722,51.975555,"Ratum",NA,"",6,"Rupelian","",33.9,28.1,29207,"gp_mid",11.22,46.64,"315",31,1
"57301",87249,"col","",5.411667,52.200558,"Kuiperberg",NA,"",32,"Rupelian","",33.9,28.1,29207,"gp_mid",10,46.92,"315",31,1
"57302",87250,"col","",6.693611,51.956112,"Te Siepe & De Vlijt",NA,"",20,"Rupelian","",33.9,28.1,29207,"gp_mid",11.12,46.62,"315",31,1
"58138",88287,"col","",-22.049999,70.150002,"Coeloma beds, Kap Brewster",NA,"",11,"Early Oligocene","",33.9,28.4,29643,"gp_mid",0.03,64.27,"102",31.15,1
"59035",89429,"col","",4.327222,51.109444,"Niel",NA,"",3,"Rupelian","",33.9,28.1,29875,"gp_mid",8.92,45.87,"315",31,1
"59863",91095,"col","",11.329722,53.21611,"Septarienton, Malliss",NA,"",5,"Rupelian","",33.9,28.1,30662,"gp_mid",15.36,47.72,"315",31,1
"59864",91096,"col","Septarienton",13.999722,52.785557,"Septarienton, Bad Freienwalde",NA,"",6,"Rupelian","",33.9,28.1,30662,"gp_mid",17.71,47.22,"315",31,1
"59927",91161,"col","",-83.133331,22.983334,"Las Cuevas, Pinar del Río",NA,"",1,"Early Oligocene","",33.9,28.4,30664,"gp_mid",-71.48,25.98,"206",31.15,1
"60053",91343,"col","",2,58,"Phillips (UK) 22/14-1x well, 7000-7100 m",NA,"",2,"Early Oligocene","",33.9,28.4,30729,"gp_mid",7.63,52.84,"302",31.15,1
"60175",91482,"col","Ashley",-80.115257,32.891727,"PQ-ARMP09 ",NA,"",1,"Rupelian","",33.9,28.1,43401,"gp_mid",-66.62,35.35,"109",31,1
"60180",91490,"col","",10.883333,48.933334,"Möhren 12",NA,"",5,"MP 21","",33.9,28.4,30825,"gp_mid",14.66,43.46,"305",31.15,1
"60181",91491,"col","",10.883333,48.933334,"Möhren 13",NA,"",20,"MP 22","",33.9,28.4,30825,"gp_mid",14.66,43.46,"305",31.15,1
"60692",92028,"col","",3.3,45.766666,"Vertaizon",NA,"Limagne",1,"Early Oligocene","",33.9,28.4,30969,"gp_mid",7.52,40.58,"305",31.15,1
"60814",92154,"col","Flint River",-81.62278,32.822498,"M 326",NA,"",1,"Rupelian","",33.9,28.1,11845,"gp_mid",-68.17,35.49,"109",31,1
"60815",92155,"col","Flint River",-81.62278,32.822498,"M 327",NA,"",1,"Rupelian","",33.9,28.1,11845,"gp_mid",-68.17,35.49,"109",31,1
"60890",92231,"col","",-1.033333,43.616669,"Gaas",NA,"",25,"Rupelian","",33.9,28.1,31073,"gp_mid",3.35,38.64,"305",31,1
"63885",95898,"col","Alzey",7.716667,49.833332,"Welschberg",NA,"",182,"Rupelian","",33.9,28.1,32561,"gp_mid",11.86,44.46,"315",31,1
"64220",96458,"col","Tard Clay",19.083332,47.466667,"Ujlak clay pits",NA,"brick kiln clay pits Ujlak, Nagybatony district, Budapest, Hungary",1,"Early Oligocene","",33.9,28.4,32745,"gp_mid",23.37,38.81,"308",31.15,1
"64324",96610,"col","",8.433333,50.016666,"Florsheim Clay Pit",NA,"",1,"Rupelian","",33.9,28.1,32745,"gp_mid",12.53,44.62,"315",31,1
"65271",97980,"col","",16.333889,50.7225,"Borehole Gorzow Wielkopolski",NA,"",3,"Rupelian","",33.9,28.1,31843,"gp_mid",19.67,45.1,"305",31,1
"66082",98853,"col","Doberg",8.271389,52.28278,"Astrup",NA,"",1,"Rupelian","",33.9,28.1,34059,"gp_mid",12.56,46.89,"315",31,1
"66203",98979,"col","Trent",-77.044167,35.108612,"M 778",NA,"",1,"Rupelian","",33.9,28.1,11845,"gp_mid",-63.04,37.11,"109",31,1
"66309",99086,"col","Cooper marl",-79.931114,32.776669,"M 900",NA,"",4,"Rupelian","",33.9,28.1,11845,"gp_mid",-66.46,35.21,"109",31,1
"75529",111366,"col","Borgloon",5.333333,50.799999,"Nachtegaalstraat/Dorpstraat [Alden Biesen Sand, Borgloon Fm]",NA,"",55,"Rupelian","",33.9,28.1,36498,"gp_mid",9.8,45.52,"315",31,1
"75530",111367,"col","Borgloon",5.464167,50.818333,"Vrijhern [Alden Biesen Sand, Borgloon Fm]",NA,"",21,"Rupelian","",33.9,28.1,36498,"gp_mid",9.92,45.53,"315",31,1
"75531",111368,"col","Borgloon",5.643611,50.893612,"Lanaken [Alden Biesen Sand, Borgloon Fm]",NA,"",22,"Rupelian","",33.9,28.1,36498,"gp_mid",10.09,45.6,"315",31,1
"75534",111371,"col","Borgloon",5.343611,50.805,"Alden Biesen Sand, Borgloon Fm",NA,"",61,"Rupelian","",33.9,28.1,36498,"gp_mid",9.81,45.53,"315",31,1
"75536",111373,"col","Borgloon",4.5,51,"Boutersem Sand (sandy facies), Borgloon Fm",NA,"",32,"Rupelian","",33.9,28.1,36498,"gp_mid",9.07,45.75,"315",31,1
"77587",113962,"col","",26.365,46.944,"Cozla (Piatra Neamt)",NA,"",53,"Rupelian","",33.9,28.1,54683,"gp_mid",28.59,41.16,"302",31,1
"77589",113964,"col","",9.909,50.506001,"Sieblos (Hassencamp collection)",NA,"",16,"Early Oligocene","",33.9,28.4,39168,"gp_mid",13.89,45.06,"305",31.15,1
"77614",113990,"col","Calcàries de Tàrrega",1.317,41.643002,"Sant Pere dels Arquells",NA,"Cervera, Bassin de l'Ebre",4,"Early Oligocene","",33.9,28.4,36994,"gp_mid",5.51,36.91,"304",31.15,1
"77640",114016,"col","",5.816,43.900002,"Dauphin, Bois d'Asson (MNHN coll.)",NA,"",11,"Rupelian","",33.9,28.1,36994,"gp_mid",9.69,38.61,"305",31,1
"80678",117977,"col","",9.904167,48.424999,"Herrlingen 7",NA,"",7,"MP 22","",33.9,28.4,13113,"gp_mid",13.74,42.98,"305",31.15,1
"80846",118196,"col","",9.904167,48.424999,"Ehrenstein 12",NA,"",16,"MP 22","",33.9,28.4,13113,"gp_mid",13.74,42.98,"305",31.15,1
"84214",122231,"col","Gornji Grad",14.816667,46.283333,"Krznar",NA,"Reef 3189",9,"Early Oligocene","",33.9,28.4,38907,"gp_mid",19.38,38.38,"307",31.15,1
"84215",122232,"col","Gornji Grad",14.716667,46.333332,"Korenovec",NA,"Reef 3189",4,"Early Oligocene","",33.9,28.4,38907,"gp_mid",19.31,38.44,"307",31.15,1
"84216",122233,"col","Gornji Grad",14.75,46.383331,"Dupeljnik-3",NA,"Reef 3189",7,"Early Oligocene","",33.9,28.4,38907,"gp_mid",19.35,38.49,"307",31.15,1
"84217",122234,"col","Gornji Grad",14.75,46.383331,"Dupeljnik-6",NA,"Reef 3189",8,"Early Oligocene","",33.9,28.4,38907,"gp_mid",19.35,38.49,"307",31.15,1
"84420",122535,"col","",5.583333,43.849998,"Céreste (Nancy coll)",NA,"",63,"MP 23","",33.9,28.4,38999,"gp_mid",9.47,38.57,"305",31.15,1
"84422",122536,"col","",5.583333,43.849998,"Céreste (Goret Collection)",NA,"",18,"MP 23","",33.9,28.4,38999,"gp_mid",9.47,38.57,"305",31.15,1
"84652",122984,"col","",5.583333,43.849998,"Céreste (MNHN coll)",NA,"",17,"MP 23","",33.9,28.4,39218,"gp_mid",9.47,38.57,"305",31.15,1
"84724",123060,"col","Latdorf",11.8,51.799999,"Latdorf",NA,"",1,"Rupelian","",33.9,28.1,39323,"gp_mid",15.68,46.29,"315",31,1
"85393",123833,"col","Nove Sedlo",14.155833,50.631668,"Holy Kluk hill",NA,"",1,"Early Oligocene","",33.9,28.4,39833,"gp_mid",17.71,45.06,"305",31.15,1
"85456",123913,"col","",5.583333,43.849998,"Céreste (Lutz NHMM coll)",NA,"",12,"MP 23","",33.9,28.4,39892,"gp_mid",9.47,38.57,"305",31.15,1
"85559",124095,"col","",5.933333,50.916668,"Emma III",NA,"",1,"Early Oligocene","",33.9,28.4,39907,"gp_mid",10.35,45.61,"315",31.15,1
"85698",124264,"col","",11.583333,52.033333,"Osterweddingen",NA,"",1,"Early Oligocene","",33.9,28.4,40043,"gp_mid",15.5,46.53,"315",31.15,1
"85788",124375,"col","",18.916668,47.583332,"Solymar",NA,"",1,"Rupelian","",33.9,28.1,40123,"gp_mid",23.26,38.95,"308",31,1
"85789",124376,"col","",19.016666,47.416668,"Budafok",NA,"",1,"Rupelian","",33.9,28.1,40123,"gp_mid",23.29,38.77,"308",31,1
"85790",124377,"col","",19.033333,47.533333,"Budapest, Ujlaki Teglagyar",NA,"",19,"Rupelian","",33.9,28.1,40123,"gp_mid",23.34,38.88,"308",31,1
"86970",125914,"col","",14.237,50.756001,"Near Bechlejovice",NA,"",1,"Rupelian","",33.9,28.1,40866,"gp_mid",17.79,45.18,"305",31,1
"87010",183361,"col","",7.170278,50.544445,"Heimersheim",NA,"",10,"Rupelian","",33.9,28.1,61205,"gp_mid",11.43,45.19,"315",31,1
"87462",126561,"col","Bilzen",5.635338,50.851151,"Albertkanaal",NA,"",1,"Rupelian","",33.9,28.1,41045,"gp_mid",10.07,45.56,"315",31,1
"88110",127630,"col","",3.195,45.665001,"Corent (MNHN collection)",NA,"",36,"Rupelian","",33.9,28.1,49082,"gp_mid",7.41,40.48,"305",31,1
"92425",133619,"col","",-75.183334,3.066667,"Chaparral Alto San Jose 2",NA,"UCMP V4409-V4410",2,"Early Oligocene","",33.9,28.4,43026,"gp_mid",-65.57,3.33,"201",31.15,1
"94176",135687,"col","Ashley",-80.118889,32.893333,"Middleton Oaks Road",NA,"",1,"Rupelian","",33.9,28.1,43401,"gp_mid",-66.62,35.36,"109",31,1
"96709",138762,"col","",14.24,50.759998,"Creek near Bechlejovice",NA,"",1,"Rupelian","",33.9,28.1,44459,"gp_mid",17.8,45.19,"305",31,1
"97831",139949,"col","",3.08,45.674999,"Chadrat, Auvergne",NA,"",2,"Rupelian","",33.9,28.1,45154,"gp_mid",7.31,40.5,"305",31,1
"100696",143461,"col","Calcaries de Tàrrega",1.166944,41.650276,"El Talladell, Tàrrega",NA,"",6,"Early Oligocene","",33.9,28.4,46475,"gp_mid",5.37,36.92,"304",31.15,1
"101366",144261,"col","Ashley",-80.197777,32.974167,"ChM PV 4282",NA,"",1,"Rupelian","",33.9,28.1,46645,"gp_mid",-66.69,35.45,"109",31,1
"103056",147003,"col","",8.561944,44.603611,"Cassinelle",NA,"Galanti",6,"Rupelian","",33.9,28.1,47473,"gp_mid",13.44,37.88,"307",31,1
"104342",148387,"col","",5.473333,43.852222,"Between Céreste and Apt",NA,"",1,"MP 24","",33.9,28.4,47634,"gp_mid",9.37,38.58,"305",31.15,1
"107695",152486,"col","",3.125,45.709999,"Gergovia (Lecoq collection)",NA,"",2,"Rupelian","",33.9,28.1,49082,"gp_mid",7.35,40.53,"305",31,1
"107696",152487,"col","",3.195,45.665001,"Corent (Fouilhoux collection)",NA,"",6,"Rupelian","",33.9,28.1,49082,"gp_mid",7.41,40.48,"305",31,1
"107697",152488,"col","",3.195,45.665001,"Corent (Oustalet collection)",NA,"",5,"Rupelian","",33.9,28.1,49082,"gp_mid",7.41,40.48,"305",31,1
"107700",152491,"col","",3.195,45.665001,"Corent (Lecoq collection)",NA,"",9,"Rupelian","",33.9,28.1,49082,"gp_mid",7.41,40.48,"305",31,1
"107701",152492,"col","",3.12,45.869999,"Côte Ladoux (Lecoq collection)",NA,"",1,"Rupelian","",33.9,28.1,49082,"gp_mid",7.36,40.69,"305",31,1
"107794",152626,"col","Alzey",7.7184,49.818901,"Heimberg (Waldböckelheim)",NA,"",1,"Rupelian","",33.9,28.1,48405,"gp_mid",11.87,44.45,"315",31,1
"107808",152654,"col","Dín",14.37,50.785,"Freudenhain",NA,"",1,"Rupelian","",33.9,28.1,49207,"gp_mid",17.91,45.21,"305",31,1
"108917",154345,"col","Ashley",-80.097504,33.025276,"Limehouse Branch, east bank",NA,"",1,"Rupelian","",33.9,28.1,50198,"gp_mid",-66.57,35.48,"109",31,1
"109631",155208,"col","",5.816,43.900002,"Dauphin, Bois d'Asson (Henrotay coll.)",NA,"",4,"Rupelian","",33.9,28.1,50595,"gp_mid",9.69,38.61,"305",31,1
"109681",155295,"col","",17.504999,49.535,"Veselíko",NA,"",1,"Rupelian","",33.9,28.1,50649,"gp_mid",20.67,43.88,"305",31,1
"109682",155296,"col","",14.237,50.756001,"Bechlejovice (Valicek collection)",NA,"",1,"Rupelian","",33.9,28.1,50649,"gp_mid",17.79,45.18,"305",31,1
"109893",155667,"col","",5.583333,43.849998,"Céreste (Coullet coll)",NA,"",5,"MP 23","",33.9,28.4,50857,"gp_mid",9.47,38.57,"305",31.15,1
"109915",155713,"col","",5.583333,43.849998,"Céreste (Tubingen coll)",NA,"",1,"MP 23","",33.9,28.4,50885,"gp_mid",9.47,38.57,"305",31.15,1
"110054",155936,"col","Suwannee Limestone",-82.389999,28.559999,"USGS Loc. 12321 - Brooksville [Suwannee Lmst]",NA,"",2,"Rupelian","",33.9,28.1,32912,"gp_mid",-69.76,31.39,"109",31,1
"110617",156997,"col","Calcaires de Vacheres",5.806,43.898998,"Sainte Maime (Gentilini collection)",NA,"",3,"Rupelian","",33.9,28.1,51665,"gp_mid",9.68,38.61,"305",31,1
"110710",157228,"col","",5.583333,43.849998,"Céreste (Descimon coll)",NA,"",1,"MP 23","",33.9,28.4,51555,"gp_mid",9.47,38.57,"305",31.15,1
"110748",157327,"col","",5.583333,43.849998,"Céreste (PNR Luberon collection)",NA,"",6,"MP 23","",33.9,28.4,51680,"gp_mid",9.47,38.57,"305",31.15,1
"112487",159936,"col","Trent",-77.139442,35.084999,"Sample CR-J [Trent Fm]",NA,"",1,"Rupelian","",33.9,28.1,52211,"gp_mid",-63.15,37.1,"109",31,1
"112489",159938,"col","Trent",-77.188889,35.03278,"Sample J-3 - Bells Landing, Trent River [Trent Fm]",NA,"",1,"Rupelian","",33.9,28.1,52211,"gp_mid",-63.21,37.06,"109",31,1
"112490",159939,"col","Trent",-77.19278,35.02861,"Sample J-21 - Pollocksville [Trent Fm]",NA,"",1,"Rupelian","",33.9,28.1,52211,"gp_mid",-63.21,37.05,"109",31,1
"113023",160671,"col","Kiscell",19.083332,47.5,"Ujlak brickyard [Kiscell Fm]",NA,"",1,"Rupelian","",33.9,28.1,52420,"gp_mid",23.38,38.84,"308",31,1
"113509",161260,"col","",16.124001,49.417999,"Jesuitengraben, near Kundratice",NA,"",1,"Rupelian","",33.9,28.1,52555,"gp_mid",19.42,43.8,"305",31,1
"113660",161440,"col","",130.883331,33.883331,"Kitakyushu (Loc. 34)",NA,"",13,"Early Oligocene","",33.9,28.4,52598,"gp_mid",127.67,36.37,"610",31.15,1
"115653",164936,"col","",5.816,43.900002,"Bois d'Asson (Réserve Géologique du Lubéron coll.)",NA,"",6,"Rupelian","",33.9,28.1,53926,"gp_mid",9.69,38.61,"305",31,1
"116218",165736,"col","Ashley",-80.062775,32.870556,"Covington Estates",NA,"",1,"Rupelian","",33.9,28.1,54174,"gp_mid",-66.57,35.33,"109",31,1
"118637",169856,"col","",9.909,50.506001,"Sieblos (SMF collection)",NA,"",4,"Early Oligocene","",33.9,28.4,55423,"gp_mid",13.89,45.06,"305",31.15,1
"121260",174689,"col","",21.611111,49.736942,"Winnica",NA,"",5,"Rupelian","",33.9,28.1,56725,"gp_mid",24.37,44.01,"305",31,1
"122448",176382,"col","Yongning",108.316666,22.816668,"Liantang",NA,"Nanning",1,"Early Oligocene","",33.9,28.4,58015,"gp_mid",110.07,20.81,"611",31.15,1
"122501",176463,"col","Calcaire à Astéries",-1.054444,43.616943,"Espibos, Gaas",NA,"",27,"Rupelian","",33.9,28.1,55728,"gp_mid",3.33,38.64,"305",31,1
"123270",177495,"col","",9.267222,51.045834,"Borken",NA,"Altenburg IV quarry; Melanian clay; Melanienton",6,"Early Oligocene","",33.9,28.4,59683,"gp_mid",13.36,45.62,"315",31.15,1
"123294",177584,"col","",3.24,45.458057,"Saint-Germain-Lembron",NA,"",2,"Rupelian","",33.9,28.1,58591,"gp_mid",7.44,40.28,"305",31,1
"123484",178064,"col","Alzey",7.716667,49.816666,"Nyst (Waldböckelheim)",NA,"",1,"Rupelian","",33.9,28.1,58906,"gp_mid",11.86,44.45,"315",31,1
"123488",178068,"col","Bilzen",5.55,50.833332,"Kleine-Spauwen",NA,"Klein-Spauwen",2,"Rupelian","",33.9,28.1,58906,"gp_mid",10,45.55,"315",31,1
"123547",178148,"col","",3.835,43.745399,"Molières (Cucullemys crocheti type locality)",NA,"",1,"Rupelian","",33.9,28.1,58591,"gp_mid",7.85,38.54,"305",31,1
"123548",178149,"col","Calcaires de Vacheres?",5.793889,44.009445,"Fontienne",NA,"",1,"Rupelian","",33.9,28.1,58591,"gp_mid",9.68,38.72,"305",31,1
"124712",179661,"col","Muschelsandstein",8.665833,49.552223,"Weinheim",NA,"",1,"Rupelian","",33.9,28.1,57818,"gp_mid",12.7,44.15,"305",31,1
"124755",179714,"col","Ligurian",8.766667,44.566666,"Carpeneto",NA,"",1,"Rupelian","",33.9,28.1,59230,"gp_mid",13.6,37.81,"307",31,1
"124981",179941,"col","",4.374,51.202999,"E3 tunnel, river Scheldt, Antwerp",NA,"",3,"Rupelian","",33.9,28.1,29207,"gp_mid",8.97,45.96,"315",31,1
"125123",180396,"col","Nakazato",129.75,33.200001,"Fourth Pit of the Ikeno Coal Mine",NA,"Ohno Town",1,"Early Oligocene","",33.9,28.4,59871,"gp_mid",126.65,35.55,"610",31.15,1
"125180",180453,"col","Uzunbas",51.720001,43.82,"Uzunbas ravine, Karagie Depression, Mangyshlak",NA,"",1,"Rupelian","",33.9,28.1,35921,"gp_mid",51.79,38.36,"402",31,1
"125657",181060,"col","",3.32,45.349998,"Bournoncle-Saint-Pierre",NA,"",1,"Early Oligocene","",33.9,28.4,60141,"gp_mid",7.5,40.16,"305",31.15,1
"125692",181102,"col","",3.76,43.919998,"Montoulieu",NA,"",1,"Rupelian","",33.9,28.1,60047,"gp_mid",7.8,38.72,"305",31,1
"125704",181114,"col","",2.67,49.200001,"Yvillers",NA,"",1,"Rupelian","",33.9,28.1,60047,"gp_mid",7.25,44.04,"315",31,1
"125705",181115,"col","",3.45,46.099998,"Vernet et Abrest",NA,"",3,"Rupelian","",33.9,28.1,60047,"gp_mid",7.68,40.91,"305",31,1
"125984",181634,"col","",4.086,46.095001,"La Benissons-Dieu",NA,"La Bénissons-Dieu",3,"Early Oligocene","",33.9,28.4,60047,"gp_mid",8.27,40.88,"305",31.15,1
"125995",181645,"col","",2.166,48.970001,"Cormeilles-en-Parisis",NA,"",1,"Rupelian","",33.9,28.1,60047,"gp_mid",6.77,43.83,"305",31,1
"125996",181646,"col","",3.387,46.269001,"Crechy",NA,"",18,"Rupelian","",33.9,28.1,60047,"gp_mid",7.64,41.08,"305",31,1
"126045",181764,"col","Usti",14.105,50.584999,"Kundratice near Litomerice (SMMG collection)",NA,"",1,"Rupelian","",33.9,28.1,60441,"gp_mid",17.67,45.01,"305",31,1
"126339",182155,"col","Ashley",-79.986603,32.834515,"Northbridge Park, Ashley Fm.",NA,"",7,"Rupelian","",33.9,28.1,73281,"gp_mid",-66.5,35.28,"109",31,1
"126392",182499,"col","Cemalettin",34.792778,41.529446,"BOY-2, Boyabat",NA,"",1,"Rupelian","",33.9,28.1,60699,"gp_mid",36.29,35.74,"511",31,1
"126397",182504,"col","",34.870556,40.848057,"Kargi 1",NA,"",4,"Early Oligocene","",33.9,28.4,60701,"gp_mid",36.37,35.06,"510",31.15,1
"126399",182510,"col","Lignite-Sandstone",26.9,38.150002,"Karacali",NA,"",5,"Early Oligocene","",33.9,28.4,60703,"gp_mid",28.97,32.36,"504",31.15,1
"126400",182511,"col","Lignite-Sandstone",26.9,38.150002,"Pasakoy, west of the village of Ahmetpasa",NA,"",7,"Early Oligocene","",33.9,28.4,60703,"gp_mid",28.97,32.36,"504",31.15,1
"126401",182512,"col","Lignite-Sandstone",26.9,38.150002,"1.5 km. northeast of the village of Haskoy",NA,"",7,"Early Oligocene","",33.9,28.4,60703,"gp_mid",28.97,32.36,"504",31.15,1
"126900",183351,"col","",7.37,47.34,"Poillat",NA,"eastern bank of the Birse River, near Courrendlin",8,"Rupelian","",33.9,28.1,61204,"gp_mid",11.36,41.99,"305",31,1
"126902",183353,"col","",8.030278,49.725555,"Offenheim",NA,"",1,"Early Oligocene","",33.9,28.4,61204,"gp_mid",12.14,44.35,"315",31.15,1
"126905",183356,"col","",7.495833,47.338612,"Dürrenberg",NA,"Durrenberg; Mervelier",10,"Rupelian","",33.9,28.1,61205,"gp_mid",11.47,41.98,"305",31,1
"126915",183371,"col","",7.558056,47.252777,"Balm",NA,"",18,"Rupelian","",33.9,28.1,61205,"gp_mid",11.52,41.89,"305",31,1
"126916",183372,"col","",7.4,47.183334,"Grenchen-1",NA,"",2,"Rupelian","",33.9,28.1,61205,"gp_mid",11.38,41.83,"305",31,1
"126918",183374,"col","",1.579444,48.588612,"Gas",NA,"",1,"Rupelian","",33.9,28.1,61205,"gp_mid",6.2,43.47,"305",31,1
"126919",183375,"col","",1.579444,48.588612,"Maintenon",NA,"",1,"Rupelian","",33.9,28.1,61205,"gp_mid",6.2,43.47,"305",31,1
"126920",183376,"col","",5.166667,44,"Les Chapelins",NA,"",5,"Rupelian","",33.9,28.1,61205,"gp_mid",9.1,38.74,"305",31,1
"126959",183510,"col","",6.033889,45.904999,"Lovagny",NA,"",6,"MP 21","MP 22",33.9,28.4,61260,"gp_mid",10.03,40.61,"305",31.15,1
"126966",183517,"col","",10.883333,48.933334,"Möhren 20",NA,"",9,"MP 21","",33.9,28.4,61260,"gp_mid",14.66,43.46,"305",31.15,1
"126967",183518,"col","",10.883333,48.933334,"Möhren 19",NA,"",9,"MP 21","",33.9,28.4,61260,"gp_mid",14.66,43.46,"305",31.15,1
"126968",183519,"col","",10.883333,48.933334,"Zandt 1",NA,"Zdant 1",1,"MP 22","",33.9,28.4,61260,"gp_mid",14.66,43.46,"305",31.15,1
"126969",183520,"col","",10.883333,48.933334,"Haag 2",NA,"",4,"MP 22","",33.9,28.4,61260,"gp_mid",14.66,43.46,"305",31.15,1
"126975",183526,"col","",10.971944,49.030556,"Grafenmühle 6",NA,"",2,"Early Oligocene","",33.9,28.4,61311,"gp_mid",14.75,43.55,"305",31.15,1
"126976",183527,"col","",10.971944,49.030556,"Grafenmühle 7",NA,"",1,"Early Oligocene","",33.9,28.4,61311,"gp_mid",14.75,43.55,"305",31.15,1
"126977",183528,"col","Unidad Detritica Inferior",-2.785285,40.047855,"Valdecollares",NA,"",7,"Early Oligocene","",33.9,28.4,26793,"gp_mid",1.6,35.44,"304",31.15,1
"126980",183531,"col","Borysthenic",34.116669,47.683334,"Pokrov (Oligocene)",NA,"",7,"Rupelian","",33.9,28.1,61526,"gp_mid",35.61,41.89,"302",31,1
"126993",183544,"col","",7.257222,47.310833,"1 km NW of Soulce",NA,"",10,"MP 23","",33.9,28.4,61323,"gp_mid",11.26,41.96,"305",31.15,1
"126994",183545,"col","",7.342222,47.353611,"Beuchille",NA,"",2,"MP 23","",33.9,28.4,61323,"gp_mid",11.34,42,"305",31.15,1
"126995",183546,"col","",7.356111,47.344166,"Pré Chevalier",NA,"Pre Chevalier",1,"MP 23","",33.9,28.4,61323,"gp_mid",11.35,41.99,"305",31.15,1
"127099",183666,"col","Borgloon",4.983333,50.866669,"Hoeleden",NA,"",8,"Early Oligocene","",33.9,28.4,61354,"gp_mid",9.49,45.6,"315",31.15,1
"127100",183667,"col","",10.883333,48.933334,"Möhren 7",NA,"",1,"MP 21","",33.9,28.4,61356,"gp_mid",14.66,43.46,"305",31.15,1
"127101",183668,"col","",10.883333,48.933334,"Möhren 31",NA,"",1,"MP 21","",33.9,28.4,61356,"gp_mid",14.66,43.46,"305",31.15,1
"127108",183675,"col","",10.883333,48.933334,"Möhren 21",NA,"",1,"MP 22","",33.9,28.4,61364,"gp_mid",14.66,43.46,"305",31.15,1
"127109",183676,"col","",10.883333,48.933334,"Möhren 25",NA,"",1,"MP 22","",33.9,28.4,61364,"gp_mid",14.66,43.46,"305",31.15,1
"127110",183677,"col","Calcaires de Vacheres",5.516667,43.866669,"Locus J, Saint Martin de Castillon",NA,"Saint-Martin-de-Castillon; St-Martin-de-Castillon; Calavon",1,"MP 23","MP 24",33.9,28.4,61364,"gp_mid",9.41,38.59,"305",31.15,1
"127111",183678,"col","Calcaires de Vacheres",5.516667,43.866669,"Locus F, Saint Martin de Castillon",NA,"Saint-Martin-de-Castillon; St-Martin-de-Castillon; Calavon",1,"MP 24","",33.9,28.4,61364,"gp_mid",9.41,38.59,"305",31.15,1
"127113",183680,"col","",10.683333,48.799999,"Bernloch 1",NA,"",3,"MP 23","",33.9,28.4,61364,"gp_mid",14.47,43.33,"305",31.15,1
"127397",183974,"col","",9.904167,48.424999,"Herrlingen 1",NA,"",1,"MP 22","",33.9,28.4,61442,"gp_mid",13.74,42.98,"305",31.15,1
"127505",184087,"col","",5.816,43.900002,"Dauphin (Réserve Géologique du Lubéron coll.)",NA,"",4,"Rupelian","",33.9,28.1,61455,"gp_mid",9.69,38.61,"305",31,1
"127506",184088,"col","Calcaires de Vacheres",5.806,43.898998,"Sainte Maime (Réserve Géologique du Lubéron coll.)",NA,"",1,"Rupelian","",33.9,28.1,61455,"gp_mid",9.68,38.61,"305",31,1
"127507",184089,"col","",5.57,43.834999,"Barbeiras",NA,"",1,"Rupelian","",33.9,28.1,61455,"gp_mid",9.46,38.56,"305",31,1
"127508",184090,"col","",3.08,45.674999,"Chadrat, Auvergne (FSL collection)",NA,"",2,"Rupelian","",33.9,28.1,61455,"gp_mid",7.31,40.5,"305",31,1
"127510",184092,"col","",10.883333,48.933334,"Möhren 4",NA,"",1,"MP 21","",33.9,28.4,61489,"gp_mid",14.66,43.46,"305",31.15,1
"127513",184095,"col","",8.850556,47.93111,"Liptingen",NA,"",1,"MP 22","",33.9,28.4,52988,"gp_mid",12.75,42.52,"305",31.15,1
"127691",184406,"col","",27.321667,41.042778,"Demirli",NA,"Demirlik",1,"Early Oligocene","",33.9,28.4,61765,"gp_mid",28.7,31.27,"308",31.15,1
"127712",184460,"col","",8.850556,47.93111,"Liptingen 17",NA,"",1,"MP 21","",33.9,28.4,61807,"gp_mid",12.75,42.52,"305",31.15,1
"127713",184461,"col","",8.850556,47.93111,"Liptingen 1A",NA,"",6,"MP 21","",33.9,28.4,61807,"gp_mid",12.75,42.52,"305",31.15,1
"127714",184462,"col","",9.904167,48.424999,"Ehrenstein 8",NA,"",7,"MP 22","",33.9,28.4,61807,"gp_mid",13.74,42.98,"305",31.15,1
"127715",184463,"col","",9.904167,48.424999,"Ehrenstein 10",NA,"",5,"MP 22","",33.9,28.4,61807,"gp_mid",13.74,42.98,"305",31.15,1
"127716",184464,"col","",9.904167,48.424999,"Ehrenstein 11",NA,"",4,"MP 22","",33.9,28.4,61807,"gp_mid",13.74,42.98,"305",31.15,1
"127719",184467,"col","",14.348611,50.593334,"Úštěk",NA,"Ustek; eastern part of České Středohoří hills",3,"MP 21","",33.9,28.4,61808,"gp_mid",17.88,45.02,"305",31.15,1
"127936",184763,"col","",-1.363056,50.737778,"Thorness Bay, Bembridge Marls (Early Oligocene)",NA,"",3,"Rupelian","",33.9,28.1,61794,"gp_mid",3.75,45.76,"315",31,1
"128389",185488,"col","Matt",9.153114,49.982391,"Landesplattenberg slate quarry",NA,"",1,"Rupelian","",33.9,28.1,62187,"gp_mid",13.17,44.56,"305",31,1
"128391",185490,"col","",54.039722,29.125278,"Istehbanat",NA,"",1,"Rupelian","",33.9,28.1,62190,"gp_mid",52.1,16.45,"503",31,1
"128481",185618,"col","",47.46096,42.872932,"Talgi River",NA,"",2,"Early Oligocene","",33.9,28.4,62236,"gp_mid",47.92,37.29,"402",31.15,1
"128851",186443,"col","",8.850556,47.93111,"Liptingen 1C",NA,"",6,"MP 21","",33.9,28.4,62503,"gp_mid",12.75,42.52,"305",31.15,1
"128860",186452,"col","Pshekha Horizon",41.938332,44.543888,"Kuban River",NA,"",6,"Rupelian","",33.9,28.1,59519,"gp_mid",42.79,38.84,"302",31,1
"128861",186453,"col","",41.877499,44.184444,"Malyi Zelenchuk",NA,"",0,"Rupelian","",33.9,28.1,59519,"gp_mid",42.74,38.48,"302",31,1
"128880",186472,"col","",26.360001,46.919998,"Cernegura",NA,"",1,"Rupelian","",33.9,28.1,59519,"gp_mid",28.59,41.14,"302",31,1
"128893",186506,"col","",8.850556,47.93111,"Liptingen 1B",NA,"",4,"MP 21","",33.9,28.4,62519,"gp_mid",12.75,42.52,"305",31.15,1
"128894",186507,"col","",8.850556,47.93111,"Liptingen 15",NA,"",5,"MP 21","",33.9,28.4,62519,"gp_mid",12.75,42.52,"305",31.15,1
"128895",186508,"col","",8.850556,47.93111,"Liptingen 16",NA,"",3,"MP 21","",33.9,28.4,62519,"gp_mid",12.75,42.52,"305",31.15,1
"128950",186589,"col","",22.019501,49.934265,"Hermanowa",NA,"",23,"Rupelian","",33.9,28.1,62556,"gp_mid",24.74,44.2,"305",31,1
"128980",186633,"col","",20.629812,49.513851,"Przysietnica",NA,"",2,"Rupelian","",33.9,28.1,62582,"gp_mid",23.48,43.8,"305",31,1
"128981",186634,"col","",22.739149,49.713905,"Kniazyce",NA,"",1,"Rupelian","",33.9,28.1,62582,"gp_mid",25.38,43.97,"305",31,1
"128982",186636,"col","Törökbálint",18.70874,47.627758,"Máriahalom",NA,"",24,"Rupelian","",33.9,28.1,62585,"gp_mid",23.1,39.03,"308",31,1
"129007",186670,"col","Ashley",-79.820419,32.924141,"Wando River + Highway 41 bridge",NA,"",2,"Rupelian","",33.9,28.1,62600,"gp_mid",-66.31,35.34,"109",31,1
"129284",186979,"col","",9.044167,44.756111,"Vigoponzo",NA,"Casa del Piano",6,"Rupelian","",33.9,28.1,62676,"gp_mid",13.91,37.94,"307",31,1
"129285",186980,"col","Antognola",9.116667,44.849998,"Pizzocorno",NA,"",5,"Rupelian","",33.9,28.1,62676,"gp_mid",14,38.02,"307",31,1
"129286",186981,"col","",6.511667,43.847778,"Castellane",NA,"",3,"Rupelian","",33.9,28.1,62676,"gp_mid",10.33,38.53,"305",31,1
"129287",186982,"col","Pouzdrany Marls",16.616667,48.933334,"Pouzdrany",NA,"",4,"Rupelian","",33.9,28.1,62676,"gp_mid",19.84,43.3,"305",31,1
"129288",186983,"col","Yrieu Sands",-1.424832,43.570457,"Moulin d'Yrieu",NA,"",1,"Rupelian","",33.9,28.1,62676,"gp_mid",2.98,38.61,"305",31,1
"129335",187032,"col","",4.421918,51.07729,"Rumst",NA,"",1,"Rupelian","",33.9,28.1,62739,"gp_mid",9,45.83,"315",31,1
"129562",187379,"col","",26.382427,46.928978,"Pietricica (Piatra Neamt)",NA,"",116,"Rupelian","",33.9,28.1,62863,"gp_mid",28.61,41.15,"302",31,1
"129563",187380,"col","",26.359255,46.915493,"Cernegura (Piatra Neamt)",NA,"",7,"Rupelian","",33.9,28.1,62863,"gp_mid",28.58,41.13,"302",31,1
"129940",188100,"col","Ashley",-79.843613,32.894444,"Wando River",NA,"",4,"Rupelian","",33.9,28.1,63114,"gp_mid",-66.34,35.32,"109",31,1
"130210",188930,"col","Bassevelde Sand",4.352004,51.08213,"Ruisbroek",NA,"",23,"Rupelian","",33.9,28.1,63422,"gp_mid",8.94,45.84,"315",31,1
"130283",189032,"col","",8.382778,44.332222,"Cadibona (Savona)",NA,"",1,"Early Oligocene","",33.9,28.4,62933,"gp_mid",13.19,37.66,"307",31.15,1
"130643",189577,"col","",8.665833,49.552223,"Neumühle bei Weinheim",NA,"",6,"Rupelian","",33.9,28.1,63725,"gp_mid",12.7,44.15,"305",31,1
"130742",189779,"col","Ashley",-79.843613,32.894444,"Wando River, Runnymede Marl",NA,"",1,"Rupelian","",33.9,28.1,63780,"gp_mid",-66.34,35.32,"109",31,1
"131265",190736,"col","",22.499722,42.983891,"Valniš",NA,"",12,"Early Oligocene","",33.9,28.4,64106,"gp_mid",25.01,33.9,"308",31.15,1
"131877",192044,"col","Asmari",51.654999,30.726389,"UCMP D7280",NA,"",5,"Early Oligocene","",33.9,28.4,64917,"gp_mid",50.12,18.25,"503",31.15,1
"132014",192385,"col","Alzey",7.843889,49.809166,"Bad Münster am Stein-Ebernburg",NA,"",1,"Rupelian","",33.9,28.1,65102,"gp_mid",11.98,44.44,"315",31,1
"132499",193751,"col","",2.16,48.439999,"Étampes",NA,"",3,"MP 24","",33.9,28.4,65807,"gp_mid",6.71,43.3,"305",31.15,1
"132500",193752,"col","",5.055,43.919998," L'Isle-sur-la-Sorgue",NA,"",1,"MP 22","MP 23",33.9,28.4,65807,"gp_mid",8.99,38.66,"305",31.15,1
"132801",194579,"col","Yongning",108.316666,22.816668,"Yongning (lower member)",NA,"Nanning",2,"Early Oligocene","",33.9,28.4,66094,"gp_mid",110.07,20.81,"611",31.15,1
"133997",196836,"col","",22.467501,42.993332,"Strelac-1",NA,"Strelac 1",10,"Early Oligocene","",33.9,28.4,67033,"gp_mid",24.98,33.91,"308",31.15,1
"133998",196837,"col","",22.464722,42.990276,"Strelac-2",NA,"Strelac 2",8,"Early Oligocene","",33.9,28.4,67033,"gp_mid",24.98,33.91,"308",31.15,1
"133999",196838,"col","",22.463057,42.988888,"Strelac-3",NA,"Strelac 3",11,"Early Oligocene","",33.9,28.4,67033,"gp_mid",24.98,33.91,"308",31.15,1
"134002",196840,"col","",22.485001,43.003887,"Raljin",NA,"",9,"Early Oligocene","",33.9,28.4,67033,"gp_mid",25,33.92,"308",31.15,1
"134115",197060,"col","Ashley",-80.403099,33.053421,"Givhans Ferry State Park, upstream 3 km",NA,"",1,"Rupelian","",33.9,28.1,49279,"gp_mid",-66.88,35.55,"109",31,1
"134212",197232,"col","",3.981389,46.482777,"Digoin",NA,"",1,"Early Oligocene","",33.9,28.4,67211,"gp_mid",8.2,41.27,"305",31.15,1
"134217",197237,"col","",8.726944,50.144722,"Seckbach",NA,"",1,"MP 22","MP 24",33.9,28.4,67211,"gp_mid",12.8,44.74,"315",31.15,1
"134223",197243,"col","Jinnobaru",130.938889,33.953335,"Hikoshima, Jinnobaru Formation",NA,"",1,"Rupelian","",33.9,28.1,40126,"gp_mid",127.71,36.45,"610",31,1
"134240",197282,"col","Krosno",21.290001,49.43,"Brickyard at Sobniów",NA,"",1,"Rupelian","",33.9,28.1,67263,"gp_mid",24.07,43.71,"305",31,1
"135640",200124,"col","Chilikty",57.299721,46.648056,"Myneseksuyek",NA,"",2,"Early Oligocene","",33.9,28.4,68205,"gp_mid",56.71,41.39,"402",31.15,1
"135666",200275,"col","Ashley",-80.043671,32.874634,"Charleston International Airport drainage ditch",NA,"",1,"Rupelian","",33.9,28.1,71195,"gp_mid",-66.55,35.33,"109",31,1
"135708",200413,"col","",5.841111,43.99778,"Pont du Lauzon 1",NA,"Sigonce",3,"Early Oligocene","",33.9,28.4,68425,"gp_mid",9.72,38.71,"305",31.15,1
"135709",200414,"col","",5.841111,43.99778,"Pont du Lauzon 2",NA,"Sigonce",1,"Early Oligocene","",33.9,28.4,68425,"gp_mid",9.72,38.71,"305",31.15,1
"135710",200415,"col","",5.841111,43.99778,"Sigonce 1 et 2",NA,"Sigonce",1,"Early Oligocene","",33.9,28.4,68425,"gp_mid",9.72,38.71,"305",31.15,1
"135711",200416,"col","",5.841111,43.99778,"Sigonce Notre Dame",NA,"Sigonce",1,"Early Oligocene","",33.9,28.4,68425,"gp_mid",9.72,38.71,"305",31.15,1
"135712",200417,"col","",5.841111,43.99778,"Terrenoire",NA,"Sigonce",13,"Early Oligocene","",33.9,28.4,68425,"gp_mid",9.72,38.71,"305",31.15,1
"135715",200436,"col","",5.816,43.900002,"Villemus",NA,"",2,"Rupelian","",33.9,28.1,68425,"gp_mid",9.69,38.61,"305",31,1
"135858",200817,"col","Pabdeh",50.424999,32.345001,"Sepid daneh-Kavanak, near Babaheidar",NA,"",1,"Rupelian","",33.9,28.1,68763,"gp_mid",49.2,19.97,"503",31,1
"136846",202439,"col","Hakai",129.594437,33.202221,"Takasakiyama Beach",NA,"KSM-1",2,"Rupelian","",33.9,28.1,41705,"gp_mid",126.49,35.53,"610",31,1
"137727",203469,"col","",-82.518997,29.529968,"Archer",NA,"",2,"Early Oligocene","",33.9,28.4,16640,"gp_mid",-69.71,32.37,"109",31.15,1
"137729",203471,"col","",-82.976799,29.51289,"Santa Fe River",NA,"",1,"Early Oligocene","",33.9,28.4,16640,"gp_mid",-70.18,32.41,"109",31.15,1
"137731",203473,"col","",-82.30024,29.627632,"Nigger Sink",NA,"",1,"Early Oligocene","",33.9,28.4,16640,"gp_mid",-69.47,32.43,"109",31.15,1
"138141",204345,"col","Jinnobaru",130.882813,33.94138,"Shimonoseki",NA,"",1,"Rupelian","",33.9,28.1,61662,"gp_mid",127.66,36.43,"610",31,1
"138236",204501,"col","",22.485001,43.003887,"Raljin-B",NA,"Raljin B",5,"Early Oligocene","",33.9,28.4,70117,"gp_mid",25,33.92,"308",31.15,1
"138516",204942,"col","Ashley",-80.065094,32.843784,"Shadowmoss Golf Course Back 9",NA,"",1,"Rupelian","",33.9,28.1,70329,"gp_mid",-66.58,35.3,"109",31,1
"138601",205055,"col","Kishima",129.885864,33.453918,"KSM-16",NA,"",1,"Rupelian","",33.9,28.1,70369,"gp_mid",126.74,35.82,"610",31,1
"139986",206896,"col","Cobden Limestone",171.214996,-42.395,"Point Elizabeth, Greymouth",NA,"",1,"Rupelian","",33.9,28.1,71189,"gp_mid",-173.19,-49.21,"806",31,1
"139987",206897,"col","Cobden Limestone",171.210007,-42.439999,"Cobden Limestone Quarry, Greymouth",NA,"",1,"Rupelian","",33.9,28.1,71189,"gp_mid",-173.16,-49.25,"806",31,1
"140001",206943,"col","Chandler Bridge",-80.106941,32.8125,"COC AF-18, Chandler Bridge",NA,"",1,"Rupelian","",33.9,28.1,71195,"gp_mid",-66.63,35.27,"109",31,1
"140005",206951,"col","Ashley",-80.101669,33.031387,"Limehouse Branch drainage ditch, Ashley Fm.",NA,"",1,"Rupelian","",33.9,28.1,71195,"gp_mid",-66.58,35.49,"109",31,1
"142548",210670,"col","",26.283333,46.916668,"Agarcia",NA,"",1,"Rupelian","",33.9,28.1,72715,"gp_mid",28.52,41.14,"302",31,1
"143239",211828,"col","Kliwa Sandstone",25.888872,47.541988,"Piatra Pinului",NA,"",1,"Rupelian","",33.9,28.1,73204,"gp_mid",28.17,41.76,"302",31,1
"143240",211829,"col","Menilite beds",22.580832,49.649712,"Przemyśl",NA,"",1,"Rupelian","",33.9,28.1,73207,"gp_mid",25.23,43.91,"305",31,1
