"","collection_no","record_type","formation","lng","lat","collection_name","collection_subset","collection_aka","n_occs","early_interval","late_interval","max_ma","min_ma","reference_no","paleomodel","paleolng","paleolat","geoplate","marine","mid_ma","time_bin","ext"
"859",2802,"col","Greenhorn Limestone",-104.716667,38.283333,"Pueblo, CO (C2-34)",NA,"",4,"Turonian","",93.9,89.8,93,"gp_mid",-63.25,45.01,"101",1,91.85,"turonian",1
"860",2803,"col","Greenhorn Limestone",-104.716667,38.283333,"Pueblo, CO (C2-35)",NA,"",4,"Turonian","",93.9,89.8,93,"gp_mid",-63.25,45.01,"101",1,91.85,"turonian",1
"861",2806,"col","Greenhorn Limestone",-104.716667,38.283333,"Pueblo, CO (C2-42)",NA,"",3,"Turonian","",93.9,89.8,93,"gp_mid",-63.25,45.01,"101",1,91.85,"turonian",1
"863",3071,"col","Greenhorn Limestone",-104.716667,38.283333,"Pueblo, CO (C2-44)",NA,"",3,"Turonian","",93.9,89.8,93,"gp_mid",-63.25,45.01,"101",1,91.85,"turonian",1
"864",3072,"col","Greenhorn Limestone",-104.716667,38.283333,"Pueblo, CO (C2-45)",NA,"",5,"Turonian","",93.9,89.8,93,"gp_mid",-63.25,45.01,"101",1,91.85,"turonian",1
"865",3073,"col","Greenhorn Limestone",-104.716667,38.283333,"Pueblo, CO (C2-46)",NA,"",7,"Turonian","",93.9,89.8,93,"gp_mid",-63.25,45.01,"101",1,91.85,"turonian",1
"866",3074,"col","Greenhorn Limestone",-104.716667,38.283333,"Pueblo, CO (C2-47)",NA,"",10,"Turonian","",93.9,89.8,93,"gp_mid",-63.25,45.01,"101",1,91.85,"turonian",1
"1063",1987,"col","Coleraine",-93.276665,47.321945,"Hill Annex Mine",NA,"",54,"Turonian","",93.9,89.8,53,"gp_mid",-47.66,51.73,"101",1,91.85,"turonian",1
"1064",1989,"col","Coleraine",-93,47,"Arcturus Mine",NA,"",30,"Turonian","",93.9,89.8,53,"gp_mid",-47.51,51.37,"101",1,91.85,"turonian",1
"1065",1990,"col","Coleraine",-93.427498,47.288891,"Mines in Coleraine-Bovey vicinity",NA,"",18,"Turonian","",93.9,89.8,53,"gp_mid",-47.83,51.72,"101",1,91.85,"turonian",1
"7322",35104,"col","Brezno",14.466667,50.349998,"Chorousky, Czechia",NA,"Chorousek",1,"Turonian","",93.9,89.8,9216,"gp_mid",27.24,43.6,"305",1,91.85,"turonian",1
"9233",38595,"col","Lewes Nodular Chalk",-3.1,50.700001,"Lewes Nodular Chalk-Beer Head 1",NA,"",10,"Turonian","",93.9,89.8,10260,"gp_mid",11.76,44.81,"315",1,91.85,"turonian",1
"9235",38598,"col","Lewes Nodular Chalk",-3.1,50.700001,"Lewes Nodular Chalk-Annis`Knob",NA,"",1,"Turonian","",93.9,89.8,10260,"gp_mid",11.76,44.81,"315",1,91.85,"turonian",1
"9236",38601,"col","Lewes Nodular Chalk",-2.966667,50.75,"Lewes Nodular Chalk-Allhallows",NA,"",8,"Turonian","",93.9,89.8,10260,"gp_mid",11.88,44.85,"315",1,91.85,"turonian",1
"9237",38604,"col","Lewes Nodular Chalk",-2.966667,50.75,"Lewes Nodular Chalk-Lynch Cottage",NA,"",2,"Turonian","",93.9,89.8,10260,"gp_mid",11.88,44.85,"315",1,91.85,"turonian",1
"9238",38607,"col","Lewes Nodular Chalk",-2.966667,50.75,"Lewes Nodular Chalk-Chapel Rock 1",NA,"",1,"Turonian","",93.9,89.8,10260,"gp_mid",11.88,44.85,"315",1,91.85,"turonian",1
"9737",39577,"col","Mikasa Sandstone",141.949997,43.25,"Ikushumbetsu Area, Mikasa Sandstone, Hokkaido",NA,"",19,"Turonian","",93.9,89.8,10664,"gp_mid",143.01,50.6,"610",1,91.85,"turonian",1
"9810",39669,"col","Mikasa Sandstone",141.949997,43.033333,"Yubari Area, Mikasa Sandstone, Hokkaido",NA,"",7,"Turonian","",93.9,89.8,10664,"gp_mid",143.1,50.39,"610",1,91.85,"turonian",1
"9936",39823,"col","",141.949997,43.25,"Ikushumbetsu Area, Yezo Group, Hokkaido",NA,"",3,"Turonian","",93.9,89.8,10664,"gp_mid",143.01,50.6,"610",1,91.85,"turonian",1
"10122",40211,"col","",130.25,32.333332,"Gosyonoura Island, Gosyonoura Group, Kyushu",NA,"",3,"Turonian","",93.9,89.8,10664,"gp_mid",134.49,37.67,"610",1,91.85,"turonian",1
"10129",40218,"col","Mikasa Sandstone",141.96666,43.133331,"Manji Area, Mikasa Sandstone, Hokkaido",NA,"",4,"Turonian","",93.9,89.8,10664,"gp_mid",143.08,50.49,"610",1,91.85,"turonian",1
"10162",40252,"col","Tano",131.5,33.166668,"Nozu Area, Tano Formation, Kyushu",NA,"",1,"Turonian","",93.9,89.8,10664,"gp_mid",135.52,38.74,"610",1,91.85,"turonian",1
"10184",40318,"col","Ryozen",131.333328,33.083332,"Onogawa Area, Ryozen Formation, Kyushu",NA,"",2,"Turonian","",93.9,89.8,10664,"gp_mid",135.37,38.63,"610",1,91.85,"turonian",1
"19808",57533,"col","White Chalk",0.183333,50.799999,"Beachy Head and Eastbourne, Sussex, Gun-Gardens-55-12",NA,"",11,"Turonian","",93.9,89.8,15482,"gp_mid",14.68,44.71,"315",1,91.85,"turonian",1
"19809",57534,"col","White Chalk",0.183333,50.799999,"Beachy Head and Eastbourne, Sussex, Gun-Gardens-56-12",NA,"",18,"Turonian","",93.9,89.8,15482,"gp_mid",14.68,44.71,"315",1,91.85,"turonian",1
"19810",57535,"col","White Chalk",0.183333,50.799999,"Beachy Head and Eastbourne, Sussex, Gun-Gardens-58-13",NA,"",16,"Turonian","",93.9,89.8,15482,"gp_mid",14.68,44.71,"315",1,91.85,"turonian",1
"19811",57536,"col","White Chalk",0.183333,50.799999,"Beachy Head and Eastbourne, Sussex, Gun-Gardens-59-13",NA,"",12,"Turonian","",93.9,89.8,15482,"gp_mid",14.68,44.71,"315",1,91.85,"turonian",1
"20515",58578,"col","",13.8,50.400002,"Echinodermata, Pyropensande, Trebivlice, Bohemia",NA,"",4,"Turonian","",93.9,89.8,16634,"gp_mid",26.66,43.67,"305",1,91.85,"turonian",1
"21157",59637,"col","",0.783333,49.116669,"Lense 1, Asteroidea, Hardground Tilleul 2, Turonian, Valleuse du Tilleul",NA,"",4,"Turonian","",93.9,89.8,17061,"gp_mid",15.01,43,"305",1,91.85,"turonian",1
"21158",59638,"col","",0.783333,49.116669,"Lense 2, Asteroidea, Hardground Tilleul 2, Turonian, Valleuse du Tilleul",NA,"",3,"Turonian","",93.9,89.8,17061,"gp_mid",15.01,43,"305",1,91.85,"turonian",1
"22954",62350,"col","Ladd",-117.5,33.5,"LACMIP loc. 8170, Santa Ana Mountains",NA,"CIT loc. 1828",2,"Turonian","",93.9,89.8,18028,"gp_mid",-75.25,38.86,"105",1,91.85,"turonian",1
"23407",63082,"col","Kaskapau",-120.925003,55.1525,"Quality Creek, site 1 (facies 3)",NA,"",2,"Turonian","",93.9,89.8,18154,"gp_mid",-75.23,63.94,"101",1,91.85,"turonian",1
"23408",63083,"col","Kaskapau",-120.925003,55.1525,"Quality Creek, site 5 (facies 5)",NA,"",4,"Turonian","",93.9,89.8,18154,"gp_mid",-75.23,63.94,"101",1,91.85,"turonian",1
"23409",63084,"col","Kaskapau",-120.925003,55.1525,"Quality Creek, site 1 (facies 7)",NA,"",7,"Turonian","",93.9,89.8,18154,"gp_mid",-75.23,63.94,"101",1,91.85,"turonian",1
"24061",64441,"col","La Luna",-70.428299,9.0989,"A-7544",NA,"",1,"Turonian","",93.9,89.8,18619,"gp_mid",-37.77,8.82,"201",1,91.85,"turonian",1
"24062",64442,"col","La Luna",-70.428299,9.0989,"A-8608",NA,"",2,"Turonian","",93.9,89.8,18619,"gp_mid",-37.77,8.82,"201",1,91.85,"turonian",1
"24063",64443,"col","La Luna",-70.428299,9.0989,"Chejende-Miton Road A-8858",NA,"",1,"Turonian","",93.9,89.8,18619,"gp_mid",-37.77,8.82,"201",1,91.85,"turonian",1
"24064",64444,"col","La Luna",-70.428299,9.0989,"Chejende-Miton Road A-8862",NA,"",1,"Turonian","",93.9,89.8,18619,"gp_mid",-37.77,8.82,"201",1,91.85,"turonian",1
"24065",64445,"col","La Luna",-70.428299,9.0989,"Chejende-Miton Road A-8859",NA,"",1,"Turonian","",93.9,89.8,18619,"gp_mid",-37.77,8.82,"201",1,91.85,"turonian",1
"24066",64446,"col","La Luna",-70.428299,9.0989,"Chejende-Miton Road A-8864",NA,"",1,"Turonian","",93.9,89.8,18619,"gp_mid",-37.77,8.82,"201",1,91.85,"turonian",1
"24067",64447,"col","La Luna",-70.428299,9.0989,"Chejende-Miton Road A-8868",NA,"",1,"Turonian","",93.9,89.8,18619,"gp_mid",-37.77,8.82,"201",1,91.85,"turonian",1
"24068",64448,"col","La Luna",-70.428299,9.0989,"Chejende-Miton Road A-8870",NA,"",1,"Turonian","",93.9,89.8,18619,"gp_mid",-37.77,8.82,"201",1,91.85,"turonian",1
"24069",64449,"col","La Luna",-70.428299,9.0989,"A-9722",NA,"",1,"Turonian","",93.9,89.8,18619,"gp_mid",-37.77,8.82,"201",1,91.85,"turonian",1
"24070",64450,"col","La Luna",-70.428299,9.0989,"A-9750",NA,"",1,"Turonian","",93.9,89.8,18619,"gp_mid",-37.77,8.82,"201",1,91.85,"turonian",1
"24071",64452,"col","La Luna",-70.428299,9.0989,"A-9778",NA,"",2,"Turonian","",93.9,89.8,18619,"gp_mid",-37.77,8.82,"201",1,91.85,"turonian",1
"24077",64458,"col","La Luna",-70.428299,9.0989,"Chejende-Miton Road A-7562",NA,"",1,"Turonian","",93.9,89.8,18619,"gp_mid",-37.77,8.82,"201",1,91.85,"turonian",1
"24340",65022,"col","Oguwa",132.75,33.25,"Oguwa Formation, Chikanaga area",NA,"",20,"Turonian","",93.9,89.8,18725,"gp_mid",136.79,39.08,"610",1,91.85,"turonian",1
"25469",66683,"col","",-117.57,33.880001,"loc. 167",NA,"CAS 444A",1,"Turonian","",93.9,89.8,18968,"gp_mid",-75.27,39.24,"105",1,91.85,"turonian",1
"25507",66787,"col","Campur",-90.974998,17.216667,"El Ceibo, Peten, Campur Formation",NA,"",1,"Turonian","",93.9,89.8,19019,"gp_mid",-54.01,21.97,"205",1,91.85,"turonian",1
"25968",67565,"col","",22.783333,42.75,"Rebro, Pernik",NA,"",2,"Turonian","",93.9,89.8,19255,"gp_mid",30.88,27.15,"308",1,91.85,"turonian",1
"25969",67566,"col","",22.733334,42.816666,"Kjulina, Tran area, Pernik",NA,"",2,"Turonian","",93.9,89.8,19255,"gp_mid",30.89,27.23,"308",1,91.85,"turonian",1
"26997",69154,"col","Saku",142,44.666668,"T1083p - Saku (Saku Formation)",NA,"",6,"Turonian","",93.9,89.8,19937,"gp_mid",142.45,51.97,"610",1,91.85,"turonian",1
"26998",69155,"col","Saku",142,44.666668,"T43 - Saku (Saku Formation)",NA,"",6,"Turonian","",93.9,89.8,19937,"gp_mid",142.45,51.97,"610",1,91.85,"turonian",1
"26999",69156,"col","Saku",142,44.666668,"T5054 - Saku (Saku Formation)",NA,"",4,"Turonian","",93.9,89.8,19937,"gp_mid",142.45,51.97,"610",1,91.85,"turonian",1
"27000",69157,"col","Saku",142,44.083332,"R2110 - Obira (Saku Formation)",NA,"",11,"Turonian","",93.9,89.8,19937,"gp_mid",142.71,51.41,"610",1,91.85,"turonian",1
"27001",69158,"col","Saku",142,44.083332,"R6732 - Obira (Saku Formation)",NA,"",9,"Turonian","",93.9,89.8,19937,"gp_mid",142.71,51.41,"610",1,91.85,"turonian",1
"27002",69159,"col","Saku",142,44.083332,"R2003 - Obira (Saku Formation)",NA,"",10,"Turonian","",93.9,89.8,19937,"gp_mid",142.71,51.41,"610",1,91.85,"turonian",1
"27003",69160,"col","Saku",142,44.083332,"R4533p - Obira (Saku Formation)",NA,"",7,"Turonian","",93.9,89.8,19937,"gp_mid",142.71,51.41,"610",1,91.85,"turonian",1
"27005",69162,"col","Saku",142,44.083332,"R4018b - Obira (Saku Formation)",NA,"",10,"Turonian","",93.9,89.8,19937,"gp_mid",142.71,51.41,"610",1,91.85,"turonian",1
"27006",69163,"col","Saku",142,44.083332,"R2113 - Obira (Saku Formation)",NA,"",8,"Turonian","",93.9,89.8,19937,"gp_mid",142.71,51.41,"610",1,91.85,"turonian",1
"27007",69164,"col","Saku",142,44.083332,"R6551p - Obira (Saku Formation)",NA,"",5,"Turonian","",93.9,89.8,19937,"gp_mid",142.71,51.41,"610",1,91.85,"turonian",1
"27008",69165,"col","Saku",142,44.083332,"R6628 - Obira (Saku Formation)",NA,"",8,"Turonian","",93.9,89.8,19937,"gp_mid",142.71,51.41,"610",1,91.85,"turonian",1
"27009",69166,"col","Saku",142,44.083332,"R4001 - Obira (Saku Formation)",NA,"",7,"Turonian","",93.9,89.8,19937,"gp_mid",142.71,51.41,"610",1,91.85,"turonian",1
"27010",69167,"col","Saku",142,44.083332,"R6140 - Obira (Saku Formation)",NA,"",9,"Turonian","",93.9,89.8,19937,"gp_mid",142.71,51.41,"610",1,91.85,"turonian",1
"27011",69168,"col","Saku",142,44.083332,"R4546p - Obira (Saku Formation)",NA,"",2,"Turonian","",93.9,89.8,19937,"gp_mid",142.71,51.41,"610",1,91.85,"turonian",1
"27012",69169,"col","Saku",142,44.083332,"R2026 - Obira (Saku Formation)",NA,"",8,"Turonian","",93.9,89.8,19937,"gp_mid",142.71,51.41,"610",1,91.85,"turonian",1
"27013",69170,"col","Saku",142,44.083332,"R6302 - Obira (Saku Formation)",NA,"",4,"Turonian","",93.9,89.8,19937,"gp_mid",142.71,51.41,"610",1,91.85,"turonian",1
"27014",69171,"col","Saku",142,44.083332,"R6317 - Obira (Saku Formation)",NA,"",10,"Turonian","",93.9,89.8,19937,"gp_mid",142.71,51.41,"610",1,91.85,"turonian",1
"27015",69172,"col","Saku",142,43.083332,"Y1648 - Oyubari (Saku Formation)",NA,"",11,"Turonian","",93.9,89.8,19937,"gp_mid",143.14,50.44,"610",1,91.85,"turonian",1
"27016",69173,"col","Saku",142,43.083332,"Y1620 - Oyubari (Saku Formation)",NA,"",6,"Turonian","",93.9,89.8,19937,"gp_mid",143.14,50.44,"610",1,91.85,"turonian",1
"27017",69174,"col","Saku",142,43.083332,"Y1624 - Oyubari (Saku Formation)",NA,"",9,"Turonian","",93.9,89.8,19937,"gp_mid",143.14,50.44,"610",1,91.85,"turonian",1
"27018",69175,"col","Saku",142,43.083332,"Y5251 - Oyubari (Saku Formation)",NA,"",6,"Turonian","",93.9,89.8,19937,"gp_mid",143.14,50.44,"610",1,91.85,"turonian",1
"28293",71354,"col","",-111,51.583332,"693.20 m bed, GSC loc. C167141, Amoco Youngstown",NA,"",5,"Turonian","",93.9,89.8,23849,"gp_mid",-65.15,58.97,"101",1,91.85,"turonian",1
"29084",73471,"col","",18.25,40.150002,"Corigliano d'Otranto, Lecce",NA,"",1,"Turonian","",93.9,89.8,24654,"gp_mid",26.07,27.22,"307",1,91.85,"turonian",1
"29881",74621,"col","",23.116667,37.650002,"Akros Massif, rudist biostromes",NA,"Reef 3121",12,"Turonian","",93.9,89.8,25089,"gp_mid",27.7,22.93,"307",1,91.85,"turonian",1
"30673",77090,"col","",24.016666,49.833332,"Lviv",NA,"",1,"Turonian","",93.9,89.8,29186,"gp_mid",35.61,42.85,"302",1,91.85,"turonian",1
"31145",78079,"col","Baba Darves",69.75,36.633331,"61 AE-13, Farkhar Valley",NA,"",5,"Turonian","",93.9,89.8,26321,"gp_mid",77.55,30.91,"402",1,91.85,"turonian",1
"31207",78174,"col","Eagle Ford",-103.599998,29.316668,"USGS 16855, Terlingua",NA,"",1,"Turonian","",93.9,89.8,26335,"gp_mid",-64.42,36.04,"101",1,91.85,"turonian",1
"32397",80927,"col","Ladd",-117.599998,33.700001,"Santiago Truck Trail Trigonarca-Flaventia Paleocommunity",NA,"STT-2",8,"Turonian","",93.9,89.8,27237,"gp_mid",-75.33,39.07,"105",1,91.85,"turonian",1
"32398",80928,"col","Ladd",-117.616669,33.733334,"Silverado Truck Trail Onshore Inoperna-Pterotrigonia Association",NA,"STTH-4",8,"Turonian","",93.9,89.8,27237,"gp_mid",-75.34,39.1,"105",1,91.85,"turonian",1
"32399",80929,"col","Ladd",-117.683334,33.75,"Silverado Canyon Offshore Inoperna-Pterotrigonia Association",NA,"Locality 4",7,"Turonian","",93.9,89.8,27237,"gp_mid",-75.41,39.12,"105",1,91.85,"turonian",1
"32400",80930,"col","Ladd",-117.683334,33.75,"Silverado Canyon Glycymeris-Astarte Association",NA,"Locality 12",7,"Turonian","",93.9,89.8,27237,"gp_mid",-75.41,39.12,"105",1,91.85,"turonian",1
"32401",80931,"col","Ladd",-117.683334,33.75,"Silverado Canyon Glycymeris-Astarte Association",NA,"Locality 11a",10,"Turonian","",93.9,89.8,27237,"gp_mid",-75.41,39.12,"105",1,91.85,"turonian",1
"32402",80932,"col","Ladd",-117.683334,33.75,"Silverado Canyon Glycymeris-Astarte Association",NA,"Locality 11b",5,"Turonian","",93.9,89.8,27237,"gp_mid",-75.41,39.12,"105",1,91.85,"turonian",1
"32403",80933,"col","Ladd",-117.683334,33.75,"Silverado Canyon Eriphyla-Limopsis Association",NA,"Locality 3",6,"Turonian","",93.9,89.8,27237,"gp_mid",-75.41,39.12,"105",1,91.85,"turonian",1
"32404",80934,"col","Ladd",-117.683334,33.75,"Silverado Canyon Turritella-Alaria Association",NA,"Locality 5",12,"Turonian","",93.9,89.8,27237,"gp_mid",-75.41,39.12,"105",1,91.85,"turonian",1
"32405",80935,"col","Ladd",-117.683334,33.75,"Silverado Canyon Cerithium-Parallelodon Association",NA,"Locality 14b",10,"Turonian","",93.9,89.8,27237,"gp_mid",-75.41,39.12,"105",1,91.85,"turonian",1
"32406",80936,"col","Ladd",-117.683334,33.75,"Silverado Canyon Cerithium-Parallelodon Association",NA,"Locality 14a",10,"Turonian","",93.9,89.8,27237,"gp_mid",-75.41,39.12,"105",1,91.85,"turonian",1
"32407",80937,"col","Ladd",-117.683334,33.75,"Silverado Canyon Cerithium-Parallelodon Association",NA,"Locality 14d",7,"Turonian","",93.9,89.8,27237,"gp_mid",-75.41,39.12,"105",1,91.85,"turonian",1
"32408",80938,"col","Ladd",-117.683334,33.75,"Silverado Canyon Cerithium-Parallelodon Association",NA,"Locality 14e",4,"Turonian","",93.9,89.8,27237,"gp_mid",-75.41,39.12,"105",1,91.85,"turonian",1
"32409",80939,"col","Ladd",-117.683334,33.75,"Silverado Canyon Cerithium-Parallelodon Association",NA,"Locality 14f",6,"Turonian","",93.9,89.8,27237,"gp_mid",-75.41,39.12,"105",1,91.85,"turonian",1
"32410",80940,"col","Ladd",-117.683334,33.75,"Silverado Canyon Pseudoperna-Anchura Association",NA,"Locality 10",3,"Turonian","",93.9,89.8,27237,"gp_mid",-75.41,39.12,"105",1,91.85,"turonian",1
"33129",82213,"col","Niobrara",-104.596947,36.353333,"USGS D11969, Section 1 [Fort Hays Limestone Mbr, Niobrara Fm]",NA,"",6,"Turonian","",93.9,89.8,27708,"gp_mid",-63.68,43.1,"101",1,91.85,"turonian",1
"33130",82214,"col","Niobrara",-104.596947,36.353333,"USGS D11970, Section 1 [Fort Hays Limestone Mbr, Niobrara Fm]",NA,"",3,"Turonian","",93.9,89.8,27708,"gp_mid",-63.68,43.1,"101",1,91.85,"turonian",1
"33131",82215,"col","Niobrara",-104.596947,36.353333,"USGS D12443, Section 1 [Fort Hays Limestone Mbr, Niobrara Fm]",NA,"",1,"Turonian","",93.9,89.8,27708,"gp_mid",-63.68,43.1,"101",1,91.85,"turonian",1
"33132",82216,"col","Niobrara",-104.596947,36.353333,"USGS D12442, Section 1 [Fort Hays Limestone Mbr, Niobrara Fm]",NA,"",1,"Turonian","",93.9,89.8,27708,"gp_mid",-63.68,43.1,"101",1,91.85,"turonian",1
"33133",82217,"col","Niobrara",-104.853058,36.368057,"USGS D11829, Section 2 [Fort Hays Limestone Mbr, Niobrara Fm]",NA,"",1,"Turonian","",93.9,89.8,27708,"gp_mid",-63.96,43.16,"101",1,91.85,"turonian",1
"33134",82218,"col","Niobrara",-104.853058,36.368057,"USGS D11828, Section 2 [Fort Hays Limestone Mbr, Niobrara Fm]",NA,"",1,"Turonian","",93.9,89.8,27708,"gp_mid",-63.96,43.16,"101",1,91.85,"turonian",1
"33135",82219,"col","Niobrara",-104.853058,36.368057,"USGS D11832, Section 3 [Fort Hays Limestone Mbr, Niobrara Fm]",NA,"",1,"Turonian","",93.9,89.8,27708,"gp_mid",-63.96,43.16,"101",1,91.85,"turonian",1
"33136",82220,"col","Niobrara",-104.400558,36.093613,"USGS D12524, Section 5 [Fort Hays Limestone Mbr, Niobrara Fm]",NA,"",1,"Turonian","",93.9,89.8,27708,"gp_mid",-63.54,42.82,"101",1,91.85,"turonian",1
"33137",82221,"col","Niobrara",-104.400558,36.093613,"USGS D12523, Section 5 [Fort Hays Limestone Mbr, Niobrara Fm]",NA,"",3,"Turonian","",93.9,89.8,27708,"gp_mid",-63.54,42.82,"101",1,91.85,"turonian",1
"33138",82222,"col","Niobrara",-104.400558,36.093613,"USGS D11836, Section 5 [Fort Hays Limestone Mbr, Niobrara Fm]",NA,"",2,"Turonian","",93.9,89.8,27708,"gp_mid",-63.54,42.82,"101",1,91.85,"turonian",1
"33139",82223,"col","Niobrara",-104.008888,36.821667,"USGS D11971, Section 7 [Fort Hays Limestone Mbr, Niobrara Fm]",NA,"",2,"Turonian","",93.9,89.8,27708,"gp_mid",-62.92,43.46,"101",1,91.85,"turonian",1
"33140",82224,"col","Niobrara",-104.358887,36.555,"USGS D11967, Section 8 [Fort Hays Limestone Mbr, Niobrara Fm]",NA,"",4,"Turonian","",93.9,89.8,27708,"gp_mid",-63.37,43.26,"101",1,91.85,"turonian",1
"34802",84752,"col","",5.7,35.216667,"El Kantara",NA,"",3,"Turonian","",93.9,89.8,28439,"gp_mid",16.15,24.42,"714",1,91.85,"turonian",1
"34816",84770,"col","Gornji Humac",16.216667,43.016666,"Polivalo Cape, Vis Island",NA,"",5,"Turonian","",93.9,89.8,28445,"gp_mid",26.82,30.4,"307",1,91.85,"turonian",1
"35889",86680,"col","",46.483334,40.400002,"Agdzhakend",NA,"",2,"Turonian","",93.9,89.8,29186,"gp_mid",55.82,33.54,"511",1,91.85,"turonian",1
"35933",86770,"col","",38.383331,48.849998,"Sekmenyevskiy Quarry, Donets Basin",NA,"",1,"Turonian","",93.9,89.8,29186,"gp_mid",48.26,41.83,"302",1,91.85,"turonian",1
"36548",87591,"col","Second White Speckled Shale",-120,55.883057,"Pouce Coupe River [Second White Speckled Shale]",NA,"",2,"Turonian","",93.9,89.8,29479,"gp_mid",-73.64,64.51,"101",1,91.85,"turonian",1
"36684",87752,"col","Mancos Shale",-108.886665,40.762222,"USGS Loc. M11669, Vermilion Creek [Mancos Shale]",NA,"",1,"Turonian","",93.9,89.8,29509,"gp_mid",-67.06,48.11,"101",1,91.85,"turonian",1
"36686",87754,"col","Mancos Shale",-108.886665,40.762222,"USGS Loc. M11668, Vermilion Creek [Mancos Shale]",NA,"USGS Loc. M11667",8,"Turonian","",93.9,89.8,29509,"gp_mid",-67.06,48.11,"101",1,91.85,"turonian",1
"36774",87871,"col","Greenhorn",-98.200279,39.049999,"Lincoln Co. [Jetmore Mbr, Greenhorn Fm]",NA,"",1,"Turonian","",93.9,89.8,29532,"gp_mid",-56.02,44.63,"101",1,91.85,"turonian",1
"36831",88002,"col","Greenhorn",-96.81694,42.516666,"USGS Loc. D10502, Dixon Co. [Greenhorn Fm]",NA,"",1,"Turonian","",93.9,89.8,29572,"gp_mid",-53.35,47.75,"101",1,91.85,"turonian",1
"36846",88018,"col","",-93.06694,44.666668,"Near Minneapolis, Dakota Co.",NA,"",1,"Turonian","",93.9,89.8,29572,"gp_mid",-48.57,49.13,"101",1,91.85,"turonian",1
"37133",88380,"col","Carlile Shale",-103.852219,44.671391,"USGS Loc. 21195, Belle Fourche [Carlile Shale]",NA,"Loc. 4",0,"Turonian","",93.9,89.8,29675,"gp_mid",-60.14,51.09,"101",1,91.85,"turonian",1
"37168",88415,"col","Carlile Shale",-103.550552,43.266666,"USGS Loc. D13834, Fall River Co. [Carlile Shale]",NA,"Loc. 16 (of Kennedy et al. 2001)",2,"Turonian","",93.9,89.8,29675,"gp_mid",-60.33,49.67,"101",1,91.85,"turonian",1
"40226",93874,"col","Middle Iser Shales",16.247499,49.99361,"Zárecká Lhota, Chocen",NA,"Ornithocheirus hlavatschi holotype, Chotzen",1,"Turonian","",93.9,89.8,31915,"gp_mid",28.79,43.19,"305",1,91.85,"turonian",1
"40318",93976,"col","",-12.233333,28.083332,"Borehole S1 (83 m)",NA,"",1,"Turonian","",93.9,89.8,31942,"gp_mid",-2.24,23.49,"714",1,91.85,"turonian",1
"40319",93977,"col","",-12.233333,28.083332,"Borehole S1 (113 m)",NA,"",1,"Turonian","",93.9,89.8,31942,"gp_mid",-2.24,23.49,"714",1,91.85,"turonian",1
"40320",93978,"col","",-12.233333,28.083332,"Borehole S1 (132 m)",NA,"",3,"Turonian","",93.9,89.8,31942,"gp_mid",-2.24,23.49,"714",1,91.85,"turonian",1
"40321",93979,"col","",-12.233333,28.083332,"Borehole S1 (138 m)",NA,"",2,"Turonian","",93.9,89.8,31942,"gp_mid",-2.24,23.49,"714",1,91.85,"turonian",1
"40322",93980,"col","",-12.233333,28.083332,"Borehole S1 (139 m)",NA,"",1,"Turonian","",93.9,89.8,31942,"gp_mid",-2.24,23.49,"714",1,91.85,"turonian",1
"40323",93981,"col","",-12.233333,28.083332,"Borehole S1 (143 m)",NA,"",1,"Turonian","",93.9,89.8,31942,"gp_mid",-2.24,23.49,"714",1,91.85,"turonian",1
"40324",93982,"col","",-12.233333,28.083332,"Borehole S1 (144 m)",NA,"",1,"Turonian","",93.9,89.8,31942,"gp_mid",-2.24,23.49,"714",1,91.85,"turonian",1
"40325",93983,"col","",-12.233333,28.083332,"Borehole S1 (148 m)",NA,"",1,"Turonian","",93.9,89.8,31942,"gp_mid",-2.24,23.49,"714",1,91.85,"turonian",1
"40326",93984,"col","",-12.233333,28.083332,"Borehole S1 (149 m)",NA,"",2,"Turonian","",93.9,89.8,31942,"gp_mid",-2.24,23.49,"714",1,91.85,"turonian",1
"40327",93985,"col","",-12.233333,28.083332,"Borehole S1 (182 m)",NA,"",1,"Turonian","",93.9,89.8,31942,"gp_mid",-2.24,23.49,"714",1,91.85,"turonian",1
"40328",93986,"col","",-12.233333,28.083332,"Borehole S1 (185 m)",NA,"",1,"Turonian","",93.9,89.8,31942,"gp_mid",-2.24,23.49,"714",1,91.85,"turonian",1
"40329",93987,"col","",-12.233333,28.083332,"Borehole S1 (203 m)",NA,"",2,"Turonian","",93.9,89.8,31942,"gp_mid",-2.24,23.49,"714",1,91.85,"turonian",1
"40330",93988,"col","",-12.233333,28.083332,"Borehole S1 (210 m)",NA,"",1,"Turonian","",93.9,89.8,31942,"gp_mid",-2.24,23.49,"714",1,91.85,"turonian",1
"40331",93989,"col","",-12.233333,28.083332,"Borehole S1 (217 m)",NA,"",2,"Turonian","",93.9,89.8,31942,"gp_mid",-2.24,23.49,"714",1,91.85,"turonian",1
"40332",93990,"col","",-12.233333,28.083332,"Borehole S1 (221 m)",NA,"",1,"Turonian","",93.9,89.8,31942,"gp_mid",-2.24,23.49,"714",1,91.85,"turonian",1
"40800",94687,"col","",142,44,"Obata locality 8, loc, ob. 0010 3p",NA,"",8,"Turonian","",93.9,89.8,32250,"gp_mid",142.75,51.33,"610",1,91.85,"turonian",1
"40801",94688,"col","",142,44,"Obata locality 9",NA,"",12,"Turonian","",93.9,89.8,32250,"gp_mid",142.75,51.33,"610",1,91.85,"turonian",1
"41831",95787,"col","Jaworki",20.266666,49.416668,"Kosarzyska Valley, Macelowa Marl",NA,"",8,"Turonian","",93.9,89.8,32536,"gp_mid",32.29,42.51,"305",1,91.85,"turonian",1
"41941",95912,"col","",37.833332,56.083332,"Moscow Basin, borehole 112, sample 5",NA,"",13,"Turonian","",93.9,89.8,32571,"gp_mid",47.61,49.06,"302",1,91.85,"turonian",1
"42007",95979,"col","",37.966667,56.166668,"Moscow Basin, borehole 104, sample 3",NA,"",2,"Turonian","",93.9,89.8,32571,"gp_mid",47.72,49.14,"302",1,91.85,"turonian",1
"42015",95987,"col","",35.516666,54.583332,"Moscow Basin, borehole 71, samples 19-23",NA,"",3,"Turonian","",93.9,89.8,32571,"gp_mid",45.66,47.54,"302",1,91.85,"turonian",1
"42018",95990,"col","",34.416668,53.466667,"Moscow Basin, borehole 27, samples 28, 29, 33",NA,"",11,"Turonian","",93.9,89.8,32571,"gp_mid",44.73,46.42,"302",1,91.85,"turonian",1
"42025",95997,"col","",39.366669,56.200001,"Moscow Basin, borehole 151, sample 2",NA,"",3,"Turonian","",93.9,89.8,32571,"gp_mid",48.91,49.19,"302",1,91.85,"turonian",1
"43827",98849,"col","",141.683334,44.049999,"Nanbu-no-sawa",NA,"",1,"Turonian","",93.9,89.8,34058,"gp_mid",142.37,51.31,"610",1,91.85,"turonian",1
"44223",99338,"col","Cardium",-114.01667,49.333332,"southwest of Fish Lake",NA,"",1,"Turonian","",93.9,89.8,34154,"gp_mid",-69.74,57.27,"101",1,91.85,"turonian",1
"46355",102712,"col","Carlile Shale",-98.599998,39.349998,"Medicine Peak",NA,"",1,"Turonian","",93.9,89.8,34803,"gp_mid",-56.34,44.99,"101",1,91.85,"turonian",1
"46478",102878,"col","Carlile Shale",-99.254997,39.084721,"KUVP Ellis-6",NA,"",1,"Turonian","",93.9,89.8,34803,"gp_mid",-57.13,44.85,"101",1,91.85,"turonian",1
"46479",102879,"col","Carlile Shale",-99.24472,39.081112,"KUVP Ellis-5",NA,"",13,"Turonian","",93.9,89.8,34803,"gp_mid",-57.12,44.85,"101",1,91.85,"turonian",1
"51733",110531,"col","""Scaphiten-Pläner""",10.15,52.150002,"Nettlingen",NA,"",29,"Turonian","",93.9,89.8,36375,"gp_mid",23.61,45.56,"315",1,91.85,"turonian",1
"51734",110532,"col","""Scaphiten-Pläner""",11.05,51.900002,"Halberstadt",NA,"",10,"Turonian","",93.9,89.8,36375,"gp_mid",24.37,45.27,"315",1,91.85,"turonian",1
"51735",110533,"col","""Cuvieri-Pläner""",10.25,52.066666,"Heere",NA,"",23,"Turonian","",93.9,89.8,36375,"gp_mid",23.69,45.47,"315",1,91.85,"turonian",1
"51813",110617,"col","""Cuvieri-Pläner""",10.333333,52.133331,"Salder",NA,"",6,"Turonian","",93.9,89.8,36375,"gp_mid",23.76,45.54,"315",1,91.85,"turonian",1
"52121",110963,"col","""Cuvieri-Pläner""",10.316667,52.150002,"Windmühlenberg",NA,"",2,"Turonian","",93.9,89.8,36375,"gp_mid",23.75,45.55,"315",1,91.85,"turonian",1
"52503",111401,"col","""Cuvieri-Pläner""",10.4,51.966667,"Dörnten",NA,"",5,"Turonian","",93.9,89.8,36477,"gp_mid",23.81,45.37,"315",1,91.85,"turonian",1
"52517",111418,"col","""Brongniarti-Pläner""",10.55,51.966667,"Harlyberg, Vienenburg",NA,"",1,"Turonian","",93.9,89.8,36477,"gp_mid",23.94,45.36,"315",1,91.85,"turonian",1
"52578",111532,"col","""Scaphiten-Pläner""",17.950001,50.666668,"Opole",NA,"",10,"Turonian","",93.9,89.8,36477,"gp_mid",30.32,43.81,"305",1,91.85,"turonian",1
"55738",116293,"col","Coleraine",-93.576111,47.505554,"Mesabi Iron Range",NA,"Teleorhinus mesabiensis type locality",1,"Turonian","",93.9,89.8,33421,"gp_mid",-47.89,51.96,"101",1,91.85,"turonian",1
"57104",117995,"col","",-100.010002,26.389999,"Marlstones of Vallecillo Quarries, near Vallecillo village",NA,"",1,"Turonian","",93.9,89.8,37941,"gp_mid",-61.32,32.56,"101",1,91.85,"turonian",1
"60766",123409,"col","Mancos Shale",-111.966667,37.599998,"Henrieville",NA,"",1,"Turonian","",93.9,89.8,39438,"gp_mid",-71.4,45.49,"101",1,91.85,"turonian",1
"68755",135681,"col","La Luna",-69.759109,10.168556,"Pozo Guapo",NA,"",5,"Turonian","",93.9,89.8,43397,"gp_mid",-37.84,8.78,"203",1,91.85,"turonian",1
"70409",138297,"col","Oerlinghausen",10.29,52.139999,"Braunschweig-Broitzem (Allopleuron locality)",NA,"",1,"Turonian","",93.9,89.8,44226,"gp_mid",23.73,45.54,"315",1,91.85,"turonian",1
"71963",140628,"col","Lewes Nodular Chalk",-2.161667,51.253613,"Portland Cement Co. Quarry, Beggar's Knoll",NA,"",13,"Turonian","",93.9,89.8,45551,"gp_mid",12.67,45.3,"315",1,91.85,"turonian",1
"73064",142104,"col","Benton",-114.278893,50.673889,"Turner valley, southern Alberta",NA,"",1,"Turonian","",93.9,89.8,45555,"gp_mid",-69.44,58.61,"101",1,91.85,"turonian",1
"73065",142105,"col","Carlile",-103.636948,44.459999,"Near Whitewood",NA,"",1,"Turonian","",93.9,89.8,45555,"gp_mid",-59.98,50.84,"101",1,91.85,"turonian",1
"73421",142743,"col","Ojinaga",-104.771385,30.2125,"84km northwest of Ojinaga",NA,"Mosasaur locality",1,"Turonian","",93.9,89.8,46323,"gp_mid",-65.45,37.11,"101",1,91.85,"turonian",1
"80439",153685,"col","",-3.77,42.810001,"Escalada (Burgos)",NA,"",1,"Turonian","",93.9,89.8,49761,"gp_mid",10.99,36.28,"304",1,91.85,"turonian",1
"81118",155192,"col","",15.89,50.310001,"Vlkov near Smirice",NA,"",1,"Turonian","",93.9,89.8,50341,"gp_mid",28.49,43.52,"305",1,91.85,"turonian",1
"81119",155193,"col","",15.91,50.290001,"Smrzov",NA,"",1,"Turonian","",93.9,89.8,50341,"gp_mid",28.51,43.5,"305",1,91.85,"turonian",1
"81120",155194,"col","",15.88,50.279999,"Cibuz (Hradec Kralove)",NA,"",1,"Turonian","",93.9,89.8,50341,"gp_mid",28.48,43.49,"305",1,91.85,"turonian",1
"81121",155195,"col","",16.049999,50.240002,"Mestec (near Opocno)",NA,"",1,"Turonian","",93.9,89.8,50341,"gp_mid",28.63,43.44,"305",1,91.85,"turonian",1
"81123",155197,"col","",15.3,50.169998,"Dlouhopolsko (Nymburk), borehole KN-2",NA,"",1,"Turonian","",93.9,89.8,50341,"gp_mid",27.96,43.39,"305",1,91.85,"turonian",1
"81124",155198,"col","",15.39,50.07,"Uhlirska Lhota ""Datel"" wood",NA,"",1,"Turonian","",93.9,89.8,50341,"gp_mid",28.03,43.29,"305",1,91.85,"turonian",1
"81125",155199,"col","",15.61,50.02,"Valy near Pardubice",NA,"",1,"Turonian","",93.9,89.8,50341,"gp_mid",28.23,43.24,"305",1,91.85,"turonian",1
"81129",155203,"col","",15.82,50.209999,"Hradec Kralove (borehole HK-184, 251.5m)",NA,"",1,"Turonian","",93.9,89.8,50341,"gp_mid",28.42,43.42,"305",1,91.85,"turonian",1
"81142",155269,"col","",-3.085,50.699001,"White Cliff, Hooken",NA,"",1,"Turonian","",93.9,89.8,50341,"gp_mid",11.77,44.81,"315",1,91.85,"turonian",1
"81143",155270,"col","Middle Chalk",-3.096,50.685001,"Beer Head",NA,"",1,"Turonian","",93.9,89.8,50341,"gp_mid",11.76,44.8,"315",1,91.85,"turonian",1
"81144",155271,"col","",0.5,51.380001,"Borstal pit near Rochester",NA,"",1,"Turonian","",93.9,89.8,50341,"gp_mid",15.04,45.27,"315",1,91.85,"turonian",1
"81145",155272,"col","",1.17,51.080002,"Folkestone",NA,"",1,"Turonian","",93.9,89.8,50341,"gp_mid",15.59,44.93,"315",1,91.85,"turonian",1
"81146",155273,"col","",1.2,51.099998,"Warren near Capel, Folkestone",NA,"",1,"Turonian","",93.9,89.8,50341,"gp_mid",15.62,44.95,"315",1,91.85,"turonian",1
"81147",155274,"col","Middle Chalk",1.31,51.130001,"Dover (NM)",NA,"",1,"Turonian","",93.9,89.8,50341,"gp_mid",15.72,44.97,"315",1,91.85,"turonian",1
"81148",155275,"col","Middle Chalk",-1.56,51.41,"Froxfield, Petersfield",NA,"",1,"Turonian","",93.9,89.8,50341,"gp_mid",13.22,45.42,"315",1,91.85,"turonian",1
"81152",155279,"col","",3.4,50.5,"Chercq (IRSNB/KBIN collection)",NA,"",4,"Turonian","",93.9,89.8,67098,"gp_mid",17.49,44.23,"315",1,91.85,"turonian",1
"83348",159617,"col","Holywell Nodular Chalk",-0.267,51.240002,"Betchworth",NA,"",1,"Turonian","",93.9,89.8,52150,"gp_mid",14.34,45.17,"315",1,91.85,"turonian",1
"83350",159618,"col","Lower Chalk",-0.4769,51.930302,"Sundon church",NA,"",1,"Turonian","",93.9,89.8,52150,"gp_mid",14.25,45.87,"315",1,91.85,"turonian",1
"83351",159619,"col","Lower Chalk",-0.78,51.754002,"Butler's Cross",NA,"",1,"Turonian","",93.9,89.8,52150,"gp_mid",13.96,45.72,"315",1,91.85,"turonian",1
"83352",159620,"col","Lower Chalk",-0.08,52.060001,"Littlington",NA,"",1,"Turonian","",93.9,89.8,52150,"gp_mid",14.62,45.98,"315",1,91.85,"turonian",1
"83353",159621,"col","Lower Chalk",0.051,50.854,"Beddingham",NA,"",1,"Turonian","",93.9,89.8,52150,"gp_mid",14.57,44.77,"315",1,91.85,"turonian",1
"83354",159622,"col","Middle Chalk",0.329,51.327,"Fairseat",NA,"",1,"Turonian","",93.9,89.8,52150,"gp_mid",14.88,45.23,"315",1,91.85,"turonian",1
"83355",159623,"col","Middle Chalk",1.31,51.127998,"Dover (Middle Chalk)",NA,"",3,"Turonian","",93.9,89.8,52150,"gp_mid",15.72,44.97,"315",1,91.85,"turonian",1
"83356",159624,"col","Middle Chalk",-0.267,51.240002,"Betchworth (Middle Chalk)",NA,"",3,"Turonian","",93.9,89.8,52150,"gp_mid",14.34,45.17,"315",1,91.85,"turonian",1
"83357",159625,"col","Middle Chalk",-0.693,51.793999,"Tring Hill",NA,"",1,"Turonian","",93.9,89.8,52150,"gp_mid",14.04,45.75,"315",1,91.85,"turonian",1
"83358",159626,"col","Middle Chalk",0.1833,52.150002,"Gogmagog hills",NA,"",1,"Turonian","",93.9,89.8,52150,"gp_mid",14.86,46.05,"315",1,91.85,"turonian",1
"83359",159627,"col","Middle Chalk",-3.098,50.688,"Seaton to Hooken beach",NA,"",1,"Turonian","",93.9,89.8,52150,"gp_mid",11.76,44.8,"315",1,91.85,"turonian",1
"83360",159628,"col","Middle Chalk",-1.276,51.053001,"Chilcomb",NA,"",1,"Turonian","",93.9,89.8,52150,"gp_mid",13.43,45.05,"315",1,91.85,"turonian",1
"83361",159629,"col","Middle Chalk",-1.31,51.060001,"Winchester",NA,"",1,"Turonian","",93.9,89.8,52150,"gp_mid",13.4,45.06,"315",1,91.85,"turonian",1
"83362",159630,"col","Middle Chalk",-0.282,51.949001,"Hitchin Heights",NA,"",1,"Turonian","",93.9,89.8,52150,"gp_mid",14.43,45.88,"315",1,91.85,"turonian",1
"83363",159631,"col","Middle Chalk",0.478,51.332001,"Burham (Middle Chalk)",NA,"",2,"Turonian","",93.9,89.8,52150,"gp_mid",15.01,45.22,"315",1,91.85,"turonian",1
"83364",159632,"col","Middle Chalk",-1.01,51.645,"Watlington",NA,"",1,"Turonian","",93.9,89.8,52150,"gp_mid",13.74,45.62,"315",1,91.85,"turonian",1
"83365",159633,"col","Middle Chalk",-0.205,51.237,"Reigate (Middle Chalk)",NA,"",2,"Turonian","",93.9,89.8,52150,"gp_mid",14.4,45.17,"315",1,91.85,"turonian",1
"83366",159634,"col","Middle Chalk",-3.1062,50.687901,"Branscombe Coastguard station cliff",NA,"",1,"Turonian","",93.9,89.8,52150,"gp_mid",11.75,44.8,"315",1,91.85,"turonian",1
"83367",159635,"col","Middle Chalk",-3.113,50.698002,"Beer Freestone Quarry",NA,"",2,"Turonian","",93.9,89.8,52150,"gp_mid",11.75,44.81,"315",1,91.85,"turonian",1
"83368",159638,"col","Middle Chalk",-3.136,50.692001,"Branscombe or Berry Cliffs",NA,"",1,"Turonian","",93.9,89.8,52150,"gp_mid",11.73,44.81,"315",1,91.85,"turonian",1
"83369",159639,"col","Middle Chalk",-2.246,50.618999,"Lulworth Cove",NA,"",1,"Turonian","",93.9,89.8,52150,"gp_mid",12.51,44.68,"315",1,91.85,"turonian",1
"83370",159640,"col","Middle Chalk",-0.709,51.779999,"north of Aston Hill",NA,"",1,"Turonian","",93.9,89.8,52150,"gp_mid",14.03,45.74,"315",1,91.85,"turonian",1
"83371",159641,"col","Middle Chalk",-0.28,51.949001,"Hitchin",NA,"",1,"Turonian","",93.9,89.8,52150,"gp_mid",14.43,45.88,"315",1,91.85,"turonian",1
"83373",159643,"col","Middle Chalk",-0.465,51.220001,"Shere",NA,"",1,"Turonian","",93.9,89.8,52150,"gp_mid",14.17,45.17,"315",1,91.85,"turonian",1
"83987",160518,"col","",9.166667,56.916668,"Limfjord",NA,"",2,"Turonian","",93.9,89.8,52389,"gp_mid",23.27,50.35,"302",1,91.85,"turonian",1
"84785",161561,"col","",30.416668,37.366669,"Section 2, Koparan Tepe, sample 03-317",NA,"",2,"Turonian","",93.9,89.8,52594,"gp_mid",36.93,20.85,"504",1,91.85,"turonian",1
"84786",161562,"col","",30.416668,37.366669,"Section 2, Koparan Tepe, sample 03-313",NA,"",1,"Turonian","",93.9,89.8,52594,"gp_mid",36.93,20.85,"504",1,91.85,"turonian",1
"84787",161563,"col","",30.416668,37.366669,"Section 2, Koparan Tepe, sample 03-310",NA,"",1,"Turonian","",93.9,89.8,52594,"gp_mid",36.93,20.85,"504",1,91.85,"turonian",1
"84788",161564,"col","",30.416668,37.366669,"Section 2, Koparan Tepe, sample 03-306",NA,"",1,"Turonian","",93.9,89.8,52594,"gp_mid",36.93,20.85,"504",1,91.85,"turonian",1
"84789",161565,"col","",30.416668,37.366669,"Section 2, Koparan Tepe, sample 03-305",NA,"",3,"Turonian","",93.9,89.8,52594,"gp_mid",36.93,20.85,"504",1,91.85,"turonian",1
"84790",161566,"col","",30.416668,37.366669,"Section 3, Asar Dere, sample 03-572",NA,"",1,"Turonian","",93.9,89.8,52594,"gp_mid",36.93,20.85,"504",1,91.85,"turonian",1
"84791",161567,"col","",30.416668,37.366669,"Section 3, Asar Dere, sample 03-565",NA,"",1,"Turonian","",93.9,89.8,52594,"gp_mid",36.93,20.85,"504",1,91.85,"turonian",1
"85501",162705,"col","",16.662222,43.279999,"Brac, section 1",NA,"",1,"Turonian","",93.9,89.8,52973,"gp_mid",27.31,30.39,"307",1,91.85,"turonian",1
"85557",162823,"col","",13,41.583332,"Lepini-Simbruini Mts.",NA,"",10,"Turonian","",93.9,89.8,53008,"gp_mid",23.64,30.87,"307",1,91.85,"turonian",1
"85558",162824,"col","",14.35,41.349998,"Matese Mts.",NA,"",4,"Turonian","",93.9,89.8,53008,"gp_mid",24.35,30.03,"307",1,91.85,"turonian",1
"85559",162825,"col","",14.055,42.09111,"Maiella Mt.",NA,"",5,"Turonian","",93.9,89.8,53008,"gp_mid",24.72,30.74,"307",1,91.85,"turonian",1
"86875",165731,"col","Kemchi",48.633331,41.116669,"Mount Kelevudag, Kemchi Fm, Member 6, lower part",NA,"",2,"Turonian","",93.9,89.8,54155,"gp_mid",57.75,34.31,"402",1,91.85,"turonian",1
"86876",165732,"col","Kemchi",48.633331,41.116669,"Mount Kelevudag, Kemchi Fm, Member 6, samples 05-7-52/53",NA,"",15,"Turonian","",93.9,89.8,54155,"gp_mid",57.75,34.31,"402",1,91.85,"turonian",1
"86916",165785,"col","",40,44.700001,"Pambok-Chay River, Caucasus",NA,"",1,"Turonian","",93.9,89.8,54147,"gp_mid",49.8,37.7,"302",1,91.85,"turonian",1
"90872",174894,"col","",1.16,45.064999,"Montignac les Forges, Banc à O. columba",NA,"",1,"Turonian","",93.9,89.8,57155,"gp_mid",14.89,38.94,"305",1,91.85,"turonian",1
"91137",175378,"col","Picofrentes",-2.816667,41.133331,"Riofrio del Llano, tramo 5",NA,"",13,"Turonian","",93.9,89.8,57341,"gp_mid",11.22,34.47,"304",1,91.85,"turonian",1
"92036",177714,"col","Ladd",-117.616669,33.833332,"UCMP 2171. At clay mine, 200 feet up the canyon from a cabin",NA,"",1,"Turonian","",93.9,89.8,64742,"gp_mid",-75.33,39.2,"105",1,91.85,"turonian",1
"92037",177715,"col","Ladd",-117.64167,33.755001,"CIT 1065",NA,"LACMIP 10891",3,"Turonian","",93.9,89.8,58802,"gp_mid",-75.37,39.13,"105",1,91.85,"turonian",1
"92874",179209,"col","Carlile Shale",-104.882233,38.841938,"Red Rock Canyon Open Space (Codell Sandstone)",NA,"RRCOS",5,"Turonian","",93.9,89.8,59328,"gp_mid",-63.26,45.58,"101",1,91.85,"turonian",1
"94832",184448,"col","Wadi Daya",-5.41,34.035,"Jebel El Hajer El Jir (middle part of unit)",NA,"",3,"Turonian","",93.9,89.8,61801,"gp_mid",6.25,26.72,"707",1,91.85,"turonian",1
"94834",184450,"col","Wadi Daya",-5.383,34.025002,"Wadi Daya, western part",NA,"",1,"Turonian","",93.9,89.8,61801,"gp_mid",6.27,26.7,"707",1,91.85,"turonian",1
"95079",185008,"col","",141.839996,44.049999,"YEZ-7, junction of Kanajirisawa and Obirashibe-gawa",NA,"",4,"Turonian","",93.9,89.8,41704,"gp_mid",142.55,51.34,"610",1,91.85,"turonian",1
"95080",185009,"col","",141.869995,44.040001,"YEZ-8, Satoh-zawa",NA,"",1,"Turonian","",93.9,89.8,41704,"gp_mid",142.58,51.34,"610",1,91.85,"turonian",1
"95468",185610,"col","",-13.09,27.73,"Tarfaya",NA,"",3,"Turonian","",93.9,89.8,62230,"gp_mid",-3.15,23.46,"714",1,91.85,"turonian",1
"98118",194022,"col","Ladd",-117.625,33.721668,"LACMIP 10888 Santiago Peak",NA,"CIT loc. 981",1,"Turonian","",93.9,89.8,65883,"gp_mid",-75.35,39.09,"105",1,91.85,"turonian",1
"98119",194023,"col","Ladd",-117.625,33.721668,"LACMIP 10883 Santiago Peak",NA,"CIT loc. 1067, CIT loc. 986",2,"Turonian","",93.9,89.8,65883,"gp_mid",-75.35,39.09,"105",1,91.85,"turonian",1
"99031",196654,"col","Mancos Shale",-110.823608,38.358334,"BMRP 2017, vertebrate assemblage",NA,"",4,"Turonian","",93.9,89.8,66902,"gp_mid",-69.93,46.06,"101",1,91.85,"turonian",1
"99152",196997,"col","",3.385,50.605,"Tournai, Dièves deposit (IRSNB/KBIN collection)",NA,"",1,"Turonian","",93.9,89.8,67098,"gp_mid",17.49,44.34,"315",1,91.85,"turonian",1
"103633",206860,"col","",6.7667,15.7833,"Mt. Maya",NA,"Tamaya",1,"Turonian","",93.9,89.8,71151,"gp_mid",10.32,5.78,"714",1,91.85,"turonian",1
"105442",210342,"col","Hibernian Greensands",-5.695,54.764999,"Black Head Bay",NA,"",1,"Turonian","",93.9,89.8,72576,"gp_mid",10.12,49.02,"313",1,91.85,"turonian",1
"105674",210756,"col","",141.854172,44.041943,"Satoh-sawa",NA,"",3,"Turonian","",93.9,89.8,72767,"gp_mid",142.57,51.34,"610",1,91.85,"turonian",1
"105679",210761,"col","",142.15419,43.158718,"Pankehoroka-yuhparo-gawa",NA,"",1,"Turonian","",93.9,89.8,72767,"gp_mid",143.28,50.55,"610",1,91.85,"turonian",1
"107539",213761,"col","",-1.1202,43.679501,"DSO -44, Tercis-les-Bains",NA,"",2,"Turonian","",93.9,89.8,10432,"gp_mid",12.67,37.7,"305",1,91.85,"turonian",1
"107540",213762,"col","",-1.1202,43.679501,"DSO -43, Tercis-les-Bains",NA,"",1,"Turonian","",93.9,89.8,10432,"gp_mid",12.67,37.7,"305",1,91.85,"turonian",1
"107541",213763,"col","",-1.1202,43.679501,"DSO -42, Tercis-les-Bains",NA,"",3,"Turonian","",93.9,89.8,10432,"gp_mid",12.67,37.7,"305",1,91.85,"turonian",1
"107542",213764,"col","",-1.1202,43.679501,"DSO -41.5, Tercis-les-Bains",NA,"",1,"Turonian","",93.9,89.8,10432,"gp_mid",12.67,37.7,"305",1,91.85,"turonian",1
"107543",213765,"col","",-1.1202,43.679501,"DSO -40.5, Tercis-les-Bains",NA,"",1,"Turonian","",93.9,89.8,10432,"gp_mid",12.67,37.7,"305",1,91.85,"turonian",1
"107546",213768,"col","",-1.115,43.678902,"SMC -41, Tercis-les-Bains",NA,"",5,"Turonian","",93.9,89.8,10432,"gp_mid",12.67,37.7,"305",1,91.85,"turonian",1
"107547",213769,"col","",-1.115,43.678902,"SMC -34, Tercis-les-Bains",NA,"",4,"Turonian","",93.9,89.8,10432,"gp_mid",12.67,37.7,"305",1,91.85,"turonian",1
"108039",214304,"col","",34.509998,53.255001,"Outcrop BPO-3a, Polpino",NA,"",1,"Turonian","",93.9,89.8,73859,"gp_mid",44.81,46.21,"302",1,91.85,"turonian",1
