"","collection_no","record_type","formation","lng","lat","collection_name","collection_subset","collection_aka","n_occs","early_interval","late_interval","max_ma","min_ma","reference_no","paleomodel","paleolng","paleolat","geoplate","mid_ma","ext"
"1396",2799,"col","Greenhorn Limestone",-104.716667,38.283333,"Pueblo, CO (C2-31)",NA,"",2,"Turonian","",93.9,89.8,93,"gp_mid",-63.25,45.01,"101",91.85,1
"1397",2800,"col","Greenhorn Limestone",-104.716667,38.283333,"Pueblo, CO (C2-32)",NA,"",3,"Turonian","",93.9,89.8,93,"gp_mid",-63.25,45.01,"101",91.85,1
"1398",2801,"col","Greenhorn Limestone",-104.716667,38.283333,"Pueblo, CO (C2-33)",NA,"",3,"Turonian","",93.9,89.8,93,"gp_mid",-63.25,45.01,"101",91.85,1
"1399",2802,"col","Greenhorn Limestone",-104.716667,38.283333,"Pueblo, CO (C2-34)",NA,"",4,"Turonian","",93.9,89.8,93,"gp_mid",-63.25,45.01,"101",91.85,1
"1400",2803,"col","Greenhorn Limestone",-104.716667,38.283333,"Pueblo, CO (C2-35)",NA,"",4,"Turonian","",93.9,89.8,93,"gp_mid",-63.25,45.01,"101",91.85,1
"1401",2805,"col","Greenhorn Limestone",-104.716667,38.283333,"Pueblo, CO (C2-37)",NA,"",3,"Turonian","",93.9,89.8,93,"gp_mid",-63.25,45.01,"101",91.85,1
"1442",2806,"col","Greenhorn Limestone",-104.716667,38.283333,"Pueblo, CO (C2-42)",NA,"",3,"Turonian","",93.9,89.8,93,"gp_mid",-63.25,45.01,"101",91.85,1
"1443",2804,"col","Greenhorn Limestone",-104.716667,38.283333,"Pueblo, CO (C2-38)",NA,"",2,"Turonian","",93.9,89.8,93,"gp_mid",-63.25,45.01,"101",91.85,1
"1445",3070,"col","Greenhorn Limestone",-104.716667,38.283333,"Pueblo, CO (C2-43)",NA,"",2,"Turonian","",93.9,89.8,93,"gp_mid",-63.25,45.01,"101",91.85,1
"1446",3071,"col","Greenhorn Limestone",-104.716667,38.283333,"Pueblo, CO (C2-44)",NA,"",3,"Turonian","",93.9,89.8,93,"gp_mid",-63.25,45.01,"101",91.85,1
"1447",3072,"col","Greenhorn Limestone",-104.716667,38.283333,"Pueblo, CO (C2-45)",NA,"",5,"Turonian","",93.9,89.8,93,"gp_mid",-63.25,45.01,"101",91.85,1
"1448",3073,"col","Greenhorn Limestone",-104.716667,38.283333,"Pueblo, CO (C2-46)",NA,"",7,"Turonian","",93.9,89.8,93,"gp_mid",-63.25,45.01,"101",91.85,1
"1449",3074,"col","Greenhorn Limestone",-104.716667,38.283333,"Pueblo, CO (C2-47)",NA,"",10,"Turonian","",93.9,89.8,93,"gp_mid",-63.25,45.01,"101",91.85,1
"1717",3734,"col","Tuffeau jaune de Touraine",0.366667,49.75,"Touraine Fm., France",NA,"",10,"Turonian","",93.9,89.8,239,"gp_mid",14.71,43.65,"305",91.85,1
"1762",3812,"col","",3.395833,6.453056,"coastal west Africa, Nigeria",NA,"",12,"Turonian","",93.9,89.8,254,"gp_mid",4.16,-1.97,"714",91.85,1
"1775",1987,"col","Coleraine",-93.276665,47.321945,"Hill Annex Mine",NA,"",54,"Turonian","",93.9,89.8,53,"gp_mid",-47.66,51.73,"101",91.85,1
"1776",1989,"col","Coleraine",-93,47,"Arcturus Mine",NA,"",30,"Turonian","",93.9,89.8,53,"gp_mid",-47.51,51.37,"101",91.85,1
"1777",1990,"col","Coleraine",-93.427498,47.288891,"Mines in Coleraine-Bovey vicinity",NA,"",18,"Turonian","",93.9,89.8,53,"gp_mid",-47.83,51.72,"101",91.85,1
"5473",14414,"col","Straight Cliffs",-111.966263,37.602398,"Jimmy Canyon (MNA 995)",NA,"OMNH V843; UMNH VP Loc. 129",29,"Turonian","",93.9,89.8,1412,"gp_mid",-71.4,45.49,"101",91.85,1
"5477",14418,"col","Straight Cliffs",-111.5,37.799999,"Tibbet Canyon Member, OMNH V17",NA,"MNA 1006-2, NB4",3,"Turonian","",93.9,89.8,1412,"gp_mid",-70.83,45.62,"101",91.85,1
"20318",35104,"col","Brezno",14.466667,50.349998,"Chorousky, Czechia",NA,"Chorousek",1,"Turonian","",93.9,89.8,9216,"gp_mid",27.24,43.6,"305",91.85,1
"22795",38595,"col","Lewes Nodular Chalk",-3.1,50.700001,"Lewes Nodular Chalk-Beer Head 1",NA,"",10,"Turonian","",93.9,89.8,10260,"gp_mid",11.76,44.81,"315",91.85,1
"22797",38598,"col","Lewes Nodular Chalk",-3.1,50.700001,"Lewes Nodular Chalk-Annis`Knob",NA,"",1,"Turonian","",93.9,89.8,10260,"gp_mid",11.76,44.81,"315",91.85,1
"22798",38601,"col","Lewes Nodular Chalk",-2.966667,50.75,"Lewes Nodular Chalk-Allhallows",NA,"",8,"Turonian","",93.9,89.8,10260,"gp_mid",11.88,44.85,"315",91.85,1
"22799",38604,"col","Lewes Nodular Chalk",-2.966667,50.75,"Lewes Nodular Chalk-Lynch Cottage",NA,"",2,"Turonian","",93.9,89.8,10260,"gp_mid",11.88,44.85,"315",91.85,1
"22800",38607,"col","Lewes Nodular Chalk",-2.966667,50.75,"Lewes Nodular Chalk-Chapel Rock 1",NA,"",1,"Turonian","",93.9,89.8,10260,"gp_mid",11.88,44.85,"315",91.85,1
"23444",39577,"col","Mikasa Sandstone",141.949997,43.25,"Ikushumbetsu Area, Mikasa Sandstone, Hokkaido",NA,"",19,"Turonian","",93.9,89.8,10664,"gp_mid",143.01,50.6,"610",91.85,1
"23532",39669,"col","Mikasa Sandstone",141.949997,43.033333,"Yubari Area, Mikasa Sandstone, Hokkaido",NA,"",7,"Turonian","",93.9,89.8,10664,"gp_mid",143.1,50.39,"610",91.85,1
"23680",39823,"col","",141.949997,43.25,"Ikushumbetsu Area, Yezo Group, Hokkaido",NA,"",3,"Turonian","",93.9,89.8,10664,"gp_mid",143.01,50.6,"610",91.85,1
"23937",40218,"col","Mikasa Sandstone",141.96666,43.133331,"Manji Area, Mikasa Sandstone, Hokkaido",NA,"",4,"Turonian","",93.9,89.8,10664,"gp_mid",143.08,50.49,"610",91.85,1
"36789",56634,"col","Crevasse Canyon",-108.060898,35.574501,"KU 38",NA,"KUVP-38",1,"Turonian","",93.9,89.8,15088,"gp_mid",-67.65,42.9,"101",91.85,1
"37038",57014,"col","Frontier",-109.417221,40.578056,"Red Fleet dam",NA,"",1,"Turonian","",93.9,89.8,15378,"gp_mid",-67.71,48.02,"101",91.85,1
"37039",57015,"col","Frontier",-109.417221,40.578056,"Red Fleet Lake SW",NA,"",1,"Turonian","",93.9,89.8,15378,"gp_mid",-67.71,48.02,"101",91.85,1
"37533",57533,"col","White Chalk",0.183333,50.799999,"Beachy Head and Eastbourne, Sussex, Gun-Gardens-55-12",NA,"",11,"Turonian","",93.9,89.8,15482,"gp_mid",14.68,44.71,"315",91.85,1
"37534",57534,"col","White Chalk",0.183333,50.799999,"Beachy Head and Eastbourne, Sussex, Gun-Gardens-56-12",NA,"",18,"Turonian","",93.9,89.8,15482,"gp_mid",14.68,44.71,"315",91.85,1
"37535",57535,"col","White Chalk",0.183333,50.799999,"Beachy Head and Eastbourne, Sussex, Gun-Gardens-58-13",NA,"",16,"Turonian","",93.9,89.8,15482,"gp_mid",14.68,44.71,"315",91.85,1
"37536",57536,"col","White Chalk",0.183333,50.799999,"Beachy Head and Eastbourne, Sussex, Gun-Gardens-59-13",NA,"",12,"Turonian","",93.9,89.8,15482,"gp_mid",14.68,44.71,"315",91.85,1
"38499",58578,"col","",13.8,50.400002,"Echinodermata, Pyropensande, Trebivlice, Bohemia",NA,"",4,"Turonian","",93.9,89.8,16634,"gp_mid",26.66,43.67,"305",91.85,1
"38525",58602,"col","",63.833302,40.75,"Aigyrbulak",NA,"",1,"Turonian","",93.9,89.8,16510,"gp_mid",71.68,34.63,"402",91.85,1
"38526",58603,"col","",64.583336,41.150002,"Aznek",NA,"",3,"Turonian","",93.9,89.8,16510,"gp_mid",72.33,35.08,"402",91.85,1
"39527",59637,"col","",0.783333,49.116669,"Lense 1, Asteroidea, Hardground Tilleul 2, Turonian, Valleuse du Tilleul",NA,"",4,"Turonian","",93.9,89.8,17061,"gp_mid",15.01,43,"305",91.85,1
"39528",59638,"col","",0.783333,49.116669,"Lense 2, Asteroidea, Hardground Tilleul 2, Turonian, Valleuse du Tilleul",NA,"",3,"Turonian","",93.9,89.8,17061,"gp_mid",15.01,43,"305",91.85,1
"41722",62350,"col","Ladd",-117.5,33.5,"LACMIP loc. 8170, Santa Ana Mountains",NA,"CIT loc. 1828",2,"Turonian","",93.9,89.8,18028,"gp_mid",-75.25,38.86,"105",91.85,1
"42278",63082,"col","Kaskapau",-120.925003,55.1525,"Quality Creek, site 1 (facies 3)",NA,"",2,"Turonian","",93.9,89.8,18154,"gp_mid",-75.23,63.94,"101",91.85,1
"42279",63083,"col","Kaskapau",-120.925003,55.1525,"Quality Creek, site 5 (facies 5)",NA,"",4,"Turonian","",93.9,89.8,18154,"gp_mid",-75.23,63.94,"101",91.85,1
"42280",63084,"col","Kaskapau",-120.925003,55.1525,"Quality Creek, site 1 (facies 7)",NA,"",7,"Turonian","",93.9,89.8,18154,"gp_mid",-75.23,63.94,"101",91.85,1
"43359",65022,"col","Oguwa",132.75,33.25,"Oguwa Formation, Chikanaga area",NA,"",20,"Turonian","",93.9,89.8,18725,"gp_mid",136.79,39.08,"610",91.85,1
"44551",66683,"col","",-117.57,33.880001,"loc. 167",NA,"CAS 444A",1,"Turonian","",93.9,89.8,18968,"gp_mid",-75.27,39.24,"105",91.85,1
"45142",67565,"col","",22.783333,42.75,"Rebro, Pernik",NA,"",2,"Turonian","",93.9,89.8,19255,"gp_mid",30.88,27.15,"308",91.85,1
"45143",67566,"col","",22.733334,42.816666,"Kjulina, Tran area, Pernik",NA,"",2,"Turonian","",93.9,89.8,19255,"gp_mid",30.89,27.23,"308",91.85,1
"46493",69172,"col","Saku",142,43.083332,"Y1648 - Oyubari (Saku Formation)",NA,"",11,"Turonian","",93.9,89.8,19937,"gp_mid",143.14,50.44,"610",91.85,1
"46494",69173,"col","Saku",142,43.083332,"Y1620 - Oyubari (Saku Formation)",NA,"",6,"Turonian","",93.9,89.8,19937,"gp_mid",143.14,50.44,"610",91.85,1
"46495",69174,"col","Saku",142,43.083332,"Y1624 - Oyubari (Saku Formation)",NA,"",9,"Turonian","",93.9,89.8,19937,"gp_mid",143.14,50.44,"610",91.85,1
"46496",69175,"col","Saku",142,43.083332,"Y5251 - Oyubari (Saku Formation)",NA,"",6,"Turonian","",93.9,89.8,19937,"gp_mid",143.14,50.44,"610",91.85,1
"47932",71354,"col","",-111,51.583332,"693.20 m bed, GSC loc. C167141, Amoco Youngstown",NA,"",5,"Turonian","",93.9,89.8,23849,"gp_mid",-65.15,58.97,"101",91.85,1
"48891",73471,"col","",18.25,40.150002,"Corigliano d'Otranto, Lecce",NA,"",1,"Turonian","",93.9,89.8,24654,"gp_mid",26.07,27.22,"307",91.85,1
"48892",73472,"col","",18.266666,39.900002,"Presicce, Lecce",NA,"",2,"Turonian","",93.9,89.8,24654,"gp_mid",25.91,27.02,"307",91.85,1
"49769",74621,"col","",23.116667,37.650002,"Akros Massif, rudist biostromes",NA,"Reef 3121",12,"Turonian","",93.9,89.8,25089,"gp_mid",27.7,22.93,"307",91.85,1
"50823",76874,"col","Moreno Hill",-108.849998,35.066666,"Two Rocks Balanced tracksite (NMMNH L-6736)",NA,"",1,"Turonian","",93.9,89.8,25991,"gp_mid",-68.65,42.53,"101",91.85,1
"50944",77090,"col","",24.016666,49.833332,"Lviv",NA,"",1,"Turonian","",93.9,89.8,29186,"gp_mid",35.61,42.85,"302",91.85,1
"51520",78174,"col","Eagle Ford",-103.599998,29.316668,"USGS 16855, Terlingua",NA,"",1,"Turonian","",93.9,89.8,26335,"gp_mid",-64.42,36.04,"101",91.85,1
"52975",80927,"col","Ladd",-117.599998,33.700001,"Santiago Truck Trail Trigonarca-Flaventia Paleocommunity",NA,"STT-2",8,"Turonian","",93.9,89.8,27237,"gp_mid",-75.33,39.07,"105",91.85,1
"52976",80928,"col","Ladd",-117.616669,33.733334,"Silverado Truck Trail Onshore Inoperna-Pterotrigonia Association",NA,"STTH-4",8,"Turonian","",93.9,89.8,27237,"gp_mid",-75.34,39.1,"105",91.85,1
"52977",80929,"col","Ladd",-117.683334,33.75,"Silverado Canyon Offshore Inoperna-Pterotrigonia Association",NA,"Locality 4",7,"Turonian","",93.9,89.8,27237,"gp_mid",-75.41,39.12,"105",91.85,1
"52978",80930,"col","Ladd",-117.683334,33.75,"Silverado Canyon Glycymeris-Astarte Association",NA,"Locality 12",7,"Turonian","",93.9,89.8,27237,"gp_mid",-75.41,39.12,"105",91.85,1
"52979",80931,"col","Ladd",-117.683334,33.75,"Silverado Canyon Glycymeris-Astarte Association",NA,"Locality 11a",10,"Turonian","",93.9,89.8,27237,"gp_mid",-75.41,39.12,"105",91.85,1
"52980",80932,"col","Ladd",-117.683334,33.75,"Silverado Canyon Glycymeris-Astarte Association",NA,"Locality 11b",5,"Turonian","",93.9,89.8,27237,"gp_mid",-75.41,39.12,"105",91.85,1
"52981",80933,"col","Ladd",-117.683334,33.75,"Silverado Canyon Eriphyla-Limopsis Association",NA,"Locality 3",6,"Turonian","",93.9,89.8,27237,"gp_mid",-75.41,39.12,"105",91.85,1
"52982",80934,"col","Ladd",-117.683334,33.75,"Silverado Canyon Turritella-Alaria Association",NA,"Locality 5",12,"Turonian","",93.9,89.8,27237,"gp_mid",-75.41,39.12,"105",91.85,1
"52983",80935,"col","Ladd",-117.683334,33.75,"Silverado Canyon Cerithium-Parallelodon Association",NA,"Locality 14b",10,"Turonian","",93.9,89.8,27237,"gp_mid",-75.41,39.12,"105",91.85,1
"52984",80936,"col","Ladd",-117.683334,33.75,"Silverado Canyon Cerithium-Parallelodon Association",NA,"Locality 14a",10,"Turonian","",93.9,89.8,27237,"gp_mid",-75.41,39.12,"105",91.85,1
"52985",80937,"col","Ladd",-117.683334,33.75,"Silverado Canyon Cerithium-Parallelodon Association",NA,"Locality 14d",7,"Turonian","",93.9,89.8,27237,"gp_mid",-75.41,39.12,"105",91.85,1
"52986",80938,"col","Ladd",-117.683334,33.75,"Silverado Canyon Cerithium-Parallelodon Association",NA,"Locality 14e",4,"Turonian","",93.9,89.8,27237,"gp_mid",-75.41,39.12,"105",91.85,1
"52987",80939,"col","Ladd",-117.683334,33.75,"Silverado Canyon Cerithium-Parallelodon Association",NA,"Locality 14f",6,"Turonian","",93.9,89.8,27237,"gp_mid",-75.41,39.12,"105",91.85,1
"52988",80940,"col","Ladd",-117.683334,33.75,"Silverado Canyon Pseudoperna-Anchura Association",NA,"Locality 10",3,"Turonian","",93.9,89.8,27237,"gp_mid",-75.41,39.12,"105",91.85,1
"53723",82213,"col","Niobrara",-104.596947,36.353333,"USGS D11969, Section 1 [Fort Hays Limestone Mbr, Niobrara Fm]",NA,"",6,"Turonian","",93.9,89.8,27708,"gp_mid",-63.68,43.1,"101",91.85,1
"53724",82214,"col","Niobrara",-104.596947,36.353333,"USGS D11970, Section 1 [Fort Hays Limestone Mbr, Niobrara Fm]",NA,"",3,"Turonian","",93.9,89.8,27708,"gp_mid",-63.68,43.1,"101",91.85,1
"53725",82215,"col","Niobrara",-104.596947,36.353333,"USGS D12443, Section 1 [Fort Hays Limestone Mbr, Niobrara Fm]",NA,"",1,"Turonian","",93.9,89.8,27708,"gp_mid",-63.68,43.1,"101",91.85,1
"53726",82216,"col","Niobrara",-104.596947,36.353333,"USGS D12442, Section 1 [Fort Hays Limestone Mbr, Niobrara Fm]",NA,"",1,"Turonian","",93.9,89.8,27708,"gp_mid",-63.68,43.1,"101",91.85,1
"53727",82217,"col","Niobrara",-104.853058,36.368057,"USGS D11829, Section 2 [Fort Hays Limestone Mbr, Niobrara Fm]",NA,"",1,"Turonian","",93.9,89.8,27708,"gp_mid",-63.96,43.16,"101",91.85,1
"53728",82218,"col","Niobrara",-104.853058,36.368057,"USGS D11828, Section 2 [Fort Hays Limestone Mbr, Niobrara Fm]",NA,"",1,"Turonian","",93.9,89.8,27708,"gp_mid",-63.96,43.16,"101",91.85,1
"53729",82219,"col","Niobrara",-104.853058,36.368057,"USGS D11832, Section 3 [Fort Hays Limestone Mbr, Niobrara Fm]",NA,"",1,"Turonian","",93.9,89.8,27708,"gp_mid",-63.96,43.16,"101",91.85,1
"53730",82220,"col","Niobrara",-104.400558,36.093613,"USGS D12524, Section 5 [Fort Hays Limestone Mbr, Niobrara Fm]",NA,"",1,"Turonian","",93.9,89.8,27708,"gp_mid",-63.54,42.82,"101",91.85,1
"53731",82221,"col","Niobrara",-104.400558,36.093613,"USGS D12523, Section 5 [Fort Hays Limestone Mbr, Niobrara Fm]",NA,"",3,"Turonian","",93.9,89.8,27708,"gp_mid",-63.54,42.82,"101",91.85,1
"53732",82222,"col","Niobrara",-104.400558,36.093613,"USGS D11836, Section 5 [Fort Hays Limestone Mbr, Niobrara Fm]",NA,"",2,"Turonian","",93.9,89.8,27708,"gp_mid",-63.54,42.82,"101",91.85,1
"53733",82223,"col","Niobrara",-104.008888,36.821667,"USGS D11971, Section 7 [Fort Hays Limestone Mbr, Niobrara Fm]",NA,"",2,"Turonian","",93.9,89.8,27708,"gp_mid",-62.92,43.46,"101",91.85,1
"53734",82224,"col","Niobrara",-104.358887,36.555,"USGS D11967, Section 8 [Fort Hays Limestone Mbr, Niobrara Fm]",NA,"",4,"Turonian","",93.9,89.8,27708,"gp_mid",-63.37,43.26,"101",91.85,1
"55591",84752,"col","",5.7,35.216667,"El Kantara",NA,"",3,"Turonian","",93.9,89.8,28439,"gp_mid",16.15,24.42,"714",91.85,1
"55605",84770,"col","Gornji Humac",16.216667,43.016666,"Polivalo Cape, Vis Island",NA,"",5,"Turonian","",93.9,89.8,28445,"gp_mid",26.82,30.4,"307",91.85,1
"56881",86680,"col","",46.483334,40.400002,"Agdzhakend",NA,"",2,"Turonian","",93.9,89.8,29186,"gp_mid",55.82,33.54,"511",91.85,1
"56925",86770,"col","",38.383331,48.849998,"Sekmenyevskiy Quarry, Donets Basin",NA,"",1,"Turonian","",93.9,89.8,29186,"gp_mid",48.26,41.83,"302",91.85,1
"57575",87591,"col","Second White Speckled Shale",-120,55.883057,"Pouce Coupe River [Second White Speckled Shale]",NA,"",2,"Turonian","",93.9,89.8,29479,"gp_mid",-73.64,64.51,"101",91.85,1
"57712",87752,"col","Mancos Shale",-108.886665,40.762222,"USGS Loc. M11669, Vermilion Creek [Mancos Shale]",NA,"",1,"Turonian","",93.9,89.8,29509,"gp_mid",-67.06,48.11,"101",91.85,1
"57714",87754,"col","Mancos Shale",-108.886665,40.762222,"USGS Loc. M11668, Vermilion Creek [Mancos Shale]",NA,"USGS Loc. M11667",8,"Turonian","",93.9,89.8,29509,"gp_mid",-67.06,48.11,"101",91.85,1
"57805",87871,"col","Greenhorn",-98.200279,39.049999,"Lincoln Co. [Jetmore Mbr, Greenhorn Fm]",NA,"",1,"Turonian","",93.9,89.8,29532,"gp_mid",-56.02,44.63,"101",91.85,1
"57900",88018,"col","",-93.06694,44.666668,"Near Minneapolis, Dakota Co.",NA,"",1,"Turonian","",93.9,89.8,29572,"gp_mid",-48.57,49.13,"101",91.85,1
"58232",88380,"col","Carlile Shale",-103.852219,44.671391,"USGS Loc. 21195, Belle Fourche [Carlile Shale]",NA,"Loc. 4",0,"Turonian","",93.9,89.8,29675,"gp_mid",-60.14,51.09,"101",91.85,1
"58268",88415,"col","Carlile Shale",-103.550552,43.266666,"USGS Loc. D13834, Fall River Co. [Carlile Shale]",NA,"Loc. 16 (of Kennedy et al. 2001)",2,"Turonian","",93.9,89.8,29675,"gp_mid",-60.33,49.67,"101",91.85,1
"62053",93874,"col","Middle Iser Shales",16.247499,49.99361,"Zárecká Lhota, Chocen",NA,"Ornithocheirus hlavatschi holotype, Chotzen",1,"Turonian","",93.9,89.8,31915,"gp_mid",28.79,43.19,"305",91.85,1
"62153",93976,"col","",-12.233333,28.083332,"Borehole S1 (83 m)",NA,"",1,"Turonian","",93.9,89.8,31942,"gp_mid",-2.24,23.49,"714",91.85,1
"62154",93977,"col","",-12.233333,28.083332,"Borehole S1 (113 m)",NA,"",1,"Turonian","",93.9,89.8,31942,"gp_mid",-2.24,23.49,"714",91.85,1
"62155",93978,"col","",-12.233333,28.083332,"Borehole S1 (132 m)",NA,"",3,"Turonian","",93.9,89.8,31942,"gp_mid",-2.24,23.49,"714",91.85,1
"62156",93979,"col","",-12.233333,28.083332,"Borehole S1 (138 m)",NA,"",2,"Turonian","",93.9,89.8,31942,"gp_mid",-2.24,23.49,"714",91.85,1
"62157",93980,"col","",-12.233333,28.083332,"Borehole S1 (139 m)",NA,"",1,"Turonian","",93.9,89.8,31942,"gp_mid",-2.24,23.49,"714",91.85,1
"62158",93981,"col","",-12.233333,28.083332,"Borehole S1 (143 m)",NA,"",1,"Turonian","",93.9,89.8,31942,"gp_mid",-2.24,23.49,"714",91.85,1
"62159",93982,"col","",-12.233333,28.083332,"Borehole S1 (144 m)",NA,"",1,"Turonian","",93.9,89.8,31942,"gp_mid",-2.24,23.49,"714",91.85,1
"62160",93983,"col","",-12.233333,28.083332,"Borehole S1 (148 m)",NA,"",1,"Turonian","",93.9,89.8,31942,"gp_mid",-2.24,23.49,"714",91.85,1
"62161",93984,"col","",-12.233333,28.083332,"Borehole S1 (149 m)",NA,"",2,"Turonian","",93.9,89.8,31942,"gp_mid",-2.24,23.49,"714",91.85,1
"62162",93985,"col","",-12.233333,28.083332,"Borehole S1 (182 m)",NA,"",1,"Turonian","",93.9,89.8,31942,"gp_mid",-2.24,23.49,"714",91.85,1
"62163",93986,"col","",-12.233333,28.083332,"Borehole S1 (185 m)",NA,"",1,"Turonian","",93.9,89.8,31942,"gp_mid",-2.24,23.49,"714",91.85,1
"62164",93987,"col","",-12.233333,28.083332,"Borehole S1 (203 m)",NA,"",2,"Turonian","",93.9,89.8,31942,"gp_mid",-2.24,23.49,"714",91.85,1
"62165",93988,"col","",-12.233333,28.083332,"Borehole S1 (210 m)",NA,"",1,"Turonian","",93.9,89.8,31942,"gp_mid",-2.24,23.49,"714",91.85,1
"62166",93989,"col","",-12.233333,28.083332,"Borehole S1 (217 m)",NA,"",2,"Turonian","",93.9,89.8,31942,"gp_mid",-2.24,23.49,"714",91.85,1
"62167",93990,"col","",-12.233333,28.083332,"Borehole S1 (221 m)",NA,"",1,"Turonian","",93.9,89.8,31942,"gp_mid",-2.24,23.49,"714",91.85,1
"63782",95787,"col","Jaworki",20.266666,49.416668,"Kosarzyska Valley, Macelowa Marl",NA,"",8,"Turonian","",93.9,89.8,32536,"gp_mid",32.29,42.51,"305",91.85,1
"63897",95912,"col","",37.833332,56.083332,"Moscow Basin, borehole 112, sample 5",NA,"",13,"Turonian","",93.9,89.8,32571,"gp_mid",47.61,49.06,"302",91.85,1
"63964",95979,"col","",37.966667,56.166668,"Moscow Basin, borehole 104, sample 3",NA,"",2,"Turonian","",93.9,89.8,32571,"gp_mid",47.72,49.14,"302",91.85,1
"63972",95987,"col","",35.516666,54.583332,"Moscow Basin, borehole 71, samples 19-23",NA,"",3,"Turonian","",93.9,89.8,32571,"gp_mid",45.66,47.54,"302",91.85,1
"63975",95990,"col","",34.416668,53.466667,"Moscow Basin, borehole 27, samples 28, 29, 33",NA,"",11,"Turonian","",93.9,89.8,32571,"gp_mid",44.73,46.42,"302",91.85,1
"63982",95997,"col","",39.366669,56.200001,"Moscow Basin, borehole 151, sample 2",NA,"",3,"Turonian","",93.9,89.8,32571,"gp_mid",48.91,49.19,"302",91.85,1
"65260",97960,"col","Ferron",-111.110519,38.939995,"Moore Cutoff Tracksite",NA,"",1,"Turonian","",93.9,89.8,32617,"gp_mid",-70.08,46.68,"101",91.85,1
"66485",99338,"col","Cardium",-114.01667,49.333332,"southwest of Fish Lake",NA,"",1,"Turonian","",93.9,89.8,34154,"gp_mid",-69.74,57.27,"101",91.85,1
"68865",102712,"col","Carlile Shale",-98.599998,39.349998,"Medicine Peak",NA,"",1,"Turonian","",93.9,89.8,34803,"gp_mid",-56.34,44.99,"101",91.85,1
"69001",102878,"col","Carlile Shale",-99.254997,39.084721,"KUVP Ellis-6",NA,"",1,"Turonian","",93.9,89.8,34803,"gp_mid",-57.13,44.85,"101",91.85,1
"69002",102879,"col","Carlile Shale",-99.24472,39.081112,"KUVP Ellis-5",NA,"",13,"Turonian","",93.9,89.8,34803,"gp_mid",-57.12,44.85,"101",91.85,1
"74748",110531,"col","""Scaphiten-Pläner""",10.15,52.150002,"Nettlingen",NA,"",29,"Turonian","",93.9,89.8,36375,"gp_mid",23.61,45.56,"315",91.85,1
"74749",110532,"col","""Scaphiten-Pläner""",11.05,51.900002,"Halberstadt",NA,"",10,"Turonian","",93.9,89.8,36375,"gp_mid",24.37,45.27,"315",91.85,1
"74750",110533,"col","""Cuvieri-Pläner""",10.25,52.066666,"Heere",NA,"",23,"Turonian","",93.9,89.8,36375,"gp_mid",23.69,45.47,"315",91.85,1
"74829",110617,"col","""Cuvieri-Pläner""",10.333333,52.133331,"Salder",NA,"",6,"Turonian","",93.9,89.8,36375,"gp_mid",23.76,45.54,"315",91.85,1
"75165",110963,"col","""Cuvieri-Pläner""",10.316667,52.150002,"Windmühlenberg",NA,"",2,"Turonian","",93.9,89.8,36375,"gp_mid",23.75,45.55,"315",91.85,1
"75564",111401,"col","""Cuvieri-Pläner""",10.4,51.966667,"Dörnten",NA,"",5,"Turonian","",93.9,89.8,36477,"gp_mid",23.81,45.37,"315",91.85,1
"75578",111418,"col","""Brongniarti-Pläner""",10.55,51.966667,"Harlyberg, Vienenburg",NA,"",1,"Turonian","",93.9,89.8,36477,"gp_mid",23.94,45.36,"315",91.85,1
"75639",111532,"col","""Scaphiten-Pläner""",17.950001,50.666668,"Opole",NA,"",10,"Turonian","",93.9,89.8,36477,"gp_mid",30.32,43.81,"305",91.85,1
"79175",116293,"col","Coleraine",-93.576111,47.505554,"Mesabi Iron Range",NA,"Teleorhinus mesabiensis type locality",1,"Turonian","",93.9,89.8,33421,"gp_mid",-47.89,51.96,"101",91.85,1
"80696",117995,"col","",-100.010002,26.389999,"Marlstones of Vallecillo Quarries, near Vallecillo village",NA,"",1,"Turonian","",93.9,89.8,37941,"gp_mid",-61.32,32.56,"101",91.85,1
"85001",123409,"col","Mancos Shale",-111.966667,37.599998,"Henrieville",NA,"",1,"Turonian","",93.9,89.8,39438,"gp_mid",-71.4,45.49,"101",91.85,1
"96281",138297,"col","Oerlinghausen",10.29,52.139999,"Braunschweig-Broitzem (Allopleuron locality)",NA,"",1,"Turonian","",93.9,89.8,44226,"gp_mid",23.73,45.54,"315",91.85,1
"98334",140628,"col","Lewes Nodular Chalk",-2.161667,51.253613,"Portland Cement Co. Quarry, Beggar's Knoll",NA,"",13,"Turonian","",93.9,89.8,45551,"gp_mid",12.67,45.3,"315",91.85,1
"99585",142104,"col","Benton",-114.278893,50.673889,"Turner valley, southern Alberta",NA,"",1,"Turonian","",93.9,89.8,45555,"gp_mid",-69.44,58.61,"101",91.85,1
"99586",142105,"col","Carlile",-103.636948,44.459999,"Near Whitewood",NA,"",1,"Turonian","",93.9,89.8,45555,"gp_mid",-59.98,50.84,"101",91.85,1
"100074",142743,"col","Ojinaga",-104.771385,30.2125,"84km northwest of Ojinaga",NA,"Mosasaur locality",1,"Turonian","",93.9,89.8,46323,"gp_mid",-65.45,37.11,"101",91.85,1
"108371",153685,"col","",-3.77,42.810001,"Escalada (Burgos)",NA,"",1,"Turonian","",93.9,89.8,49761,"gp_mid",10.99,36.28,"304",91.85,1
"109615",155192,"col","",15.89,50.310001,"Vlkov near Smirice",NA,"",1,"Turonian","",93.9,89.8,50341,"gp_mid",28.49,43.52,"305",91.85,1
"109616",155193,"col","",15.91,50.290001,"Smrzov",NA,"",1,"Turonian","",93.9,89.8,50341,"gp_mid",28.51,43.5,"305",91.85,1
"109617",155194,"col","",15.88,50.279999,"Cibuz (Hradec Kralove)",NA,"",1,"Turonian","",93.9,89.8,50341,"gp_mid",28.48,43.49,"305",91.85,1
"109618",155195,"col","",16.049999,50.240002,"Mestec (near Opocno)",NA,"",1,"Turonian","",93.9,89.8,50341,"gp_mid",28.63,43.44,"305",91.85,1
"109620",155197,"col","",15.3,50.169998,"Dlouhopolsko (Nymburk), borehole KN-2",NA,"",1,"Turonian","",93.9,89.8,50341,"gp_mid",27.96,43.39,"305",91.85,1
"109621",155198,"col","",15.39,50.07,"Uhlirska Lhota ""Datel"" wood",NA,"",1,"Turonian","",93.9,89.8,50341,"gp_mid",28.03,43.29,"305",91.85,1
"109622",155199,"col","",15.61,50.02,"Valy near Pardubice",NA,"",1,"Turonian","",93.9,89.8,50341,"gp_mid",28.23,43.24,"305",91.85,1
"109626",155203,"col","",15.82,50.209999,"Hradec Kralove (borehole HK-184, 251.5m)",NA,"",1,"Turonian","",93.9,89.8,50341,"gp_mid",28.42,43.42,"305",91.85,1
"109661",155269,"col","",-3.085,50.699001,"White Cliff, Hooken",NA,"",1,"Turonian","",93.9,89.8,50341,"gp_mid",11.77,44.81,"315",91.85,1
"109662",155270,"col","Middle Chalk",-3.096,50.685001,"Beer Head",NA,"",1,"Turonian","",93.9,89.8,50341,"gp_mid",11.76,44.8,"315",91.85,1
"109663",155271,"col","",0.5,51.380001,"Borstal pit near Rochester",NA,"",1,"Turonian","",93.9,89.8,50341,"gp_mid",15.04,45.27,"315",91.85,1
"109664",155272,"col","",1.17,51.080002,"Folkestone",NA,"",1,"Turonian","",93.9,89.8,50341,"gp_mid",15.59,44.93,"315",91.85,1
"109665",155273,"col","",1.2,51.099998,"Warren near Capel, Folkestone",NA,"",1,"Turonian","",93.9,89.8,50341,"gp_mid",15.62,44.95,"315",91.85,1
"109666",155274,"col","Middle Chalk",1.31,51.130001,"Dover (NM)",NA,"",1,"Turonian","",93.9,89.8,50341,"gp_mid",15.72,44.97,"315",91.85,1
"109667",155275,"col","Middle Chalk",-1.56,51.41,"Froxfield, Petersfield",NA,"",1,"Turonian","",93.9,89.8,50341,"gp_mid",13.22,45.42,"315",91.85,1
"110679",157191,"col","",64.150002,46.220001,"Kankazgan (PIN collection 3314)",NA,"",1,"Turonian","",93.9,89.8,51523,"gp_mid",71.41,40.11,"402",91.85,1
"112232",159617,"col","Holywell Nodular Chalk",-0.267,51.240002,"Betchworth",NA,"",1,"Turonian","",93.9,89.8,52150,"gp_mid",14.34,45.17,"315",91.85,1
"112234",159618,"col","Lower Chalk",-0.4769,51.930302,"Sundon church",NA,"",1,"Turonian","",93.9,89.8,52150,"gp_mid",14.25,45.87,"315",91.85,1
"112235",159619,"col","Lower Chalk",-0.78,51.754002,"Butler's Cross",NA,"",1,"Turonian","",93.9,89.8,52150,"gp_mid",13.96,45.72,"315",91.85,1
"112236",159620,"col","Lower Chalk",-0.08,52.060001,"Littlington",NA,"",1,"Turonian","",93.9,89.8,52150,"gp_mid",14.62,45.98,"315",91.85,1
"112237",159621,"col","Lower Chalk",0.051,50.854,"Beddingham",NA,"",1,"Turonian","",93.9,89.8,52150,"gp_mid",14.57,44.77,"315",91.85,1
"112238",159622,"col","Middle Chalk",0.329,51.327,"Fairseat",NA,"",1,"Turonian","",93.9,89.8,52150,"gp_mid",14.88,45.23,"315",91.85,1
"112239",159623,"col","Middle Chalk",1.31,51.127998,"Dover (Middle Chalk)",NA,"",3,"Turonian","",93.9,89.8,52150,"gp_mid",15.72,44.97,"315",91.85,1
"112240",159624,"col","Middle Chalk",-0.267,51.240002,"Betchworth (Middle Chalk)",NA,"",3,"Turonian","",93.9,89.8,52150,"gp_mid",14.34,45.17,"315",91.85,1
"112241",159625,"col","Middle Chalk",-0.693,51.793999,"Tring Hill",NA,"",1,"Turonian","",93.9,89.8,52150,"gp_mid",14.04,45.75,"315",91.85,1
"112242",159626,"col","Middle Chalk",0.1833,52.150002,"Gogmagog hills",NA,"",1,"Turonian","",93.9,89.8,52150,"gp_mid",14.86,46.05,"315",91.85,1
"112243",159627,"col","Middle Chalk",-3.098,50.688,"Seaton to Hooken beach",NA,"",1,"Turonian","",93.9,89.8,52150,"gp_mid",11.76,44.8,"315",91.85,1
"112244",159628,"col","Middle Chalk",-1.276,51.053001,"Chilcomb",NA,"",1,"Turonian","",93.9,89.8,52150,"gp_mid",13.43,45.05,"315",91.85,1
"112245",159629,"col","Middle Chalk",-1.31,51.060001,"Winchester",NA,"",1,"Turonian","",93.9,89.8,52150,"gp_mid",13.4,45.06,"315",91.85,1
"112246",159630,"col","Middle Chalk",-0.282,51.949001,"Hitchin Heights",NA,"",1,"Turonian","",93.9,89.8,52150,"gp_mid",14.43,45.88,"315",91.85,1
"112247",159631,"col","Middle Chalk",0.478,51.332001,"Burham (Middle Chalk)",NA,"",2,"Turonian","",93.9,89.8,52150,"gp_mid",15.01,45.22,"315",91.85,1
"112248",159632,"col","Middle Chalk",-1.01,51.645,"Watlington",NA,"",1,"Turonian","",93.9,89.8,52150,"gp_mid",13.74,45.62,"315",91.85,1
"112249",159633,"col","Middle Chalk",-0.205,51.237,"Reigate (Middle Chalk)",NA,"",2,"Turonian","",93.9,89.8,52150,"gp_mid",14.4,45.17,"315",91.85,1
"112250",159634,"col","Middle Chalk",-3.1062,50.687901,"Branscombe Coastguard station cliff",NA,"",1,"Turonian","",93.9,89.8,52150,"gp_mid",11.75,44.8,"315",91.85,1
"112251",159635,"col","Middle Chalk",-3.113,50.698002,"Beer Freestone Quarry",NA,"",2,"Turonian","",93.9,89.8,52150,"gp_mid",11.75,44.81,"315",91.85,1
"112254",159638,"col","Middle Chalk",-3.136,50.692001,"Branscombe or Berry Cliffs",NA,"",1,"Turonian","",93.9,89.8,52150,"gp_mid",11.73,44.81,"315",91.85,1
"112255",159639,"col","Middle Chalk",-2.246,50.618999,"Lulworth Cove",NA,"",1,"Turonian","",93.9,89.8,52150,"gp_mid",12.51,44.68,"315",91.85,1
"112256",159640,"col","Middle Chalk",-0.709,51.779999,"north of Aston Hill",NA,"",1,"Turonian","",93.9,89.8,52150,"gp_mid",14.03,45.74,"315",91.85,1
"112257",159641,"col","Middle Chalk",-0.28,51.949001,"Hitchin",NA,"",1,"Turonian","",93.9,89.8,52150,"gp_mid",14.43,45.88,"315",91.85,1
"112259",159643,"col","Middle Chalk",-0.465,51.220001,"Shere",NA,"",1,"Turonian","",93.9,89.8,52150,"gp_mid",14.17,45.17,"315",91.85,1
"112908",160518,"col","",9.166667,56.916668,"Limfjord",NA,"",2,"Turonian","",93.9,89.8,52389,"gp_mid",23.27,50.35,"302",91.85,1
"113748",161561,"col","",30.416668,37.366669,"Section 2, Koparan Tepe, sample 03-317",NA,"",2,"Turonian","",93.9,89.8,52594,"gp_mid",36.93,20.85,"504",91.85,1
"113749",161562,"col","",30.416668,37.366669,"Section 2, Koparan Tepe, sample 03-313",NA,"",1,"Turonian","",93.9,89.8,52594,"gp_mid",36.93,20.85,"504",91.85,1
"113750",161563,"col","",30.416668,37.366669,"Section 2, Koparan Tepe, sample 03-310",NA,"",1,"Turonian","",93.9,89.8,52594,"gp_mid",36.93,20.85,"504",91.85,1
"113751",161564,"col","",30.416668,37.366669,"Section 2, Koparan Tepe, sample 03-306",NA,"",1,"Turonian","",93.9,89.8,52594,"gp_mid",36.93,20.85,"504",91.85,1
"113752",161565,"col","",30.416668,37.366669,"Section 2, Koparan Tepe, sample 03-305",NA,"",3,"Turonian","",93.9,89.8,52594,"gp_mid",36.93,20.85,"504",91.85,1
"113753",161566,"col","",30.416668,37.366669,"Section 3, Asar Dere, sample 03-572",NA,"",1,"Turonian","",93.9,89.8,52594,"gp_mid",36.93,20.85,"504",91.85,1
"113754",161567,"col","",30.416668,37.366669,"Section 3, Asar Dere, sample 03-565",NA,"",1,"Turonian","",93.9,89.8,52594,"gp_mid",36.93,20.85,"504",91.85,1
"114542",162705,"col","",16.662222,43.279999,"Brac, section 1",NA,"",1,"Turonian","",93.9,89.8,52973,"gp_mid",27.31,30.39,"307",91.85,1
"114608",162823,"col","",13,41.583332,"Lepini-Simbruini Mts.",NA,"",10,"Turonian","",93.9,89.8,53008,"gp_mid",23.64,30.87,"307",91.85,1
"114609",162824,"col","",14.35,41.349998,"Matese Mts.",NA,"",4,"Turonian","",93.9,89.8,53008,"gp_mid",24.35,30.03,"307",91.85,1
"114610",162825,"col","",14.055,42.09111,"Maiella Mt.",NA,"",5,"Turonian","",93.9,89.8,53008,"gp_mid",24.72,30.74,"307",91.85,1
"115428",164386,"col","",-1.858,46.882,"La Robinière (La Garnache 1), Vendée amber",NA,"Vendean amber",20,"Turonian","",93.9,89.8,53658,"gp_mid",12.37,40.93,"305",91.85,1
"116213",165731,"col","Kemchi",48.633331,41.116669,"Mount Kelevudag, Kemchi Fm, Member 6, lower part",NA,"",2,"Turonian","",93.9,89.8,54155,"gp_mid",57.75,34.31,"402",91.85,1
"116214",165732,"col","Kemchi",48.633331,41.116669,"Mount Kelevudag, Kemchi Fm, Member 6, samples 05-7-52/53",NA,"",15,"Turonian","",93.9,89.8,54155,"gp_mid",57.75,34.31,"402",91.85,1
"116261",165785,"col","",40,44.700001,"Pambok-Chay River, Caucasus",NA,"",1,"Turonian","",93.9,89.8,54147,"gp_mid",49.8,37.7,"302",91.85,1
"121314",174894,"col","",1.16,45.064999,"Montignac les Forges, Banc à O. columba",NA,"",1,"Turonian","",93.9,89.8,57155,"gp_mid",14.89,38.94,"305",91.85,1
"121678",175378,"col","Picofrentes",-2.816667,41.133331,"Riofrio del Llano, tramo 5",NA,"",13,"Turonian","",93.9,89.8,57341,"gp_mid",11.22,34.47,"304",91.85,1
"123352",177714,"col","Ladd",-117.616669,33.833332,"UCMP 2171. At clay mine, 200 feet up the canyon from a cabin",NA,"",1,"Turonian","",93.9,89.8,64742,"gp_mid",-75.33,39.2,"105",91.85,1
"123353",177715,"col","Ladd",-117.64167,33.755001,"CIT 1065",NA,"LACMIP 10891",3,"Turonian","",93.9,89.8,58802,"gp_mid",-75.37,39.13,"105",91.85,1
"124411",179209,"col","Carlile Shale",-104.882233,38.841938,"Red Rock Canyon Open Space (Codell Sandstone)",NA,"RRCOS",5,"Turonian","",93.9,89.8,59328,"gp_mid",-63.26,45.58,"101",91.85,1
"124464",179267,"col","Tres Hermanos",-106.735809,34.307762,"Sevilleta Grant, near La Joya",NA,"",23,"Turonian","",93.9,89.8,59349,"gp_mid",-66.55,41.45,"101",91.85,1
"125765",181356,"col","Straight Cliffs",-111.889999,37.490002,"13km SE of Henrieville, OMNH V1404",NA,"",6,"Turonian","",93.9,89.8,31563,"gp_mid",-71.35,45.37,"101",91.85,1
"127700",184448,"col","Wadi Daya",-5.41,34.035,"Jebel El Hajer El Jir (middle part of unit)",NA,"",3,"Turonian","",93.9,89.8,61801,"gp_mid",6.25,26.72,"707",91.85,1
"127702",184450,"col","Wadi Daya",-5.383,34.025002,"Wadi Daya, western part",NA,"",1,"Turonian","",93.9,89.8,61801,"gp_mid",6.27,26.7,"707",91.85,1
"128475",185610,"col","",-13.09,27.73,"Tarfaya",NA,"",3,"Turonian","",93.9,89.8,62230,"gp_mid",-3.15,23.46,"714",91.85,1
"132599",194022,"col","Ladd",-117.625,33.721668,"LACMIP 10888 Santiago Peak",NA,"CIT loc. 981",1,"Turonian","",93.9,89.8,65883,"gp_mid",-75.35,39.09,"105",91.85,1
"132600",194023,"col","Ladd",-117.625,33.721668,"LACMIP 10883 Santiago Peak",NA,"CIT loc. 1067, CIT loc. 986",2,"Turonian","",93.9,89.8,65883,"gp_mid",-75.35,39.09,"105",91.85,1
"133880",196652,"col","Mancos Shale",-110.133331,38.033333,"UF 19462-69143 angiosperm wood",NA,"",1,"Turonian","",93.9,89.8,66902,"gp_mid",-69.25,45.64,"101",91.85,1
"133881",196653,"col","Mancos Shale",-110.879997,38.389999,"UF 19523, leaf assemblage",NA,"",1,"Turonian","",93.9,89.8,66902,"gp_mid",-69.98,46.1,"101",91.85,1
"133882",196654,"col","Mancos Shale",-110.823608,38.358334,"BMRP 2017, vertebrate assemblage",NA,"",4,"Turonian","",93.9,89.8,66902,"gp_mid",-69.93,46.06,"101",91.85,1
"139965",206860,"col","",6.7667,15.7833,"Mt. Maya",NA,"Tamaya",1,"Turonian","",93.9,89.8,71151,"gp_mid",10.32,5.78,"714",91.85,1
"142339",210342,"col","Hibernian Greensands",-5.695,54.764999,"Black Head Bay",NA,"",1,"Turonian","",93.9,89.8,72576,"gp_mid",10.12,49.02,"313",91.85,1
"142604",210761,"col","",142.15419,43.158718,"Pankehoroka-yuhparo-gawa",NA,"",1,"Turonian","",93.9,89.8,72767,"gp_mid",143.28,50.55,"610",91.85,1
"144595",213761,"col","",-1.1202,43.679501,"DSO -44, Tercis-les-Bains",NA,"",2,"Turonian","",93.9,89.8,10432,"gp_mid",12.67,37.7,"305",91.85,1
"144596",213762,"col","",-1.1202,43.679501,"DSO -43, Tercis-les-Bains",NA,"",1,"Turonian","",93.9,89.8,10432,"gp_mid",12.67,37.7,"305",91.85,1
"144597",213763,"col","",-1.1202,43.679501,"DSO -42, Tercis-les-Bains",NA,"",3,"Turonian","",93.9,89.8,10432,"gp_mid",12.67,37.7,"305",91.85,1
"144598",213764,"col","",-1.1202,43.679501,"DSO -41.5, Tercis-les-Bains",NA,"",1,"Turonian","",93.9,89.8,10432,"gp_mid",12.67,37.7,"305",91.85,1
"144599",213765,"col","",-1.1202,43.679501,"DSO -40.5, Tercis-les-Bains",NA,"",1,"Turonian","",93.9,89.8,10432,"gp_mid",12.67,37.7,"305",91.85,1
"144602",213768,"col","",-1.115,43.678902,"SMC -41, Tercis-les-Bains",NA,"",5,"Turonian","",93.9,89.8,10432,"gp_mid",12.67,37.7,"305",91.85,1
"144603",213769,"col","",-1.115,43.678902,"SMC -34, Tercis-les-Bains",NA,"",4,"Turonian","",93.9,89.8,10432,"gp_mid",12.67,37.7,"305",91.85,1
"145108",214304,"col","",34.509998,53.255001,"Outcrop BPO-3a, Polpino",NA,"",1,"Turonian","",93.9,89.8,73859,"gp_mid",44.81,46.21,"302",91.85,1
