"","collection_no","record_type","formation","lng","lat","collection_name","collection_subset","collection_aka","n_occs","early_interval","late_interval","max_ma","min_ma","reference_no","paleomodel","paleolng","paleolat","geoplate","marine","mid_ma","time_bin"
"3936",19485,"col","Temblor",-118.825645,35.490013,"Pyramid Hill, upper concretion-bearing bed",NA,"UCMP V6916, LACM 1628",6,"Aquitanian","",23.03,20.44,6198,"gp_mid",-107.44,39.67,"130",1,21.735,"aquitanian"
"3987",65051,"col","",-9.168889,38.708611,"Prazeres",NA,"",1,"Aquitanian","",23.03,20.44,18735,"gp_mid",-5.9,35.43,"304",1,21.735,"aquitanian"
"4537",25254,"col","Dehirdan",57.908333,26.472221,"Sardasht, Makran, Iran",NA,"Reef 656",13,"Aquitanian","",23.03,20.44,7077,"gp_mid",56.11,17.41,"503",1,21.735,"aquitanian"
"5123",28307,"col","Fossil Bluff Sandstone",145.732895,-40.981098,"PL3029 - Upper Bed, Table Cape",NA,"Fossil Bluff, Table Cape, Wynyard",19,"Aquitanian","",23.03,20.44,26982,"gp_mid",152.84,-51.65,"801",1,21.735,"aquitanian"
"7232",34874,"col","",142.25,27.033333,"Minami-jima, Micronesia, Japan",NA,"Reef 2049",8,"Aquitanian","",23.03,20.44,9353,"gp_mid",NA,NA,"coordinates not computable using this model",1,21.735,"aquitanian"
"8379",37350,"col","Preplans Sandstone",12.798056,46.218056,"Torrente Meduna sample 1",NA,"Chlamys praescabiuscula community sample 1",4,"Aquitanian","",23.03,20.44,10020,"gp_mid",16.38,40.85,"307",1,21.735,"aquitanian"
"8380",37351,"col","Preplans Sandstone",12.798056,46.218056,"Torrente Meduna sample 2",NA,"Chlamys praescabiuscula community sample 2",8,"Aquitanian","",23.03,20.44,10020,"gp_mid",16.38,40.85,"307",1,21.735,"aquitanian"
"8381",37352,"col","Preplans Sandstone",12.798056,46.218056,"Torrente Meduna sample 3",NA,"Chlamys praescabiuscula community sample 3",10,"Aquitanian","",23.03,20.44,10020,"gp_mid",16.38,40.85,"307",1,21.735,"aquitanian"
"8382",37353,"col","Preplans Sandstone",12.798056,46.218056,"Torrente Meduna sample 4",NA,"Chlamys praescabiuscula community sample 4",7,"Aquitanian","",23.03,20.44,10020,"gp_mid",16.38,40.85,"307",1,21.735,"aquitanian"
"8383",37354,"col","Preplans Sandstone",12.798056,46.218056,"Torrente Meduna sample 5",NA,"Chlamys praescabiuscula community sample 5",7,"Aquitanian","",23.03,20.44,10020,"gp_mid",16.38,40.85,"307",1,21.735,"aquitanian"
"8384",37355,"col","Preplans Sandstone",12.798056,46.218056,"Torrente Meduna sample 6",NA,"Chlamys praescabiuscula community sample 6",3,"Aquitanian","",23.03,20.44,10020,"gp_mid",16.38,40.85,"307",1,21.735,"aquitanian"
"8385",37360,"col","Preplans Sandstone",12.798056,46.218056,"Torrente Meduna sample 7",NA,"Pecten purigalensis community sample 7",1,"Aquitanian","",23.03,20.44,10020,"gp_mid",16.38,40.85,"307",1,21.735,"aquitanian"
"8474",37451,"col","",16.483299,-28.5833,"Orange River Core 1",NA,"",47,"Aquitanian","",23.03,20.44,10031,"gp_mid",14.25,-34.1,"701",1,21.735,"aquitanian"
"8534",37560,"col","Clallam",-124.139999,48.226501,"USGS M4049, Pillar Point",NA,"",38,"Aquitanian","",23.03,20.44,10046,"gp_mid",-112.5,52.53,"129",1,21.735,"aquitanian"
"8562",37595,"col","Clallam",-124.25,48.262001,"NP163, Clallam Bay",NA,"",9,"Aquitanian","",23.03,20.44,10046,"gp_mid",-112.62,52.57,"129",1,21.735,"aquitanian"
"11612",42602,"col","Culebra",-79.616669,9.15,"Woodring Loc. 73 - Madden Basin [Emperador Limestone]",NA,"USGS 16944; field #7",7,"Aquitanian","",23.03,20.44,11306,"gp_mid",-74.58,10.68,"230",1,21.735,"aquitanian"
"11613",42603,"col","Culebra",-79.616669,9.133333,"Woodring Loc. 71 - Madden Basin [Emperador Limestone]",NA,"USGS Loc. 16945",11,"Aquitanian","",23.03,20.44,11306,"gp_mid",-74.58,10.66,"230",1,21.735,"aquitanian"
"11614",93236,"col","Culebra",-79.616669,9.133333,"Woodring Loc. 118 - Galliard Cut [Emperador Limestone]",NA,"",5,"Aquitanian","",23.03,20.44,13236,"gp_mid",-74.58,10.66,"230",1,21.735,"aquitanian"
"11618",42607,"col","Culebra",-79.633331,9.029167,"Woodring Loc. 115a - Canal Zone [lower Culebra Fm]",NA,"USGS Loc. 6515",27,"Aquitanian","",23.03,20.44,11306,"gp_mid",-74.61,10.56,"230",1,21.735,"aquitanian"
"11619",42608,"col","Culebra",-79.633331,9.029167,"Woodring Loc. 115b - Canal Zone [lower Culebra Fm]",NA,"USGS Loc. 6443",18,"Aquitanian","",23.03,20.44,11306,"gp_mid",-74.61,10.56,"230",1,21.735,"aquitanian"
"11620",42609,"col","Culebra",-79.637497,9.033333,"Woodring Loc. 114 - Canal Zone [lower Culebra Fm]",NA,"USGS Loc. 5860",32,"Aquitanian","",23.03,20.44,11306,"gp_mid",-74.61,10.56,"230",1,21.735,"aquitanian"
"11621",42610,"col","Culebra",-79.679169,9.083333,"Woodring Loc. 98 - Canal Zone [lower Culebra Fm]",NA,"USGS Loc. 16942",1,"Aquitanian","",23.03,20.44,11306,"gp_mid",-74.65,10.61,"230",1,21.735,"aquitanian"
"11635",42624,"col","Culebra",-79.679169,9.7625,"Woodring Loc. 100 - Canal Zone [lower Culebra Fm]",NA,"USGS Loc. 6020a",20,"Aquitanian","",23.03,20.44,11306,"gp_mid",NA,NA,"coordinates not computable using this model",1,21.735,"aquitanian"
"11636",42625,"col","Culebra",-79.679169,9.7625,"Woodring Loc. 100b - Canal Zone [lower Culebra Fm]",NA,"USGS Loc. 6020c",12,"Aquitanian","",23.03,20.44,11306,"gp_mid",NA,NA,"coordinates not computable using this model",1,21.735,"aquitanian"
"11637",42626,"col","Culebra",-79.679169,9.083333,"Woodring Loc. 99h - Canal Zone [lower Culebra Fm]",NA,"USGS Loc. 6019h",19,"Aquitanian","",23.03,20.44,11306,"gp_mid",-74.65,10.61,"230",1,21.735,"aquitanian"
"11638",42627,"col","Culebra",-79.679169,9.083333,"Woodring Loc. 99g - Canal Zone [lower Culebra Fm]",NA,"USGS Loc. 6019g",32,"Aquitanian","",23.03,20.44,11306,"gp_mid",-74.65,10.61,"230",1,21.735,"aquitanian"
"11639",42628,"col","Culebra",-79.679169,9.083333,"Woodring Loc. 99d - Canal Zone [lower Culebra Fm]",NA,"USGS Loc. 6019d",32,"Aquitanian","",23.03,20.44,11306,"gp_mid",-74.65,10.61,"230",1,21.735,"aquitanian"
"11640",42629,"col","Culebra",-79.679169,9.083333,"Woodring Loc. 99f - Canal Zone [lower Culebra Fm]",NA,"USGS Loc. 6019f",25,"Aquitanian","",23.03,20.44,11306,"gp_mid",-74.65,10.61,"230",1,21.735,"aquitanian"
"11641",42630,"col","Culebra",-79.679169,9.083333,"Woodring Loc. 99c - Canal Zone [lower Culebra Fm]",NA,"USGS Loc. 6019c",33,"Aquitanian","",23.03,20.44,11306,"gp_mid",-74.65,10.61,"230",1,21.735,"aquitanian"
"11642",42631,"col","Culebra",-79.679169,9.083333,"Woodring Loc. 99b - Canal Zone [lower Culebra Fm]",NA,"USGS Loc. 6019b",41,"Aquitanian","",23.03,20.44,11306,"gp_mid",-74.65,10.61,"230",1,21.735,"aquitanian"
"11643",42632,"col","Culebra",-79.679169,9.083333,"Woodring Loc. 99a - Canal Zone [lower Culebra Fm]",NA,"USGS Loc. 6019a",12,"Aquitanian","",23.03,20.44,11306,"gp_mid",-74.65,10.61,"230",1,21.735,"aquitanian"
"11644",42633,"col","Culebra",-79.679169,9.083333,"Woodring Loc. 99 - Canal Zone [lower Culebra Fm]",NA,"USGS Loc. 6019",1,"Aquitanian","",23.03,20.44,11306,"gp_mid",-74.65,10.61,"230",1,21.735,"aquitanian"
"13580",45481,"col","Clallam",-124.245277,48.263611,"Slip Point Lighthouse",NA,"UCMP V5761, LACM 5933",5,"Aquitanian","",23.03,20.44,11885,"gp_mid",-112.61,52.57,"129",1,21.735,"aquitanian"
"13755",45727,"col","Puebla Clay",144.516663,-38.25,"Ocean Grove",NA,"",1,"Aquitanian","",23.03,20.44,13672,"gp_mid",150.46,-49.19,"801",1,21.735,"aquitanian"
"13814",45887,"col","Monte Leon",-68.355835,-49.525833,"Gran Bajo de San Julian",NA,"",21,"Aquitanian","",23.03,20.44,12217,"gp_mid",-64.91,-49.03,"291",1,21.735,"aquitanian"
"14773",47623,"col","Libano Sandstone",12.2175,46.139999,"Libano",NA,"",40,"Aquitanian","",23.03,20.44,12902,"gp_mid",15.84,40.84,"307",1,21.735,"aquitanian"
"15603",49395,"col","Arenaria di Grumi",11.358333,45.713333,"Schio",NA,"",1,"Aquitanian","",23.03,20.44,14542,"gp_mid",14.98,40.51,"307",1,21.735,"aquitanian"
"15633",49489,"col","Culebra",-79.679169,9.7625,"Woodring Loc. 100a - Canal Zone [lower Culebra Fm]",NA,"USGS Loc. 6020b",11,"Aquitanian","",23.03,20.44,11306,"gp_mid",NA,NA,"coordinates not computable using this model",1,21.735,"aquitanian"
"15634",49490,"col","Culebra",-79.658333,9.058333,"Woodring Loc. 101 - Canal Zone [lower Culebra Fm]",NA,"USGS Loc. 16943",6,"Aquitanian","",23.03,20.44,11306,"gp_mid",-74.63,10.59,"230",1,21.735,"aquitanian"
"15636",49492,"col","Culebra",-79.633331,9.029167,"Woodring Loc. 115 - Canal Zone [lower Culebra Fm]",NA,"USGS Loc. 6505",13,"Aquitanian","",23.03,20.44,11306,"gp_mid",-74.61,10.56,"230",1,21.735,"aquitanian"
"17106",52075,"col","Monte Leon",-65.76667,-39.200001,"Darwin Station",NA,"",1,"Aquitanian","",23.03,20.44,12777,"gp_mid",-61.43,-38.85,"291",1,21.735,"aquitanian"
"17364",52409,"col","Monterey",-120.306946,34.742222,"Location #64-1 - Southeast coast of Santa Rosa Island (Monterey Fm)",NA,"",1,"Aquitanian","",23.03,20.44,14094,"gp_mid",-110.06,38.2,"105",1,21.735,"aquitanian"
"17365",52410,"col","Monterey",-120.306946,34.742222,"Location #67-26 - Southeast coast of Santa Rosa Island (Monterey Fm)",NA,"",3,"Aquitanian","",23.03,20.44,14094,"gp_mid",-110.06,38.2,"105",1,21.735,"aquitanian"
"17366",52411,"col","Monterey",-120.306946,34.742222,"Location #64-9 - SE central Santa Rosa Island (Monterey Fm)",NA,"",1,"Aquitanian","",23.03,20.44,14094,"gp_mid",-110.06,38.2,"105",1,21.735,"aquitanian"
"17367",52412,"col","Rincon",-120.306946,34.742222,"Location #64-10 - SE central Santa Rosa Island (San Miguel Volcanics)",NA,"",1,"Aquitanian","",23.03,20.44,14094,"gp_mid",-110.06,38.2,"105",1,21.735,"aquitanian"
"19331",56977,"col","Cibao",-66.3125,18.372499,"AMNH PR 87-4",NA,"",1,"Aquitanian","",23.03,20.44,15365,"gp_mid",-61.45,19.42,"252",1,21.735,"aquitanian"
"19347",56993,"col","Mucarabones",-66.214722,18.376944,"AMNH PR 87-5",NA,"",2,"Aquitanian","",23.03,20.44,15365,"gp_mid",-61.35,19.42,"252",1,21.735,"aquitanian"
"19382",57060,"col","",12.755556,45.979721,"Meduna Creek",NA,"Preplans",1,"Aquitanian","",23.03,20.44,15409,"gp_mid",16.3,40.62,"307",1,21.735,"aquitanian"
"20714",58899,"col","Skooner Gulch",-123.653893,38.865002,"Skooner Gulch I",NA,"UCMP V75135",4,"Aquitanian","",23.03,20.44,16702,"gp_mid",NA,NA,"coordinates not computable using this model",1,21.735,"aquitanian"
"20750",58979,"col","Khari Nadi",68.800003,23.402779,"Aida",NA,"",2,"Aquitanian","",23.03,20.44,16723,"gp_mid",69.12,12.53,"501",1,21.735,"aquitanian"
"20785",59056,"col","Nye",-124.071671,44.557777,"Thiel Creek, south",NA,"",2,"Aquitanian","",23.03,20.44,16742,"gp_mid",-112.61,48.86,"129",1,21.735,"aquitanian"
"20790",59066,"col","Astoria",-123.784142,46.281063,"Knappton, east",NA,"LACM 4584, LACMIP 5864",1,"Aquitanian","",23.03,20.44,16774,"gp_mid",-112.21,50.58,"129",1,21.735,"aquitanian"
"21293",59850,"col","Libano",12.2175,46.139999,"Belluno",NA,"",2,"Aquitanian","",23.03,20.44,36621,"gp_mid",15.84,40.84,"307",1,21.735,"aquitanian"
"21482",60251,"col","Culebra",-79.675278,9.074444,"Bed 1,LACMIP Locality 17685, Gaillard Cut, Culebra Fm",NA,"Reef 2776",2,"Aquitanian","",23.03,20.44,17338,"gp_mid",-74.65,10.61,"230",1,21.735,"aquitanian"
"21486",60255,"col","Culebra",-79.675278,9.074444,"Bed 2,LACMIP Locality 17685, Gaillard Cut, Culebra Fm",NA,"Reef 2776",3,"Aquitanian","",23.03,20.44,17338,"gp_mid",-74.65,10.61,"230",1,21.735,"aquitanian"
"21490",60259,"col","Culebra",-79.675278,9.074444,"Bed 3,LACMIP Locality 17685, Gaillard Cut, Culebra Fm",NA,"Reef 2776",9,"Aquitanian","",23.03,20.44,17338,"gp_mid",-74.65,10.61,"230",1,21.735,"aquitanian"
"21492",60261,"col","Culebra",-79.675278,9.074444,"Bed 4, LACMIP Locality 17685, Gaillard Cut, Culebra Fm",NA,"Reef 2776",19,"Aquitanian","",23.03,20.44,17338,"gp_mid",-74.65,10.61,"230",1,21.735,"aquitanian"
"21493",60262,"col","Culebra",-79.675278,9.074444,"Bed 5, LACMIP Loc. 17685 - Gaillard Cut [Emperador Limestone]",NA,"Reef 2776",17,"Aquitanian","",23.03,20.44,17338,"gp_mid",-74.65,10.61,"230",1,21.735,"aquitanian"
"21495",60264,"col","Culebra",-79.675278,9.074444,"Bed 6, LACMIP Loc. 17685 - Gaillard Cut [Emperador Limestone]",NA,"Reef 2776",16,"Aquitanian","",23.03,20.44,17338,"gp_mid",-74.65,10.61,"230",1,21.735,"aquitanian"
"21498",60267,"col","Culebra",-79.675278,9.074444,"Bed 7, LACMIP Loc. 17685 - Gaillard Cut [Emperador Limestone]",NA,"Reef 2776",6,"Aquitanian","",23.03,20.44,17338,"gp_mid",-74.65,10.61,"230",1,21.735,"aquitanian"
"21695",60610,"col","",-72.816666,20.066668,"Station 9762",NA,"W 299 F",4,"Aquitanian","",23.03,20.44,17411,"gp_mid",-67.83,21.64,"252",1,21.735,"aquitanian"
"21696",60611,"col","",-72.133331,18.883333,"Station 9557",NA,"W 116 F",2,"Aquitanian","",23.03,20.44,17411,"gp_mid",-67.25,20.41,"252",1,21.735,"aquitanian"
"21697",60612,"col","",-72.133331,18.883333,"Station 9449",NA,"W 119 F",2,"Aquitanian","",23.03,20.44,17411,"gp_mid",-67.25,20.41,"252",1,21.735,"aquitanian"
"21758",60674,"col","",-70.75,10.916667,"Hodson Loc. 33",NA,"",2,"Aquitanian","",23.03,20.44,17421,"gp_mid",-63.79,11.44,"203",1,21.735,"aquitanian"
"21871",60797,"col","",-70.75,10.916667,"Hodson Loc. 59",NA,"",2,"Aquitanian","",23.03,20.44,17421,"gp_mid",-63.79,11.44,"203",1,21.735,"aquitanian"
"22182",61164,"col","",-70.673058,11.020278,"Hodson Loc. 1217",NA,"",5,"Aquitanian","",23.03,20.44,17421,"gp_mid",-63.71,11.54,"203",1,21.735,"aquitanian"
"24194",64777,"col","Nye",-124.072502,44.544167,"Lost Creek",NA,"State Wayside Park, Lost Creek State Recreation Site",2,"Aquitanian","",23.03,20.44,18698,"gp_mid",-112.62,48.85,"129",1,21.735,"aquitanian"
"24372",65069,"col","",-0.147222,44.455555,"Gans",NA,"Courtebotte",3,"Aquitanian","",23.03,20.44,18736,"gp_mid",3.09,40.71,"305",1,21.735,"aquitanian"
"24374",65071,"col","",0.072778,44.66111,"Saint-Martin-de-Puy",NA,"",1,"Aquitanian","",23.03,20.44,18736,"gp_mid",3.31,40.91,"305",1,21.735,"aquitanian"
"24385",65085,"col","",-0.503056,44.650276,"Saint Morillon",NA,"",2,"Aquitanian","",23.03,20.44,18736,"gp_mid",2.77,40.92,"305",1,21.735,"aquitanian"
"24611",65479,"col","",-9.139167,38.713612,"Tunel do Rossio",NA,"",1,"Aquitanian","",23.03,20.44,18869,"gp_mid",-5.87,35.43,"304",1,21.735,"aquitanian"
"25151",66194,"col","Pollocksville",-77.236664,34.868332,"UNCW Loc. Z-813 - Martin Marietta Belgrade quarry [Pollocksville Fm]",NA,"",1,"Aquitanian","",23.03,20.44,18958,"gp_mid",-67.27,36.97,"109",1,21.735,"aquitanian"
"26041",67659,"col","Unalaska",-166.521729,53.868958,"Arriaga Quarry",NA,"Unalaska Lake",3,"Aquitanian","",23.03,20.44,19318,"gp_mid",-164.69,59.79,"125",1,21.735,"aquitanian"
"27352",69927,"col","Sant Elm",2.633333,39.75,"Serra de Tramuntana, reef-type 1, NW Mallorca",NA,"Reef 1996",8,"Aquitanian","",23.03,20.44,23474,"gp_mid",NA,NA,"coordinates not computable using this model",1,21.735,"aquitanian"
"27353",69928,"col","Sant Elm",2.633333,39.75,"Serra de Tramuntana, reef-type 2, NW Mallorca",NA,"Reef 1996",14,"Aquitanian","",23.03,20.44,23474,"gp_mid",NA,NA,"coordinates not computable using this model",1,21.735,"aquitanian"
"27354",69929,"col","Sant Elm",2.633333,39.75,"Serra de Tramuntana, reef-type 3, NW Mallorca",NA,"Reef 1996",6,"Aquitanian","",23.03,20.44,23474,"gp_mid",NA,NA,"coordinates not computable using this model",1,21.735,"aquitanian"
"27403",70074,"col","",-0.366667,44.466667,"Gamachot near Villandraut, Bazadais, Gironde",NA,"Reef 1986",4,"Aquitanian","",23.03,20.44,23527,"gp_mid",2.88,40.73,"305",1,21.735,"aquitanian"
"27488",70232,"col","",-0.6,44.733334,"Thil, L'Eau Blanche Valley, Gironde",NA,"Reef 3573",19,"Aquitanian","",23.03,20.44,23527,"gp_mid",2.68,41.01,"305",1,21.735,"aquitanian"
"27492",70241,"col","",-0.616667,44.799999,"L'Eau Bourde Valley, Pessac area, Gironde",NA,"Reef 3573",16,"Aquitanian","",23.03,20.44,23527,"gp_mid",2.67,41.07,"305",1,21.735,"aquitanian"
"27493",70242,"col","",-0.516667,44.366669,"Martillac, Breyra Valley, Gironde",NA,"Reef 3574",32,"Aquitanian","",23.03,20.44,23527,"gp_mid",2.73,40.64,"305",1,21.735,"aquitanian"
"27494",70244,"col","",-0.6,44.650002,"Lariey, Saucats Valley, Gironde",NA,"Reef 3573",7,"Aquitanian","",23.03,20.44,23527,"gp_mid",2.68,40.92,"305",1,21.735,"aquitanian"
"27507",70310,"col","",-0.433333,43.933334,"Saint Avit, Douze Valley, Landes",NA,"",4,"Aquitanian","",23.03,20.44,23527,"gp_mid",2.78,40.2,"305",1,21.735,"aquitanian"
"27508",70311,"col","",-0.433333,43.933334,"Carreau, Douze Valley, Landes",NA,"",4,"Aquitanian","",23.03,20.44,23527,"gp_mid",2.78,40.2,"305",1,21.735,"aquitanian"
"27512",70315,"col","",5.15,43.333332,"Chainon de La Nerthe, Bouches-du-Rhone",NA,"Reef 663",62,"Aquitanian","",23.03,20.44,23527,"gp_mid",7.99,39.38,"305",1,21.735,"aquitanian"
"27522",70325,"col","",9.803889,48.325832,"Altheim-Breitenlauh 1",NA,"",14,"MN 1","",23.03,22.4,23602,"gp_mid",12.77,44.07,"305",1,22.715,"aquitanian"
"27524",70327,"col","",9.803889,48.325832,"Altheim-Breitenlauh 2",NA,"",8,"MN 1","",23.03,22.4,23602,"gp_mid",12.77,44.07,"305",1,22.715,"aquitanian"
"27657",70517,"col","Calvert",-77.37056,37.766388,"Hanover Court House",NA,"",3,"Aquitanian","",23.03,20.44,23660,"gp_mid",-66.91,39.86,"109",1,21.735,"aquitanian"
"27707",70589,"col","Calvert",-76.686386,38.74889,"Lyons Creek, Zone 1",NA,"",1,"Aquitanian","",23.03,20.44,23697,"gp_mid",-66.04,40.76,"109",1,21.735,"aquitanian"
"28506",71794,"col","Calvert",-76.986946,38.38361,"Popes Creek south, Zone 1",NA,"",7,"Aquitanian","",23.03,20.44,24251,"gp_mid",-66.41,40.43,"109",1,21.735,"aquitanian"
"28524",71814,"col","Calvert",-76.96611,38.750278,"Friendly, Zone 1",NA,"Tinker's Creek, Tinkers Creek",2,"Aquitanian","",23.03,20.44,24251,"gp_mid",-66.32,40.79,"109",1,21.735,"aquitanian"
"29951",74808,"col","Turgut",28,37,"Turgut Fm (lower)",NA,"",6,"Aquitanian","",23.03,20.44,25210,"gp_mid",29.29,32.52,"504",1,21.735,"aquitanian"
"29960",74859,"col","",-0.516667,44.700001,"Martillac, Aquitaine",NA,"",1,"Aquitanian","",23.03,20.44,25224,"gp_mid",2.76,40.97,"305",1,21.735,"aquitanian"
"29962",74861,"col","Falun de Saucats",-0.568333,44.661667,"Lariey, Saucats, Aquitaine",NA,"",315,"Aquitanian","",23.03,20.44,25226,"gp_mid",2.71,40.93,"305",1,21.735,"aquitanian"
"29963",74862,"col","",-0.316667,44.450001,"Uzeste, Aquitaine",NA,"",5,"Aquitanian","",23.03,20.44,25224,"gp_mid",2.93,40.71,"305",1,21.735,"aquitanian"
"29964",74863,"col","",-0.366667,44.516666,"Saint-Avit, Aquitaine",NA,"",3,"Aquitanian","",23.03,20.44,25224,"gp_mid",2.89,40.78,"305",1,21.735,"aquitanian"
"29965",74864,"col","",-0.5,44.883331,"Corbleu, Aquitaine",NA,"",0,"Aquitanian","",23.03,20.44,25224,"gp_mid",2.79,41.15,"305",1,21.735,"aquitanian"
"29966",74865,"col","Falun de Sainte-Avit",-0.661944,43.906666,"Meilhan",NA,"Carrière Vives, Saint-Martin-d’Oney,",173,"Aquitanian","",23.03,20.44,25224,"gp_mid",2.56,40.19,"305",1,21.735,"aquitanian"
"29967",74866,"col","",-1.05,43.733334,"Saint-Paul-lès-Dax (Aquitanian), Aquitaine",NA,"",11,"Aquitanian","",23.03,20.44,25224,"gp_mid",2.18,40.03,"305",1,21.735,"aquitanian"
"30282",75609,"col","Ghubbarah",57.753334,19.03861,"Gebel Madrakah - Ghubbarah Fm",NA,"",13,"Aquitanian","",23.03,20.44,25532,"gp_mid",NA,NA,"coordinates not computable using this model",1,21.735,"aquitanian"
"30339",75776,"col","Skooner Gulch",-123.74028,38.955833,"Point Arena",NA,"LACM 3402",2,"Aquitanian","",23.03,20.44,12297,"gp_mid",NA,NA,"coordinates not computable using this model",1,21.735,"aquitanian"
"30475",76129,"col","Melker Sand",15.593056,48.286945,"Obritzberg",NA,"",14,"Aquitanian","",23.03,20.44,25806,"gp_mid",18.01,44.01,"305",1,21.735,"aquitanian"
"30496",76315,"col","Khari Nadi",68.800003,23.402779,"Khari Nadi Fm",NA,"",7,"Aquitanian","",23.03,20.44,25850,"gp_mid",69.12,12.53,"501",1,21.735,"aquitanian"
"30521",76582,"col","Kama",95.300003,19.616667,"Dalabe (Kama stage)",NA,"",27,"Aquitanian","",23.03,20.44,25894,"gp_mid",99.71,10.77,"617",1,21.735,"aquitanian"
"30522",76583,"col","Kama",95.150002,19.016666,"Kama (Kama stage)",NA,"",29,"Aquitanian","",23.03,20.44,25894,"gp_mid",99.8,10.16,"617",1,21.735,"aquitanian"
"30523",76584,"col","Kama",95.383331,19.5,"Kyaungon (Kama stage)",NA,"",25,"Aquitanian","",23.03,20.44,25894,"gp_mid",99.83,10.69,"617",1,21.735,"aquitanian"
"30524",76585,"col","Kama",95.383331,19.5,"Kyudawon (Kama stage)",NA,"",12,"Aquitanian","",23.03,20.44,25894,"gp_mid",99.83,10.69,"617",1,21.735,"aquitanian"
"30532",76593,"col","Kama",95.400002,19.516666,"Myaukmigon (Kama stage)",NA,"",25,"Aquitanian","",23.03,20.44,25894,"gp_mid",99.84,10.71,"617",1,21.735,"aquitanian"
"30533",76594,"col","Kama",95.366669,19.466667,"Myauktin (Kama stage)",NA,"",2,"Aquitanian","",23.03,20.44,25894,"gp_mid",99.83,10.65,"617",1,21.735,"aquitanian"
"30534",76595,"col","Kama",95.383331,19.533333,"Thanga (Kama stage)",NA,"",37,"Aquitanian","",23.03,20.44,25894,"gp_mid",99.82,10.72,"617",1,21.735,"aquitanian"
"30535",76596,"col","Kama",95.466667,19.516666,"Tittabwe (Kama stage)",NA,"",25,"Aquitanian","",23.03,20.44,25894,"gp_mid",99.9,10.73,"617",1,21.735,"aquitanian"
"31962",79646,"col","Qom",51.737778,33.794167,"Chalheghareh",NA,"",3,"Aquitanian","",23.03,20.44,26759,"gp_mid",50.93,27.47,"512",1,21.735,"aquitanian"
"34737",84653,"col","Älterer Schlier",14.224167,48.206112,"Kraftwerksbaustelle Traun-Pucking",NA,"",1,"Aquitanian","",23.03,20.44,28399,"gp_mid",16.74,43.96,"305",1,21.735,"aquitanian"
"34898",84913,"col","Gee Greensand",170.899994,-45.183334,"Kakanui",NA,"",1,"Aquitanian","",23.03,20.44,28503,"gp_mid",-171.34,-46.81,"807",1,21.735,"aquitanian"
"35033",85110,"col","",9.166667,39.366669,"Dolianova",NA,"Reef 1989",4,"Aquitanian","",23.03,20.44,28605,"gp_mid",NA,NA,"coordinates not computable using this model",1,21.735,"aquitanian"
"37496",88796,"col","",-0.633333,43.916668,"Saint-Martin-d'Oney (Lesport collection)",NA,"",4,"Aquitanian","",23.03,20.44,29773,"gp_mid",2.59,40.19,"305",1,21.735,"aquitanian"
"38234",90456,"col","",-0.35,43.983334,"Moulin de Carro, Corbleu",NA,"",3,"Aquitanian","",23.03,20.44,30421,"gp_mid",2.86,40.25,"305",1,21.735,"aquitanian"
"38235",90457,"col","Falun de Saucats",-1.034167,43.727501,"Mainot, St.-Paul-les-Dax",NA,"",12,"Aquitanian","",23.03,20.44,55728,"gp_mid",2.2,40.02,"305",1,21.735,"aquitanian"
"39368",92102,"col","",-9.133333,38.716667,"Lisboa City",NA,"Reef 1997",5,"Aquitanian","",23.03,20.44,31005,"gp_mid",-5.86,35.43,"304",1,21.735,"aquitanian"
"39369",92103,"col","",-9.15,38.466667,"Alfarim",NA,"",2,"Aquitanian","",23.03,20.44,31005,"gp_mid",-5.9,35.18,"304",1,21.735,"aquitanian"
"39930",93038,"col","Culebra",-79.658333,9.058333,"Woodring Loc. 101a - Canal Zone [lower Culebra Fm]",NA,"",4,"Aquitanian","",23.03,20.44,13235,"gp_mid",-74.63,10.59,"230",1,21.735,"aquitanian"
"39931",93039,"col","Culebra",-79.658333,9.058333,"Woodring Loc. 101h - Canal Zone [lower Culebra Fm]",NA,"",29,"Aquitanian","",23.03,20.44,13235,"gp_mid",-74.63,10.59,"230",1,21.735,"aquitanian"
"39932",93040,"col","Culebra",-79.658333,9.058333,"Woodring loc. 101i - Canal Zone [lower Culebra Fm]",NA,"",11,"Aquitanian","",23.03,20.44,13235,"gp_mid",-74.63,10.59,"230",1,21.735,"aquitanian"
"40027",93237,"col","Culebra",-79.616669,9.133333,"Woodring Loc. 123 - Galliard Cut [Emperador Limestone]",NA,"",6,"Aquitanian","",23.03,20.44,11306,"gp_mid",-74.58,10.66,"230",1,21.735,"aquitanian"
"40028",93238,"col","Culebra",-79.616669,9.133333,"Woodring Loc. 117a - Galliard Cut [Emperador Limestone]",NA,"",8,"Aquitanian","",23.03,20.44,13236,"gp_mid",-74.58,10.66,"230",1,21.735,"aquitanian"
"40029",93239,"col","Culebra",-79.616669,9.133333,"Woodring Loc. 117b - Galliard Cut [Emperador Limestone]",NA,"",4,"Aquitanian","",23.03,20.44,13359,"gp_mid",-74.58,10.66,"230",1,21.735,"aquitanian"
"40030",93240,"col","Culebra",-79.616669,9.133333,"Woodring Loc. 117c - Galliard Cut [Emperador Limestone]",NA,"",5,"Aquitanian","",23.03,20.44,13359,"gp_mid",-74.58,10.66,"230",1,21.735,"aquitanian"
"40031",93241,"col","Culebra",-79.616669,9.133333,"Woodring Loc. 118b - Galliard Cut [Emperador Limestone]",NA,"",3,"Aquitanian","",23.03,20.44,13359,"gp_mid",-74.58,10.66,"230",1,21.735,"aquitanian"
"40032",93242,"col","Culebra",-79.616669,9.133333,"Woodring Loc. 129 - Galliard Cut [Emperador Limestone]",NA,"",8,"Aquitanian","",23.03,20.44,11306,"gp_mid",-74.58,10.66,"230",1,21.735,"aquitanian"
"40033",93243,"col","Culebra",-79.616669,9.133333,"Woodring Loc. 129a - Galliard Cut [Emperador Limestone]",NA,"",3,"Aquitanian","",23.03,20.44,13359,"gp_mid",-74.58,10.66,"230",1,21.735,"aquitanian"
"41813",95769,"col","Khari Nadi",68.914444,23.372223,"Nangia",NA,"",1,"Aquitanian","",23.03,20.44,32532,"gp_mid",69.23,12.48,"501",1,21.735,"aquitanian"
"42322",96703,"col","Culebra",-79.674721,9.071667,"Emperor area",NA,"",1,"Aquitanian","",23.03,20.44,32976,"gp_mid",-74.65,10.6,"230",1,21.735,"aquitanian"
"44118",99160,"col","Ebelsberg",14.224167,48.206112,"Pucking",NA,"",169,"Aquitanian","",23.03,20.44,34109,"gp_mid",16.74,43.96,"305",1,21.735,"aquitanian"
"44770",100260,"col","Vaqueros",-117.487221,34.305,"SBCM 1.103.77",NA,"Cajon",6,"Aquitanian","",23.03,20.44,34413,"gp_mid",-107.13,37.7,"105",1,21.735,"aquitanian"
"47448",104943,"col","Gambier",140.759995,-37.887222,"Telford's Quarry",NA,"",10,"Aquitanian","",23.03,20.44,35125,"gp_mid",145.91,-49.44,"801",1,21.735,"aquitanian"
"55908",116623,"col","",49.530556,40.499168,"Sumgait River, Gobustan, Maikop Group, Aquitanian",NA,"",71,"Aquitanian","",23.03,20.44,37562,"gp_mid",49.58,36.13,"402",1,21.735,"aquitanian"
"55918",116633,"col","",49.473331,40.513332,"Mount Islamdag, Eastern Slope, Maikop Group, member 4 & 4, Aquitanian",NA,"",30,"Aquitanian","",23.03,20.44,37562,"gp_mid",49.52,36.14,"402",1,21.735,"aquitanian"
"57289",118406,"col","",14.266389,36.049442,"Gozo, Aquitanian",NA,"",3,"Aquitanian","",23.03,20.44,38149,"gp_mid",NA,NA,"coordinates not computable using this model",1,21.735,"aquitanian"
"60676",189023,"col","Otekaike Limestone",170.64917,-44.66,"Hakataramea Quarry, Aquitanian",NA,"I40:f0399",1,"Aquitanian","",23.03,20.44,61997,"gp_mid",-171.61,-46.29,"807",1,21.735,"aquitanian"
"61432",124533,"col","Culebra",-79.666664,9.066667,"Vaughn Station 601 - Empire [Emperador Limestone]",NA,"Reef 2776",23,"Aquitanian","",23.03,20.44,12754,"gp_mid",-74.64,10.6,"230",1,21.735,"aquitanian"
"61481",124636,"col","Culebra",-79.783333,9.183333,"USGS Loc. 6024b - Rio Agua Salud [Emperador Limestone]",NA,"Reef 2776",5,"Aquitanian","",23.03,20.44,12754,"gp_mid",-74.75,10.72,"230",1,21.735,"aquitanian"
"61961",125336,"col","",13.728056,50.583889,"Brestany",NA,"",1,"Aquitanian","",23.03,20.44,40668,"gp_mid",16.42,46.35,"305",1,21.735,"aquitanian"
"67303",133885,"col","Mazantic Shale",-92,16,"Mazantic Shale",NA,"",13,"Aquitanian","",23.03,20.44,43162,"gp_mid",-84.73,19.7,"205",1,21.735,"aquitanian"
"69012",199542,"col","",3.199167,46.100277,"Gannat superieur",NA,"",1,"Aquitanian","",23.03,20.44,59247,"gp_mid",6.35,42.22,"305",1,21.735,"aquitanian"
"70198",138022,"col","Holmsk",142.07666,47.798611,"Tomari",NA,"",9,"Aquitanian","",23.03,20.44,44130,"gp_mid",137.34,48.71,"610",1,21.735,"aquitanian"
"73299",142513,"col","Gaiman",-65.48333,-43.283333,"Gaiman (marine vertebrates)",NA,"",5,"Aquitanian","",23.03,20.44,36733,"gp_mid",-61.48,-42.93,"291",1,21.735,"aquitanian"
"73910",143488,"col","",5.483333,43.599167,"Venelles",NA,"",1,"Aquitanian","",23.03,20.44,46496,"gp_mid",8.32,39.63,"305",1,21.735,"aquitanian"
"75055",145561,"col","Culebra",-79.616669,9.133333,"Woodring Loc. 119 - Las Cascadas [Emperador Limestone]",NA,"USGS 5858; W119",4,"Aquitanian","",23.03,20.44,11306,"gp_mid",-74.58,10.66,"230",1,21.735,"aquitanian"
"75056",145562,"col","Culebra",-79.616669,9.133333,"Woodring Loc. 119a - Las Cascadas [Emperador Limestone]",NA,"USGS 5866; W119a",4,"Aquitanian","",23.03,20.44,11306,"gp_mid",-74.58,10.66,"230",1,21.735,"aquitanian"
"75057",145563,"col","Culebra",-79.616669,9.133333,"Woodring Loc. 119b - Las Cascadas [Emperador Limestone]",NA,"USGS 6669; W119b",1,"Aquitanian","",23.03,20.44,11306,"gp_mid",-74.58,10.66,"230",1,21.735,"aquitanian"
"75058",145564,"col","Culebra",-79.616669,9.133333,"Woodring Loc. 119c - Las Cascadas [Emperador Limestone]",NA,"USGS 6671; W119c",2,"Aquitanian","",23.03,20.44,13235,"gp_mid",-74.58,10.66,"230",1,21.735,"aquitanian"
"75059",145566,"col","Culebra",-79.55806,8.970833,"Woodring Loc. 133 - Ancon [lower Culebra Fm]",NA,"USGS Loc. 6237",1,"Aquitanian","",23.03,20.44,11306,"gp_mid",-74.54,10.49,"230",1,21.735,"aquitanian"
"75292",146336,"col","",174.796005,-36.301998,"S1, South Mathesons Bay (R09/f130, L17560)",NA,"",4,"Aquitanian","",23.03,20.44,47276,"gp_mid",-177.12,-41.04,"806",1,21.735,"aquitanian"
"75293",146337,"col","",174.78334,-36.299999,"S2, South Mathesons Bay (R09/f131, L17561)",NA,"",4,"Aquitanian","",23.03,20.44,47276,"gp_mid",-177.14,-41.04,"806",1,21.735,"aquitanian"
"75294",146338,"col","",174.796005,-36.301998,"S3, South Mathesons Bay (R09/f132, L17562)",NA,"",23,"Aquitanian","",23.03,20.44,47276,"gp_mid",-177.12,-41.04,"806",1,21.735,"aquitanian"
"75295",146339,"col","",174.796005,-36.301998,"S4, South Mathesons Bay (R09/f133, L17563)",NA,"",9,"Aquitanian","",23.03,20.44,47276,"gp_mid",-177.12,-41.04,"806",1,21.735,"aquitanian"
"75296",146340,"col","",174.796005,-36.301998,"S5, South Mathesons Bay (R09/f134, L17564)",NA,"",11,"Aquitanian","",23.03,20.44,47276,"gp_mid",-177.12,-41.04,"806",1,21.735,"aquitanian"
"75297",146341,"col","",174.796005,-36.301998,"S6, South Mathesons Bay (R09/f135, L17565)",NA,"",2,"Aquitanian","",23.03,20.44,47276,"gp_mid",-177.12,-41.04,"806",1,21.735,"aquitanian"
"75298",146342,"col","",174.800003,-36.299999,"N1, North Mathesons Bay (R09/f136, L17566)",NA,"",5,"Aquitanian","",23.03,20.44,47276,"gp_mid",-177.12,-41.03,"806",1,21.735,"aquitanian"
"75299",146343,"col","",174.800003,-36.299999,"N2, North Mathesons Bay (R09/f137, L17567)",NA,"",12,"Aquitanian","",23.03,20.44,47276,"gp_mid",-177.12,-41.03,"806",1,21.735,"aquitanian"
"75300",146344,"col","",174.800003,-36.299999,"N3, North Mathesons Bay (R09/f137, L17567)",NA,"",10,"Aquitanian","",23.03,20.44,47276,"gp_mid",-177.12,-41.03,"806",1,21.735,"aquitanian"
"75301",146345,"col","",174.800003,-36.299999,"N4, North Mathesons Bay (R09/f139, L17569)",NA,"",4,"Aquitanian","",23.03,20.44,47276,"gp_mid",-177.12,-41.03,"806",1,21.735,"aquitanian"
"75302",146346,"col","",174.7995,-36.303501,"I1, Mathesons Bay Islet (R09/f140, L17570)",NA,"",9,"Aquitanian","",23.03,20.44,47276,"gp_mid",-177.12,-41.04,"806",1,21.735,"aquitanian"
"75303",146347,"col","",174.7995,-36.303501,"I2, Mathesons Bay Islet (R09/f141, L17571)",NA,"",18,"Aquitanian","",23.03,20.44,47276,"gp_mid",-177.12,-41.04,"806",1,21.735,"aquitanian"
"75304",146348,"col","",174.7995,-36.303501,"I3, Mathesons Bay Islet (R09/f142, LI17572)",NA,"",7,"Aquitanian","",23.03,20.44,47276,"gp_mid",-177.12,-41.04,"806",1,21.735,"aquitanian"
"79884",152424,"col","Abrakurrie Limestone",126.18,-32.080002,"Tommy Graham Cave",NA,"",3,"Aquitanian","",23.03,20.44,49060,"gp_mid",127.16,-45.42,"801",1,21.735,"aquitanian"
"79897",152503,"col","Abrakurrie Limestone",127.019997,-31.652,"Madura, 12.9 km north of Firestick Cave (Abrakurrie Lst)",NA,"",3,"Aquitanian","",23.03,20.44,49060,"gp_mid",128.1,-44.93,"801",1,21.735,"aquitanian"
"79913",152480,"col","Abakurrie Limestone",127.73333,-31.700001,"Thylacine Hole",NA,"",1,"Aquitanian","",23.03,20.44,49060,"gp_mid",128.96,-44.91,"801",1,21.735,"aquitanian"
"79927",152511,"col","Abrakurrie Limestone",125.026001,-32.729,"Cliff face of Toolinna",NA,"",2,"Aquitanian","",23.03,20.44,49060,"gp_mid",125.86,-46.16,"801",1,21.735,"aquitanian"
"79939",152530,"col","Abrakurrie Limestone",127.019997,-31.68,"10 km north of Firestick Cave",NA,"",1,"Aquitanian","",23.03,20.44,49060,"gp_mid",128.11,-44.95,"801",1,21.735,"aquitanian"
"79942",152537,"col","Abrakurrie Limestone",127.019997,-31.768999,"Firestick Cave",NA,"",1,"Aquitanian","",23.03,20.44,49060,"gp_mid",128.12,-45.04,"801",1,21.735,"aquitanian"
"79944",152540,"col","Abrakurrie Limestone",127.230499,-31.724001,"Mullamullang Cave, Abrakurrie Limestone talus",NA,"",1,"Aquitanian","",23.03,20.44,49060,"gp_mid",128.37,-44.98,"801",1,21.735,"aquitanian"
"80070",152908,"col","",10.810556,43.076942,"Montebamboli",NA,"Ceva, Piemonte, northwestern Italy (Fig. 1); early Miocene (MN 1–2; Delle Cave,",4,"Aquitanian","",23.03,20.44,42659,"gp_mid",13.95,37.96,"307",1,21.735,"aquitanian"
"80438",153678,"col","",14.166667,42.349998,"Chietino",NA,"",1,"Aquitanian","",23.03,20.44,49756,"gp_mid",16.89,36.88,"307",1,21.735,"aquitanian"
"82955",159092,"col","",145.731995,-40.980999,"Table Cape (USNM collection)",NA,"",1,"Aquitanian","",23.03,20.44,43337,"gp_mid",152.84,-51.65,"801",1,21.735,"aquitanian"
"83715",160180,"col","Belgrade",-77.218613,35.009998,"UNCW Loc. Z-601 - Pollocksville [Pollocksville Mbr, Belgrade Fm]",NA,"",1,"Aquitanian","",23.03,20.44,52284,"gp_mid",-67.22,37.11,"109",1,21.735,"aquitanian"
"83716",160181,"col","Parachucla",-82.75972,30.329166,"UF Loc. HA-001 - White Springs [Porters Landing Mbr, Parachucla Fm]",NA,"",1,"Aquitanian","",23.03,20.44,52284,"gp_mid",-73.59,33.04,"109",1,21.735,"aquitanian"
"83914",160388,"col","",7.816667,45.016666,"Chieri, SE of Torino",NA,"",1,"Aquitanian","",23.03,20.44,52290,"gp_mid",11.61,40.22,"307",1,21.735,"aquitanian"
"83917",160391,"col","",7.883333,45.099998,"Sciolze, NE of Torino",NA,"",1,"Aquitanian","",23.03,20.44,52290,"gp_mid",11.69,40.29,"307",1,21.735,"aquitanian"
"84657",161396,"col","",-1.1,43.549999,"Peyrehorade locality",NA,"",36,"Aquitanian","",23.03,20.44,52592,"gp_mid",2.12,39.85,"305",1,21.735,"aquitanian"
"86030",163837,"col","",-0.633333,43.766666,"S-W French atlantic basins",NA,"",66,"Aquitanian","",23.03,20.44,53435,"gp_mid",2.58,40.04,"305",1,21.735,"aquitanian"
"86989",165883,"col","Khari Nadi",68.815834,23.412779,"Aida, Kutch",NA,"",1,"Aquitanian","",23.03,20.44,47015,"gp_mid",69.14,12.53,"501",1,21.735,"aquitanian"
"87924",167912,"col","",9.166667,39.366669,"Villagreca, Monte Su Crucuri Section",NA,"Reef 1989",2,"Aquitanian","",23.03,20.44,54888,"gp_mid",NA,NA,"coordinates not computable using this model",1,21.735,"aquitanian"
"87925",167913,"col","",9.166667,39.366669,"Villagreca, Genna Siustas Section",NA,"",8,"Aquitanian","",23.03,20.44,54888,"gp_mid",NA,NA,"coordinates not computable using this model",1,21.735,"aquitanian"
"87926",167914,"col","",9.166667,39.366669,"Villagreca, Is Barrocus Section",NA,"",4,"Aquitanian","",23.03,20.44,54888,"gp_mid",NA,NA,"coordinates not computable using this model",1,21.735,"aquitanian"
"87927",167915,"col","",9.166667,39.366669,"Villagreca, Punta Trempu Section",NA,"",4,"Aquitanian","",23.03,20.44,54888,"gp_mid",NA,NA,"coordinates not computable using this model",1,21.735,"aquitanian"
"88239",169242,"col","",-60.865002,14.47,"Foundation of house in Marin",NA,"",2,"Aquitanian","",23.03,20.44,55267,"gp_mid",-56.35,15.08,"234",1,21.735,"aquitanian"
"88273",171611,"col","Sankebetsu",141.866669,44.383331,"Chikubetsu",NA,"",1,"Aquitanian","",23.03,20.44,55797,"gp_mid",137.69,45.3,"610",1,21.735,"aquitanian"
"88311",169440,"col","Nye",-124.0625,44.645279,"LACM 4318",NA,"",1,"Aquitanian","",23.03,20.44,55383,"gp_mid",-112.6,48.95,"129",1,21.735,"aquitanian"
"88312",169441,"col","Jewett Sand",-118.344444,36.010277,"Horse Canyon",NA,"LACM 3351; LACM 3362",1,"Aquitanian","",23.03,20.44,55383,"gp_mid",-110.28,41.62,"101",1,21.735,"aquitanian"
"89631",171353,"col","",-0.516667,44.666668,"La Brède",NA,"",3,"Aquitanian","",23.03,20.44,55728,"gp_mid",2.76,40.94,"305",1,21.735,"aquitanian"
"90180",172003,"col","",21.549999,40.049999,"Agapi village",NA,"",18,"Aquitanian","",23.03,20.44,55876,"gp_mid",23.27,33.87,"307",1,21.735,"aquitanian"
"91638",176773,"col","Fossil Bluff Sandstone",145.733337,-40.983334,"Port Willunga, near Aldinga",NA,"",1,"Aquitanian","",23.03,20.44,58320,"gp_mid",152.85,-51.65,"801",1,21.735,"aquitanian"
"91842",177173,"col","",68.800003,23.4,"Khari Nadi Fm.",NA,"",51,"Aquitanian","",23.03,20.44,58522,"gp_mid",69.12,12.52,"501",1,21.735,"aquitanian"
"92085",178186,"col","Falun de Saucats",0.633333,45.933334,"Saint Martin d'Oney",NA,"",1,"Aquitanian","",23.03,20.44,58975,"gp_mid",3.94,42.15,"305",1,21.735,"aquitanian"
"92848",179122,"col","Arcadia",-85.066666,30.466667,"TU 1196. Farley Creek, about 0.8 mi E of bridge of Fla. Hwy. 275",NA,"",4,"Aquitanian","",23.03,20.44,57818,"gp_mid",-75.93,33.41,"109",1,21.735,"aquitanian"
"93252",179856,"col","",-0.652,43.921001,"Saint-Martin-d'Oney (Rocher collection)",NA,"",2,"Aquitanian","",23.03,20.44,59671,"gp_mid",2.57,40.2,"305",1,21.735,"aquitanian"
"93255",179859,"col","",-1.04,43.735001,"Saint-Paul-lès-Dax (Maynot)",NA,"",1,"Aquitanian","",23.03,20.44,59671,"gp_mid",2.19,40.03,"305",1,21.735,"aquitanian"
"94036",182218,"col","Uitpa",-71.431664,12.025556,"Arroyo Uitpa",NA,"",14,"Aquitanian","",23.03,20.44,60603,"gp_mid",-64.42,12.58,"203",1,21.735,"aquitanian"
"94212",182893,"col","",10.483333,48.566666,"Dillingen, USM",NA,"",1,"Aquitanian","",23.03,20.44,60773,"gp_mid",13.3,44.43,"305",1,21.735,"aquitanian"
"94396",183671,"col","",14.183333,48.183334,"Traunpucking",NA,"",1,"Aquitanian","",23.03,20.44,61361,"gp_mid",16.7,43.94,"305",1,21.735,"aquitanian"
"94841",184492,"col","Upper Burman Limestone",94.699997,15.166667,"Yadana area (offshore Myanmar), SF3 and SF4",NA,"Reef 4092",2,"Aquitanian","",23.03,20.44,61840,"gp_mid",100.81,6.41,"617",1,21.735,"aquitanian"
"95003",184791,"col","Sankebetsu",141.818314,44.374214,"Chikubetsugawa river area",NA,"",1,"Aquitanian","",23.03,20.44,61955,"gp_mid",137.64,45.28,"610",1,21.735,"aquitanian"
"96675",189024,"col","Otekaike Limestone",170.486664,-44.678333,"Hakataramea Valley, Aquitanian",NA,"",1,"Aquitanian","",23.03,20.44,61997,"gp_mid",-171.77,-46.31,"807",1,21.735,"aquitanian"
"96676",189025,"col","Mount Harris",170.960724,-44.510246,"Bluecliffs",NA,"",1,"Aquitanian","",23.03,20.44,55050,"gp_mid",-171.29,-46.14,"807",1,21.735,"aquitanian"
"97083",190126,"col","",12.6405,47.8508,"Zillerleite, south of Traunstein",NA,"",1,"Aquitanian","",23.03,20.44,63944,"gp_mid",15.25,43.65,"305",1,21.735,"aquitanian"
"97529",191280,"col","Preplans Sandstone",12.798056,46.218056,"Torrente Meduna",NA,"",2,"Aquitanian","",23.03,20.44,64533,"gp_mid",16.38,40.85,"307",1,21.735,"aquitanian"
"98336",194964,"col","",174.796997,-36.264,"AU6658, Goat Island (R09/f7508)",NA,"",2,"Aquitanian","",23.03,20.44,66281,"gp_mid",-177.14,-41,"806",1,21.735,"aquitanian"
"98337",194965,"col","",174.796997,-36.264,"AU7314, Goat Island",NA,"",1,"Aquitanian","",23.03,20.44,66281,"gp_mid",-177.14,-41,"806",1,21.735,"aquitanian"
"98338",194966,"col","",174.796997,-36.264,"AU8881, Goat Island",NA,"",1,"Aquitanian","",23.03,20.44,66281,"gp_mid",-177.14,-41,"806",1,21.735,"aquitanian"
"98339",194967,"col","",174.820999,-36.278,"AU6676, Cape Rodney (R09/f0064)",NA,"",1,"Aquitanian","",23.03,20.44,66281,"gp_mid",-177.11,-41.01,"806",1,21.735,"aquitanian"
"98340",194968,"col","",174.820999,-36.278,"AU7316, Cape Rodney (R09/f0064)",NA,"",2,"Aquitanian","",23.03,20.44,66281,"gp_mid",-177.11,-41.01,"806",1,21.735,"aquitanian"
"98341",194969,"col","",174.820999,-36.278,"AU7319, Cape Rodney (R09/f9530)",NA,"",2,"Aquitanian","",23.03,20.44,66281,"gp_mid",-177.11,-41.01,"806",1,21.735,"aquitanian"
"98342",194970,"col","",174.820999,-36.278,"AU8905, Cape Rodney (R09/f0090)",NA,"",2,"Aquitanian","",23.03,20.44,66281,"gp_mid",-177.11,-41.01,"806",1,21.735,"aquitanian"
"98343",194971,"col","",174.729004,-36.292,"MA132838, Omaha Quarry",NA,"",1,"Aquitanian","",23.03,20.44,66281,"gp_mid",-177.2,-41.04,"806",1,21.735,"aquitanian"
"98402",195301,"col","",174.796005,-36.301998,"AU6868, Te Kohuroa/Mathesons Bay (R09/f9516)",NA,"",2,"Aquitanian","",23.03,20.44,66281,"gp_mid",-177.12,-41.04,"806",1,21.735,"aquitanian"
"98403",195302,"col","",174.796005,-36.301998,"AU7320, Te Kohuroa/Mathesons Bay (R09/f9538)",NA,"",2,"Aquitanian","",23.03,20.44,66281,"gp_mid",-177.12,-41.04,"806",1,21.735,"aquitanian"
"98404",195303,"col","",174.796005,-36.301998,"AU8865, Te Kohuroa/Mathesons Bay (R09/f9538)",NA,"",2,"Aquitanian","",23.03,20.44,66281,"gp_mid",-177.12,-41.04,"806",1,21.735,"aquitanian"
"98405",195304,"col","",174.796005,-36.301998,"AU8869, Te Kohuroa/Mathesons Bay (R09/f0091)",NA,"",2,"Aquitanian","",23.03,20.44,66281,"gp_mid",-177.12,-41.04,"806",1,21.735,"aquitanian"
"98406",195305,"col","",174.796005,-36.301998,"MA132490, Te Kohuroa/Mathesons Bay (R09/f0130)",NA,"",1,"Aquitanian","",23.03,20.44,66281,"gp_mid",-177.12,-41.04,"806",1,21.735,"aquitanian"
"98407",195306,"col","",174.796005,-36.301998,"MA132533, Te Kohuroa/Mathesons Bay (R09/f0135)",NA,"",1,"Aquitanian","",23.03,20.44,66281,"gp_mid",-177.12,-41.04,"806",1,21.735,"aquitanian"
"98408",195307,"col","",174.796005,-36.301998,"MA132614, Te Kohuroa/Mathesons Bay (R09/f0142)",NA,"",1,"Aquitanian","",23.03,20.44,66281,"gp_mid",-177.12,-41.04,"806",1,21.735,"aquitanian"
"98409",195308,"col","",174.796005,-36.301998,"MA132639, Te Kohuroa/Mathesons Bay (R09/f0138)",NA,"",1,"Aquitanian","",23.03,20.44,66281,"gp_mid",-177.12,-41.04,"806",1,21.735,"aquitanian"
"98410",195309,"col","",174.796005,-36.301998,"MA132676, Te Kohuroa/Mathesons Bay (R09/f0134)",NA,"",1,"Aquitanian","",23.03,20.44,66281,"gp_mid",-177.12,-41.04,"806",1,21.735,"aquitanian"
"98411",195311,"col","",174.867004,-36.445999,"AU9776, Kawau Island (R09/f9537)",NA,"",2,"Aquitanian","",23.03,20.44,66281,"gp_mid",-177,-41.16,"806",1,21.735,"aquitanian"
"98412",195312,"col","",174.867004,-36.445999,"AU9777, Kawau Island",NA,"",2,"Aquitanian","",23.03,20.44,66281,"gp_mid",-177,-41.16,"806",1,21.735,"aquitanian"
"98413",195313,"col","",174.867004,-36.445999,"MA81970, Kawau Island",NA,"",1,"Aquitanian","",23.03,20.44,66281,"gp_mid",-177,-41.16,"806",1,21.735,"aquitanian"
"98414",195314,"col","",175.345993,-36.470001,"AU1491, Cape Colville (S09/f9515)",NA,"N35/f515",2,"Aquitanian","",23.03,20.44,72067,"gp_mid",-176.5,-41.07,"806",1,21.735,"aquitanian"
"98415",195315,"col","",175.345993,-36.470001,"AU6654, Cape Colville (S09/f9514)",NA,"",1,"Aquitanian","",23.03,20.44,72067,"gp_mid",-176.5,-41.07,"806",1,21.735,"aquitanian"
"98416",195316,"col","",175.345993,-36.470001,"AU6677, Cape Colville (S09/f9515)",NA,"",1,"Aquitanian","",23.03,20.44,66281,"gp_mid",-176.5,-41.07,"806",1,21.735,"aquitanian"
"98417",195317,"col","",174.807007,-36.473,"AU2485, Motuketekete Island (R09/f9549)",NA,"",1,"Aquitanian","",23.03,20.44,66281,"gp_mid",-177.05,-41.2,"806",1,21.735,"aquitanian"
"98418",195318,"col","",174.893997,-36.759998,"AU4528, Motutapu Island (R10/f9003)",NA,"N38/f3",2,"Aquitanian","",23.03,20.44,72067,"gp_mid",-176.85,-41.45,"806",1,21.735,"aquitanian"
"98419",195319,"col","",174.893997,-36.759998,"AU7296, Motutapu Island (R10/f9585)",NA,"",2,"Aquitanian","",23.03,20.44,66281,"gp_mid",-176.85,-41.45,"806",1,21.735,"aquitanian"
"98420",195320,"col","",174.893997,-36.759998,"AU11073, Motutapu Island (R10/f9003)",NA,"",3,"Aquitanian","",23.03,20.44,66281,"gp_mid",-176.85,-41.45,"806",1,21.735,"aquitanian"
"98421",195321,"col","",174.893997,-36.759998,"MA34672, Motutapu Island",NA,"",1,"Aquitanian","",23.03,20.44,66281,"gp_mid",-176.85,-41.45,"806",1,21.735,"aquitanian"
"98422",195322,"col","",174.940002,-36.817001,"MA91103, Motuihe Island",NA,"",1,"Aquitanian","",23.03,20.44,66281,"gp_mid",-176.78,-41.5,"806",1,21.735,"aquitanian"
"98423",195323,"col","",175.005997,-36.924999,"AU6672, Waikopua Stream",NA,"",1,"Aquitanian","",23.03,20.44,66281,"gp_mid",-176.67,-41.58,"806",1,21.735,"aquitanian"
"98424",195324,"col","",175.005997,-36.924999,"AU8818, Waikopua Stream",NA,"",1,"Aquitanian","",23.03,20.44,66281,"gp_mid",-176.67,-41.58,"806",1,21.735,"aquitanian"
"98425",195325,"col","",175.005997,-36.924999,"AU8820, Waikopua Stream",NA,"",1,"Aquitanian","",23.03,20.44,66281,"gp_mid",-176.67,-41.58,"806",1,21.735,"aquitanian"
"98426",195326,"col","",175.005997,-36.924999,"AU9166, Waikopua Stream",NA,"",1,"Aquitanian","",23.03,20.44,66281,"gp_mid",-176.67,-41.58,"806",1,21.735,"aquitanian"
"98427",195327,"col","",175.005997,-36.924999,"AU9167, Waikopua Stream",NA,"",1,"Aquitanian","",23.03,20.44,66281,"gp_mid",-176.67,-41.58,"806",1,21.735,"aquitanian"
"98428",195328,"col","",175.005997,-36.924999,"MA34667, Waikopua Stream",NA,"",1,"Aquitanian","",23.03,20.44,66281,"gp_mid",-176.67,-41.58,"806",1,21.735,"aquitanian"
"98429",195329,"col","",175,-36.944,"AU6672, Whitford Quarry (R11/f7654)",NA,"N42/f654",1,"Aquitanian","",23.03,20.44,72067,"gp_mid",-176.67,-41.6,"806",1,21.735,"aquitanian"
"98430",195330,"col","",174.983994,-37.071999,"AU8810, Hays Stream (R12/f0072)",NA,"",2,"Aquitanian","",23.03,20.44,66281,"gp_mid",-176.63,-41.73,"806",1,21.735,"aquitanian"
"98431",195331,"col","",174.983994,-37.071999,"MA76838, Hays Stream (R12/f0072)",NA,"",1,"Aquitanian","",23.03,20.44,66281,"gp_mid",-176.63,-41.73,"806",1,21.735,"aquitanian"
"98432",195332,"col","",174.983994,-37.071999,"MA91208, Hays Stream (R12/f0072)",NA,"",1,"Aquitanian","",23.03,20.44,66281,"gp_mid",-176.63,-41.73,"806",1,21.735,"aquitanian"
"98433",195333,"col","",174.983994,-37.071999,"OU45373, Hays Stream",NA,"",1,"Aquitanian","",23.03,20.44,66281,"gp_mid",-176.63,-41.73,"806",1,21.735,"aquitanian"
"98436",195336,"col","",175.005997,-36.924999,"MA34670, Waikopua Stream",NA,"",1,"Aquitanian","",23.03,20.44,66281,"gp_mid",-176.67,-41.58,"806",1,21.735,"aquitanian"
"98437",195337,"col","",174.720001,-37.462002,"AU8807, Waikawau Beach (R13/f0115)",NA,"",1,"Aquitanian","",23.03,20.44,66281,"gp_mid",-176.75,-42.16,"806",1,21.735,"aquitanian"
"98438",195338,"col","",174.720001,-37.462002,"AU15246, Waikawau Beach (R13/f0293)",NA,"",1,"Aquitanian","",23.03,20.44,66281,"gp_mid",-176.75,-42.16,"806",1,21.735,"aquitanian"
"98440",195340,"col","",174.983994,-37.071999,"MA77312, Hays Stream (R12/f0072)",NA,"",1,"Aquitanian","",23.03,20.44,66281,"gp_mid",-176.63,-41.73,"806",1,21.735,"aquitanian"
"98441",195341,"col","",174.796997,-36.264,"AU6656, Goat Island (R09/f7506)",NA,"",1,"Aquitanian","",23.03,20.44,66281,"gp_mid",-177.14,-41,"806",1,21.735,"aquitanian"
"98442",195342,"col","",174.796997,-36.264,"AU6657, Goat Island (R09/f7507)",NA,"",1,"Aquitanian","",23.03,20.44,66281,"gp_mid",-177.14,-41,"806",1,21.735,"aquitanian"
"98443",195343,"col","",174.820999,-36.278,"AU8873, Cape Rodney",NA,"",1,"Aquitanian","",23.03,20.44,66281,"gp_mid",-177.11,-41.01,"806",1,21.735,"aquitanian"
"98444",195344,"col","",174.820999,-36.278,"AU8874, Cape Rodney (R09/f0064)",NA,"",1,"Aquitanian","",23.03,20.44,66281,"gp_mid",-177.11,-41.01,"806",1,21.735,"aquitanian"
"98445",195345,"col","",174.820999,-36.278,"AU8878, Cape Rodney (R09/f0090)",NA,"",1,"Aquitanian","",23.03,20.44,66281,"gp_mid",-177.11,-41.01,"806",1,21.735,"aquitanian"
"98446",195346,"col","",174.820999,-36.278,"AU9588, Cape Rodney (R09/f0054)",NA,"",1,"Aquitanian","",23.03,20.44,66281,"gp_mid",-177.11,-41.01,"806",1,21.735,"aquitanian"
"98447",195347,"col","",174.729004,-36.292,"MA91104, Omaha Quarry",NA,"",1,"Aquitanian","",23.03,20.44,66281,"gp_mid",-177.2,-41.04,"806",1,21.735,"aquitanian"
"98448",195348,"col","",174.729004,-36.292,"MA132839, Omaha Quarry",NA,"",1,"Aquitanian","",23.03,20.44,66281,"gp_mid",-177.2,-41.04,"806",1,21.735,"aquitanian"
"98449",195349,"col","",174.796005,-36.301998,"AU8870, Te Kohuroa/Mathesons Bay",NA,"",1,"Aquitanian","",23.03,20.44,66281,"gp_mid",-177.12,-41.04,"806",1,21.735,"aquitanian"
"98450",195350,"col","",174.796005,-36.301998,"AU9595, Te Kohuroa/Mathesons Bay (R09/f0098)",NA,"",1,"Aquitanian","",23.03,20.44,66281,"gp_mid",-177.12,-41.04,"806",1,21.735,"aquitanian"
"98451",195351,"col","",174.796005,-36.301998,"MA34673, Te Kohuroa/Mathesons Bay (R09/f0134)",NA,"",1,"Aquitanian","",23.03,20.44,66281,"gp_mid",-177.12,-41.04,"806",1,21.735,"aquitanian"
"98452",195352,"col","",174.796005,-36.301998,"MA132485, Te Kohuroa/Mathesons Bay (R09/f0130)",NA,"",1,"Aquitanian","",23.03,20.44,66281,"gp_mid",-177.12,-41.04,"806",1,21.735,"aquitanian"
"98453",195353,"col","",174.796005,-36.301998,"MA132534, Te Kohuroa/Mathesons Bay (R09/f0135)",NA,"",1,"Aquitanian","",23.03,20.44,66281,"gp_mid",-177.12,-41.04,"806",1,21.735,"aquitanian"
"98454",195354,"col","",174.796005,-36.301998,"MA132570, Te Kohuroa/Mathesons Bay (R09/f0141)",NA,"",1,"Aquitanian","",23.03,20.44,66281,"gp_mid",-177.12,-41.04,"806",1,21.735,"aquitanian"
"98455",195355,"col","",174.796005,-36.301998,"MA132612, Te Kohuroa/Mathesons Bay (R09/f0132)",NA,"",1,"Aquitanian","",23.03,20.44,66281,"gp_mid",-177.12,-41.04,"806",1,21.735,"aquitanian"
"98456",195356,"col","",174.796005,-36.301998,"MA132615, Te Kohuroa/Mathesons Bay (R09/f0142)",NA,"",1,"Aquitanian","",23.03,20.44,66281,"gp_mid",-177.12,-41.04,"806",1,21.735,"aquitanian"
"98457",195357,"col","",174.796005,-36.301998,"MA132649, Te Kohuroa/Mathesons Bay (R09/f0133)",NA,"",1,"Aquitanian","",23.03,20.44,66281,"gp_mid",-177.12,-41.04,"806",1,21.735,"aquitanian"
"98458",195358,"col","",174.796005,-36.301998,"MA132681, Te Kohuroa/Mathesons Bay (R09/f0134)",NA,"",1,"Aquitanian","",23.03,20.44,66281,"gp_mid",-177.12,-41.04,"806",1,21.735,"aquitanian"
"98459",195359,"col","",174.867004,-36.445999,"AU6661, Kawau Island",NA,"",1,"Aquitanian","",23.03,20.44,66281,"gp_mid",-177,-41.16,"806",1,21.735,"aquitanian"
"98460",195360,"col","Cape Rodney",174.867004,-36.445999,"AU6662, Kawau Island (R09/f9533-5)",NA,"",3,"Aquitanian","",23.03,20.44,66281,"gp_mid",-177,-41.16,"806",1,21.735,"aquitanian"
"98461",195361,"col","",174.867004,-36.445999,"MA81969, Kawau Island",NA,"",1,"Aquitanian","",23.03,20.44,66281,"gp_mid",-177,-41.16,"806",1,21.735,"aquitanian"
"98462",195362,"col","",174.807007,-36.473,"AU17530, Motuketekete Island (R09/f0151)",NA,"",1,"Aquitanian","",23.03,20.44,66281,"gp_mid",-177.05,-41.2,"806",1,21.735,"aquitanian"
"98463",195363,"col","",174.893997,-36.759998,"MA91049, Motutapu Island",NA,"",1,"Aquitanian","",23.03,20.44,66281,"gp_mid",-176.85,-41.45,"806",1,21.735,"aquitanian"
"98464",195364,"col","",174.893997,-36.759998,"MA91050, Motutapu Island",NA,"",1,"Aquitanian","",23.03,20.44,66281,"gp_mid",-176.85,-41.45,"806",1,21.735,"aquitanian"
"98465",195365,"col","",174.893997,-36.759998,"MA91197, Motutapu Island",NA,"",1,"Aquitanian","",23.03,20.44,66281,"gp_mid",-176.85,-41.45,"806",1,21.735,"aquitanian"
"98466",195366,"col","",174.893997,-36.759998,"MA92028, Motutapu Island",NA,"",1,"Aquitanian","",23.03,20.44,66281,"gp_mid",-176.85,-41.45,"806",1,21.735,"aquitanian"
"98467",195367,"col","",174.940002,-36.817001,"AU11068, Te Motu-a-Ihenga/Motuihe Island",NA,"",1,"Aquitanian","",23.03,20.44,66281,"gp_mid",-176.78,-41.5,"806",1,21.735,"aquitanian"
"98468",195368,"col","",175.005997,-36.924999,"MA34665, Waikopua Stream",NA,"",1,"Aquitanian","",23.03,20.44,66281,"gp_mid",-176.67,-41.58,"806",1,21.735,"aquitanian"
"98469",195369,"col","",174.983994,-37.071999,"AU8809, Hays Stream (R12/f7011)",NA,"",1,"Aquitanian","",23.03,20.44,66281,"gp_mid",-176.63,-41.73,"806",1,21.735,"aquitanian"
"98470",195370,"col","",174.983994,-37.071999,"MA76831, Hays Stream (R12/f0072)",NA,"",1,"Aquitanian","",23.03,20.44,66281,"gp_mid",-176.63,-41.73,"806",1,21.735,"aquitanian"
"98471",195371,"col","",174.983994,-37.071999,"OU45372, Hays Stream",NA,"",1,"Aquitanian","",23.03,20.44,66281,"gp_mid",-176.63,-41.73,"806",1,21.735,"aquitanian"
"98477",195377,"col","",174.820999,-36.278,"BR001013, Cape Rodney",NA,"",1,"Aquitanian","",23.03,20.44,66281,"gp_mid",-177.11,-41.01,"806",1,21.735,"aquitanian"
"98478",195378,"col","",174.867004,-36.445999,"AU4529, Kawau Island (R09/f0011)",NA,"",1,"Aquitanian","",23.03,20.44,66281,"gp_mid",-177,-41.16,"806",1,21.735,"aquitanian"
"98480",195379,"col","",174.867004,-36.445999,"AU8900, Kawau Island (R09/f9537)",NA,"",1,"Aquitanian","",23.03,20.44,66281,"gp_mid",-177,-41.16,"806",1,21.735,"aquitanian"
"98481",195380,"col","Cape Rodney",174.867004,-36.445999,"MA81968, Kawau Island",NA,"",1,"Aquitanian","",23.03,20.44,66281,"gp_mid",-177,-41.16,"806",1,21.735,"aquitanian"
"98482",195381,"col","",174.893997,-36.759998,"MA91199, Motutapu Island",NA,"",1,"Aquitanian","",23.03,20.44,66281,"gp_mid",-176.85,-41.45,"806",1,21.735,"aquitanian"
"98483",195382,"col","",174.983994,-37.071999,"MA77362, Hays Stream",NA,"",1,"Aquitanian","",23.03,20.44,66281,"gp_mid",-176.63,-41.73,"806",1,21.735,"aquitanian"
"98490",195390,"col","",174.703003,-36.542999,"AU1508, Waiwera Beach",NA,"",1,"Aquitanian","",23.03,20.44,66281,"gp_mid",-177.13,-41.29,"806",1,21.735,"aquitanian"
"98492",195392,"col","",174.720001,-37.462002,"AU15266, Waikawau Beach",NA,"",1,"Aquitanian","",23.03,20.44,66281,"gp_mid",-176.75,-42.16,"806",1,21.735,"aquitanian"
"98493",195393,"col","",174.720001,-37.462002,"AU14357, Waikawau Beach (R13/f0085)",NA,"",1,"Aquitanian","",23.03,20.44,66281,"gp_mid",-176.75,-42.16,"806",1,21.735,"aquitanian"
"99091",196806,"col","Lincoln Creek",-123.487381,46.91227,"UWBM B8944",NA,"LACMIP 17102",2,"Aquitanian","",23.03,20.44,62223,"gp_mid",-111.86,51.2,"129",1,21.735,"aquitanian"
"100640",201397,"col","Siamaná",-71.422501,12.030556,"Arroyo Uitpa locality, Siamaná Fm, station code PF0016",NA,"",4,"Aquitanian","",23.03,20.44,68914,"gp_mid",-64.41,12.58,"203",1,21.735,"aquitanian"
"100641",201398,"col","Siamaná",-71.423332,12.030556,"Arroyo Uitpa locality, Siamaná Fm, station code 550005",NA,"",8,"Aquitanian","",23.03,20.44,68914,"gp_mid",-64.41,12.58,"203",1,21.735,"aquitanian"
"100642",201399,"col","Siamaná",-71.421112,12.030278,"Arroyo Uitpa locality, Siamaná Fm, station code 550006",NA,"",5,"Aquitanian","",23.03,20.44,68914,"gp_mid",-64.41,12.58,"203",1,21.735,"aquitanian"
"100643",201400,"col","Siamaná",-71.399445,11.831111,"Flor de La Guajira locality, Siamaná Fm, station code 550001",NA,"",5,"Aquitanian","",23.03,20.44,68914,"gp_mid",-64.4,12.38,"203",1,21.735,"aquitanian"
"100644",201401,"col","Siamaná",-71.399445,11.831111,"Flor de La Guajira locality, Siamaná Fm, station code 550002",NA,"",3,"Aquitanian","",23.03,20.44,68914,"gp_mid",-64.4,12.38,"203",1,21.735,"aquitanian"
"101707",203158,"col","Clallam",-124.139999,48.226501,"USGS M5878, Pillar Point",NA,"",7,"Aquitanian","",23.03,20.44,10046,"gp_mid",-112.5,52.53,"129",1,21.735,"aquitanian"
"102478",204642,"col","Subis Limestone",113.783333,3.766667,"Gunung Subis",NA,"",10,"Aquitanian","",23.03,20.44,70211,"gp_mid",118.86,4.44,"621",1,21.735,"aquitanian"
"102739",205118,"col","",-69.855003,11.886944,"Buenavista de Maicillal",NA,"",5,"Aquitanian","",23.03,20.44,70390,"gp_mid",-62.85,12.37,"203",1,21.735,"aquitanian"
"102741",205120,"col","Pozón",-69.701736,8.222483,"La Piedra",NA,"",3,"Aquitanian","",23.03,20.44,70390,"gp_mid",-62.87,8.7,"201",1,21.735,"aquitanian"
"104470",208795,"col","",174.796005,-36.301998,"Mathesons Bay (N34/f511)",NA,"R09/f9511",1,"Aquitanian","",23.03,20.44,72067,"gp_mid",-177.12,-41.04,"806",1,21.735,"aquitanian"
"104471",208796,"col","",174.820999,-36.278,"Cape Rodney (N34/f12)",NA,"R09/f9012",1,"Aquitanian","",23.03,20.44,72067,"gp_mid",-177.11,-41.01,"806",1,21.735,"aquitanian"
"104472",208797,"col","",174.820999,-36.278,"GS450, Cape Rodney (N29/f2)",NA,"R09/f7002",1,"Aquitanian","",23.03,20.44,72067,"gp_mid",-177.11,-41.01,"806",1,21.735,"aquitanian"
"104473",208798,"col","",174.988007,-36.792,"Church Bay, Waiheke Island (N42/f1)",NA,"R11/f7001",1,"Aquitanian","",23.03,20.44,72067,"gp_mid",-176.74,-41.46,"806",1,21.735,"aquitanian"
"104475",208800,"col","",174.895004,-36.759998,"West side Motutapu Island",NA,"",1,"Aquitanian","",23.03,20.44,72067,"gp_mid",-176.85,-41.45,"806",1,21.735,"aquitanian"
"104476",208801,"col","",174.854996,-36.446999,"Brownrigg Point, Kawai Island (N34/f11)",NA,"R09/f9011",1,"Aquitanian","",23.03,20.44,72067,"gp_mid",-177.01,-41.16,"806",1,21.735,"aquitanian"
"104477",208802,"col","",174.820999,-36.278,"Cape Rodney (N34/f531)",NA,"R09/f9531",1,"Aquitanian","",23.03,20.44,72067,"gp_mid",-177.11,-41.01,"806",1,21.735,"aquitanian"
"104478",208803,"col","Cape Rodney",174.867004,-36.445999,"Kawau Island (N34/f533)",NA,"R09/f9533",1,"Aquitanian","",23.03,20.44,72067,"gp_mid",-177,-41.16,"806",1,21.735,"aquitanian"
"104479",208804,"col","",174.796005,-36.301998,"Mathesons Bay (N34/f540)",NA,"",1,"Aquitanian","",23.03,20.44,72067,"gp_mid",-177.12,-41.04,"806",1,21.735,"aquitanian"
"104709",209212,"col","",8.466,39.612,"Funtanazza",NA,"",1,"Aquitanian","",23.03,20.44,72204,"gp_mid",NA,NA,"coordinates not computable using this model",1,21.735,"aquitanian"
