"","collection_no","record_type","formation","lng","lat","collection_name","collection_subset","collection_aka","n_occs","early_interval","late_interval","max_ma","min_ma","reference_no","paleomodel","paleolng","paleolat","geoplate","mid_ma","time_bin","id","getech_lng","getech_lat","Stage.number"
"77",1213,"col","Tuscahoma",-87.42,31.81,"H76-33-4, Bells Landing Mbr, Alabama",NA,"",0,"Thanetian","",59.2,56,38,"gp_mid",-60.27,35.8,"109",57.6,"thanetian",25,-67.8548,33.5914,17
"80",1211,"col","Tuscahoma",-87.42,31.81,"H76-33-2, Bells Landing Mbr, Alabama",NA,"",0,"Thanetian","",59.2,56,38,"gp_mid",-60.27,35.8,"109",57.6,"thanetian",25,-67.8548,33.5914,17
"1473",3113,"col","Vincentown",-74.68,39.97,"Vincentown Formation, NJ",NA,"",164,"Thanetian","",59.2,56,140,"gp_mid",-44.51,40.13,"109",57.6,"thanetian",431,-54.9529,39.1212,17
"2933",6266,"col","Pebble Point",143.18,-38.7,"PL3001, Dilwyn Cove, Pebble Point Fm., Victoria, Australia",NA,"",40,"Thanetian","",59.2,56,398,"gp_mid",163.38,-58.81,"801",57.6,"thanetian",1009,145.2528,-61.4435,17
"2934",6267,"col","Pebble Point",143.18,-38.7,"PL3003, SE of Princetown, Pebble Point Fm., Victoria, Australia",NA,"",47,"Thanetian","",59.2,56,398,"gp_mid",163.38,-58.81,"801",57.6,"thanetian",1009,145.2528,-61.4435,17
"2935",6268,"col","Pebble Point",143.17,-38.68,"PL3004, NW Buckley Point, Pebble Point Fm., Victoria, Australia",NA,"",22,"Thanetian","",59.2,56,398,"gp_mid",163.34,-58.8,"801",57.6,"thanetian",1010,145.2528,-61.4435,17
"2936",6269,"col","Pebble Point",145.5,-37.75,"PL3005, Killara Bluff, Pebble Point Fm., Victoria, Australia",NA,"",2,"Thanetian","",59.2,56,398,"gp_mid",165.45,-57.08,"801",57.6,"thanetian",1011,151.2317,-60.735,17
"3992",11120,"col","Lodo",-120.68,36.62,"CAS 31318, Panoche Creek",NA,"",6,"Thanetian","",59.2,56,4090,"gp_mid",-89.89,45.65,"130",57.6,"thanetian",1296,-101.6675,41.6432,17
"3998",11126,"col","Lodo",-120.69,36.61,"LSJU 1068, junction of Silver and Panoche Creek",NA,"",5,"Thanetian","",59.2,56,4090,"gp_mid",-89.91,45.63,"130",57.6,"thanetian",1298,-101.6675,41.6432,17
"5017",13185,"col","Aquia",-76.96,37.88,"Piscataway",NA,"",1,"Thanetian","",59.2,56,4382,"gp_mid",-47.6,38.76,"109",57.6,"thanetian",1521,-59.2504,37.2781,17
"5018",13186,"col","Aquia",-76.47,36.6,"Paspotansa",NA,"",1,"Thanetian","",59.2,56,4382,"gp_mid",-47.67,37.43,"109",57.6,"thanetian",1522,-55.6037,36.6745,17
"11309",21215,"col","Thanet",1.13,51.37,"Thanet Sands",NA,"Herne Bay",5,"Thanetian","",59.2,56,6504,"gp_mid",9.22,41.45,"315",57.6,"thanetian",2050,-1.7169,46.9649,17
"11310",21218,"col","Woolwich & Reading Beds",-0.1,51.38,"Woolwich Beds - Croyden",NA,"",19,"Thanetian","",59.2,56,6504,"gp_mid",8.2,41.53,"315",57.6,"thanetian",2051,-1.7169,46.9649,17
"12420",23239,"col","Woolwich & Reading beds",-0.02,51.45,"Woolwich Beds - Counter Hill/Lewisham",NA,"",2,"Thanetian","",59.2,56,6528,"gp_mid",8.27,41.59,"315",57.6,"thanetian",2308,-1.7169,46.9649,17
"12421",23240,"col","Woolwich & Reading beds",0.2,51.47,"Woolwich Beds, Woolwich",NA,"",1,"Thanetian","",59.2,56,6528,"gp_mid",8.46,41.59,"315",57.6,"thanetian",2309,-1.7169,46.9649,17
"12437",23313,"col","Woolwich & Reading Beds",0.07,51.35,"Woolwich Beds - Newington",NA,"",1,"Thanetian","",59.2,56,6528,"gp_mid",8.33,41.48,"315",57.6,"thanetian",2313,-1.7169,46.9649,17
"12438",23315,"col","Woolrich & Reading Beds",-1,51.33,"Reading Beds - Reading",NA,"",14,"Thanetian","",59.2,56,6528,"gp_mid",7.44,41.53,"315",57.6,"thanetian",2314,-1.7169,46.9649,17
"12439",23316,"col","Woolwich & Reading Beds",-0.03,51.52,"Reading Beds, Hedge Row, Lea Valley",NA,"",1,"Thanetian","",59.2,56,6528,"gp_mid",8.27,41.66,"315",57.6,"thanetian",2315,-1.7169,46.9649,17
"12441",23318,"col","Woolwich & Reading Beds",0.02,51.42,"Woolwich Beds - Bromley",NA,"",1,"Thanetian","",59.2,56,6528,"gp_mid",8.3,41.55,"315",57.6,"thanetian",2317,-1.7169,46.9649,17
"12443",23320,"col","Woolwich & Reading Beds",-0.08,51.52,"Woolwich beds - Tooting, London",NA,"",8,"Thanetian","",59.2,56,6528,"gp_mid",8.23,41.66,"315",57.6,"thanetian",2318,-1.7169,46.9649,17
"12449",23326,"col","Woolwich & Reading Beds",-0.07,51.45,"Woolwich Beds - Dulwich",NA,"",2,"Thanetian","",59.2,56,6528,"gp_mid",8.23,41.59,"315",57.6,"thanetian",2319,-1.7169,46.9649,17
"12450",23327,"col","Woolwich & Reading Beds",0,51.73,"Reading Beds - Broxbourne",NA,"",4,"Thanetian","",59.2,56,6528,"gp_mid",8.32,41.87,"315",57.6,"thanetian",2320,-1.7169,46.9649,17
"12451",23328,"col","Woolwich & reading Beds",-0.03,51.63,"Reading Beds - Ponder's End",NA,"",1,"Thanetian","",59.2,56,6528,"gp_mid",8.28,41.77,"315",57.6,"thanetian",2321,-1.7169,46.9649,17
"12452",23329,"col","Woolwich & Reading Beds",0,51.33,"Woolwich Beds - Beddington",NA,"",1,"Thanetian","",59.2,56,6528,"gp_mid",8.27,41.47,"315",57.6,"thanetian",2322,-1.7169,46.9649,17
"12881",24270,"col","Avella",14.17,42.17,"Maiella reef blocks II, Italy",NA,"Reef 907",39,"Thanetian","",59.2,56,6862,"gp_mid",19.25,27.95,"307",57.6,"thanetian",2410,15.6942,32.7929,17
"13867",27018,"col","Babica Beds",21.9,49.92,"Babica, Middle Carpathians",NA,"KT loc. 435",100,"Thanetian","",59.2,56,7472,"gp_mid",26.41,39.49,"305",57.6,"thanetian",2687,18.7625,45.3219,17
"13868",27019,"col","Czarnorzeki Beds",21.93,49.77,"Plosina, Middle Carpathians",NA,"KT loc. 435",106,"Thanetian","",59.2,56,7472,"gp_mid",26.44,39.34,"305",57.6,"thanetian",2688,18.7625,45.3219,17
"13869",27020,"col","Czarnorzeki Beds",21.97,49.77,"Blizne, Middle Carpathians",NA,"KT loc. 435",82,"Thanetian","",59.2,56,7472,"gp_mid",26.47,39.34,"305",57.6,"thanetian",2689,18.7625,45.3219,17
"13870",27021,"col","Czarnorzeki Beds",21.97,49.77,"Blizne conglomerates, Middle Carpathians",NA,"KT loc. 435",8,"Thanetian","",59.2,56,7472,"gp_mid",26.47,39.34,"305",57.6,"thanetian",2689,18.7625,45.3219,17
"17109",31329,"col","",5.73,43.6,"Saint-Maurin",NA,"Rians",1,"Thanetian","",59.2,56,8465,"gp_mid",12.45,33.48,"305",57.6,"thanetian",3471,4.6344,38.3683,17
"17110",31330,"col","",5.53,43.53,"Saint-Antonin",NA,"Suberoque farm",1,"Thanetian","",59.2,56,8465,"gp_mid",12.27,33.43,"305",57.6,"thanetian",3472,2.6407,36.7498,17
"17111",31331,"col","",5.9,43.68,"Saint-Julien-le-Montagnie",NA,"Saint-Julien",1,"Thanetian","",59.2,56,8465,"gp_mid",12.6,33.56,"305",57.6,"thanetian",3473,4.6344,38.3683,17
"17112",31332,"col","",6.03,43.57,"Ponteves",NA,"",1,"Thanetian","",59.2,56,8465,"gp_mid",12.71,33.44,"305",57.6,"thanetian",3474,4.6344,38.3683,17
"17113",31333,"col","",6.15,43.57,"Sillans-la-Cascade",NA,"",1,"Thanetian","",59.2,56,8465,"gp_mid",12.81,33.43,"305",57.6,"thanetian",3475,4.6344,38.3683,17
"17114",31334,"col","",5.78,43.72,"La Baraque, Vinon",NA,"La Barraque",1,"Thanetian","",59.2,56,8465,"gp_mid",12.5,33.6,"305",57.6,"thanetian",3476,4.6344,38.3683,17
"19806",34415,"col","Dakhla",27.83,26.45,"Farafra Oasis Thanetian mounds, Egypt",NA,"Reef 1741",8,"Thanetian","",59.2,56,9061,"gp_mid",29.83,10.05,"715",57.6,"thanetian",3946,22.2341,17.6051,17
"19964",34652,"col","Salt Mountain Limestone",-87.92,31.43,"Salt Mountain [Salt Mountain Lmst]",NA,"Reef 690",28,"Thanetian","",59.2,56,9168,"gp_mid",-60.91,35.57,"109",57.6,"thanetian",3982,-67.8548,33.5914,17
"22904",38793,"col","",-41.55,-22.1,"700 m east of São José (Itaborai Basin)",NA,"",5,"Itaboraian","",59,57,13023,"gp_mid",-25.73,-27.57,"201",58,"thanetian",4768,-26.703,-26.2301,17
"28440",45854,"col","Auradu Limestone",45.05,10.33,"Berbera-Sheikh area",NA,"Reef 3367",14,"Thanetian","",59.2,56,12203,"gp_mid",43.46,-6.92,"709",57.6,"thanetian",6508,39.5442,-0.4928,17
"32699",51083,"col","Red Bluff Tuff",-176.25,-44.3,"CH/f488 - Red Bluff Tuff, Chatham Islands",NA,"GS 12187; Coll# 2758 (Hendy PhD)",12,"Thanetian","",59.2,56,13610,"gp_mid",-140.1,-49.28,"807",57.6,"thanetian",7804,-145.6884,-59.2087,17
"33711",133242,"col","",-5.61,31.51,"N'Tagourt",NA,"",1,"Thanetian","",59.2,56,42889,"gp_mid",1.08,20.5,"714",57.6,"thanetian",8062,-4.7471,25.5058,17
"33713",133241,"col","",-7,31.96,"Ihadjamene",NA,"Ihad Jamene",10,"Thanetian","",59.2,56,42889,"gp_mid",-0.01,21.25,"707",57.6,"thanetian",8064,-8.2122,26.0193,17
"34125",52593,"col","Silverado",-117.82,33.86,"F83 - Silverado Formation, Santa Ana Mountains",NA,"Field #Y92A",1,"Thanetian","",59.2,56,3060,"gp_mid",-88.82,41.42,"105",57.6,"thanetian",8250,-98.0847,40.6031,17
"34126",52594,"col","Silverado",-117.82,33.86,"F84 - Silverado Formation, Santa Ana Mountains",NA,"USGS #18981; Field #S26",1,"Thanetian","",59.2,56,3060,"gp_mid",-88.82,41.42,"105",57.6,"thanetian",8250,-98.0847,40.6031,17
"34127",52595,"col","Silverado",-117.82,33.86,"F85 - Silverado Formation, Santa Ana Mountains",NA,"USGS #18982; Field #S101",7,"Thanetian","",59.2,56,3060,"gp_mid",-88.82,41.42,"105",57.6,"thanetian",8250,-98.0847,40.6031,17
"34128",52596,"col","Silverado",-117.71,33.87,"F86 - Silverado Formation, Santa Ana Mountains",NA,"USGS #18983; Field #S25",22,"Thanetian","",59.2,56,3060,"gp_mid",-88.7,41.41,"105",57.6,"thanetian",8251,-98.0847,40.6031,17
"34129",52597,"col","Silverado",-117.72,33.79,"F87 - Silverado Formation, Santa Ana Mountains",NA,"Field #S74",4,"Thanetian","",59.2,56,3060,"gp_mid",-88.73,41.34,"105",57.6,"thanetian",8252,-98.0847,40.6031,17
"34130",52598,"col","Silverado",-117.71,33.87,"F88 - Silverado Formation, Santa Ana Mountains",NA,"USGS# 18984; Field# S42",5,"Thanetian","",59.2,56,3060,"gp_mid",-88.7,41.41,"105",57.6,"thanetian",8251,-98.0847,40.6031,17
"34131",52599,"col","Silverado",-117.71,33.87,"F89 - Silverado Formation, Santa Ana Mountains",NA,"USGS# 18985; Field# S45",5,"Thanetian","",59.2,56,3060,"gp_mid",-88.7,41.41,"105",57.6,"thanetian",8251,-98.0847,40.6031,17
"34132",52600,"col","Silverado",-117.71,33.87,"F90 - Silverado Formation, Santa Ana Mountains",NA,"USGS# 18986; Field# S44",2,"Thanetian","",59.2,56,3060,"gp_mid",-88.7,41.41,"105",57.6,"thanetian",8251,-98.0847,40.6031,17
"34133",52601,"col","Silverado",-117.71,33.87,"F91 - Silverado Formation, Santa Ana Mountains",NA,"USGS# 18987",1,"Thanetian","",59.2,56,3060,"gp_mid",-88.7,41.41,"105",57.6,"thanetian",8251,-98.0847,40.6031,17
"34134",52602,"col","Silverado",-117.71,33.87,"F92 - Silverado Formation, Santa Ana Mountains",NA,"USGS# 18988",8,"Thanetian","",59.2,56,3060,"gp_mid",-88.7,41.41,"105",57.6,"thanetian",8251,-98.0847,40.6031,17
"34135",52603,"col","Silverado",-117.71,33.87,"F93 - Silverado Formation, Santa Ana Mountains",NA,"USGS# 18989",5,"Thanetian","",59.2,56,3060,"gp_mid",-88.7,41.41,"105",57.6,"thanetian",8251,-98.0847,40.6031,17
"34136",52604,"col","Silverado",-117.71,33.87,"F94 - Silverado Formation, Santa Ana Mountains",NA,"USGS# 18990",3,"Thanetian","",59.2,56,3060,"gp_mid",-88.7,41.41,"105",57.6,"thanetian",8251,-98.0847,40.6031,17
"34137",52605,"col","Silverado",-117.76,33.81,"F95 - Silverado Formation, Santa Ana Mountains",NA,"Pomoma College loc.# 160",4,"Thanetian","",59.2,56,3060,"gp_mid",-88.76,41.36,"105",57.6,"thanetian",8253,-98.0847,40.6031,17
"34138",52606,"col","Silverado",-117.76,33.81,"F96 - Silverado Formation, Santa Ana Mountains",NA,"Field# V16",8,"Thanetian","",59.2,56,3060,"gp_mid",-88.76,41.36,"105",57.6,"thanetian",8253,-98.0847,40.6031,17
"34139",52607,"col","Silverado",-117.72,33.79,"F97 - Silverado Formation, Santa Ana Mountains",NA,"USGS# 18991",2,"Thanetian","",59.2,56,3060,"gp_mid",-88.73,41.34,"105",57.6,"thanetian",8252,-98.0847,40.6031,17
"34140",52608,"col","Silverado",-117.72,33.79,"F98 - Silverado Formation, Santa Ana Mountains",NA,"",1,"Thanetian","",59.2,56,3060,"gp_mid",-88.73,41.34,"105",57.6,"thanetian",8252,-98.0847,40.6031,17
"34141",52609,"col","Silverado",-117.72,33.79,"F99 - Silverado Formation, Santa Ana Mountains",NA,"USGS# 18992",3,"Thanetian","",59.2,56,3060,"gp_mid",-88.73,41.34,"105",57.6,"thanetian",8252,-98.0847,40.6031,17
"34142",52610,"col","Martinez",-122.24,38.06,"UW 2329, Selby Station",NA,"",9,"Thanetian","",59.2,56,14145,"gp_mid",-91.23,47.3,"130",57.6,"thanetian",8254,NA,NA,17
"34143",52611,"col","Martinez",-122.02,38.21,"UW 2363 - Potrero Hills",NA,"",11,"Thanetian","",59.2,56,14145,"gp_mid",-90.93,47.42,"130",57.6,"thanetian",8255,NA,NA,17
"34144",52612,"col","Martinez",-122.15,38.05,"UW 260A - Benicia",NA,"",35,"Thanetian","",59.2,56,14145,"gp_mid",-91.14,47.28,"130",57.6,"thanetian",8256,NA,NA,17
"34145",52613,"col","Martinez",-122.1,38.02,"UW 1075 - Martinez",NA,"",21,"Thanetian","",59.2,56,14145,"gp_mid",-91.08,47.24,"130",57.6,"thanetian",8257,NA,NA,17
"34147",52615,"col","Martinez",-122.13,38.01,"UW 1698 - Martinez",NA,"",7,"Thanetian","",59.2,56,14145,"gp_mid",-91.12,47.23,"130",57.6,"thanetian",8259,NA,NA,17
"34148",52616,"col","Martinez",-122.24,38.06,"UW 1853A - Selby Station",NA,"",3,"Thanetian","",59.2,56,14145,"gp_mid",-91.23,47.3,"130",57.6,"thanetian",8254,NA,NA,17
"34149",52617,"col","Martinez",-122.08,38,"UW 1956 - Vine Hill",NA,"",5,"Thanetian","",59.2,56,14145,"gp_mid",-91.07,47.23,"130",57.6,"thanetian",8260,NA,NA,17
"34150",52618,"col","Martinez",-121.99,38.21,"UW 2540 - Potrero Hills",NA,"",15,"Thanetian","",59.2,56,14145,"gp_mid",-90.91,47.42,"130",57.6,"thanetian",8261,NA,NA,17
"41640",62244,"col","Aquia",-76.67,37.95,"Piscataway Mbr, Aquia Fm - 128-137 m, Haynesville Core",NA,"",3,"Thanetian","",59.2,56,17987,"gp_mid",-47.29,38.76,"109",57.6,"thanetian",10061,-55.6037,36.6745,17
"45579",68175,"col","Argiles d'lignite du Soissonnais",2.65,49.35,"Le Quesnoy (reworked elasmobranchs)",NA,"",12,"Thanetian","",59.2,56,19606,"gp_mid",10.28,39.36,"315",57.6,"thanetian",11066,1.7834,44.5577,17
"45790",68428,"col","Sables de Bracheux",4.15,49.27,"Mont Berru",NA,"Berru bed 5; Mouras Quarry; Cernay",42,"Thanetian","",59.2,56,29562,"gp_mid",11.53,39.21,"315",57.6,"thanetian",11109,1.7834,44.5577,17
"45791",68429,"col","Tuffeau de St Omer",3.17,50.53,"Templeuve",NA,"",7,"Thanetian","",59.2,56,19707,"gp_mid",10.83,40.51,"315",57.6,"thanetian",11110,1.7834,44.5577,17
"45795",68433,"col","Upnor",1.13,51.37,"Herne Bay",NA,"",1,"Thanetian","",59.2,56,42904,"gp_mid",9.21,41.45,"315",57.6,"thanetian",2050,-1.7169,46.9649,17
"46256",68903,"col","",-2.08,42.87,"Usabide and Legunbe, Pyrenean Basin, Navarra",NA,"Reef 697",24,"Thanetian","",59.2,56,19892,"gp_mid",6.3,32.86,"304",57.6,"thanetian",11254,-4.2637,36.8823,17
"47898",71234,"col","",-5.85,34.32,"Ouled Abdoun Basin (selachians associated with Phosphatherium)",NA,"",5,"Thanetian","",59.2,56,23856,"gp_mid",NA,NA,"coordinates not computable using this model",57.6,"thanetian",11714,-7.7381,28.4836,17
"50875",76994,"col","Zongpu",90,32,"Bed 13 (of Douvillé) - Operculina limestone",NA,"",14,"Thanetian","",59.2,56,26050,"gp_mid",85.43,13.56,"613",57.6,"thanetian",12577,81.5706,29.6876,17
"51126",77353,"col","",-6.72,32.68,"Sidi Chennane",NA,"Quarry A4",3,"Thanetian","",59.2,56,26180,"gp_mid",0.44,21.88,"707",57.6,"thanetian",12645,-8.2122,26.0193,17
"51656",78359,"col","Aquia",-76.8,38.87,"3 miles west of Leeland",NA,"",1,"Thanetian","",59.2,56,26372,"gp_mid",-47.01,39.65,"109",57.6,"thanetian",12832,-54.9529,39.1212,17
"51931",78687,"col","Falaises de Fresco",-5.62,5.08,"Falaises de Fresco, region EF (Kraïébouèn), bed 5",NA,"",7,"Thanetian","",59.2,56,26458,"gp_mid",-5.62,-5.1,"714",57.6,"thanetian",12910,-8.9987,-1.734,17
"52268",79282,"col","",13.83,45.67,"Padriciano",NA,"",7,"Thanetian","",59.2,56,26586,"gp_mid",21.1,31.07,"307",57.6,"thanetian",12990,16.8917,35.0871,17
"52274",79288,"col","",13.95,45.6,"Hrpelje-Kozina",NA,"",4,"Thanetian","",59.2,56,26586,"gp_mid",21.14,30.97,"307",57.6,"thanetian",12991,16.8917,35.0871,17
"52275",79289,"col","",14,45.73,"Dolenja Vas, Bed 26",NA,"",4,"Thanetian","",59.2,56,26585,"gp_mid",21.26,31.07,"307",57.6,"thanetian",12992,16.8917,35.0871,17
"52276",79290,"col","",13.95,45.6,"Golež",NA,"",2,"Thanetian","",59.2,56,26586,"gp_mid",21.14,30.97,"307",57.6,"thanetian",12991,16.8917,35.0871,17
"52278",79292,"col","",14,45.73,"Dolenja Vas, Bed 28",NA,"",3,"Thanetian","",59.2,56,26585,"gp_mid",21.26,31.07,"307",57.6,"thanetian",12992,16.8917,35.0871,17
"52279",79293,"col","",13.9,45.72,"Sopada hill",NA,"",4,"Thanetian","",59.2,56,26586,"gp_mid",21.18,31.09,"307",57.6,"thanetian",12993,16.8917,35.0871,17
"52280",79294,"col","",14,45.73,"Dolenja Vas, Bed 29",NA,"Reef 3702",7,"Thanetian","",59.2,56,26585,"gp_mid",21.26,31.07,"307",57.6,"thanetian",12992,16.8917,35.0871,17
"52281",79295,"col","",14,45.73,"Dolenja Vas, Bed 30",NA,"",6,"Thanetian","",59.2,56,26585,"gp_mid",21.26,31.07,"307",57.6,"thanetian",12992,16.8917,35.0871,17
"52282",79296,"col","",14.25,45.58,"Breg",NA,"",3,"Thanetian","",59.2,56,26586,"gp_mid",21.34,30.85,"307",57.6,"thanetian",12994,16.8917,35.0871,17
"52283",79297,"col","",14,45.73,"Dolenja vas West, Bed 29",NA,"Dolenja vas, Bed 29",1,"Thanetian","",59.2,56,26586,"gp_mid",21.26,31.07,"307",57.6,"thanetian",12992,16.8917,35.0871,17
"52290",79304,"col","",0.9,42.17,"Claret 0",NA,"",3,"Thanetian","",59.2,56,26583,"gp_mid",8.77,31.89,"304",57.6,"thanetian",12996,-0.8103,36.8048,17
"52291",79305,"col","",0.9,42.17,"Claret 4",NA,"",8,"Thanetian","",59.2,56,26583,"gp_mid",8.77,31.89,"304",57.6,"thanetian",12996,-0.8103,36.8048,17
"52292",79306,"col","",0.9,42.17,"Tendruy",NA,"",4,"Thanetian","",59.2,56,26583,"gp_mid",8.77,31.89,"304",57.6,"thanetian",12996,-0.8103,36.8048,17
"52293",79307,"col","",0.9,42.17,"Palau",NA,"",3,"Thanetian","",59.2,56,26583,"gp_mid",8.77,31.89,"304",57.6,"thanetian",12996,-0.8103,36.8048,17
"52636",80170,"col","Soldado",-62.01,10.08,"Bed No. 2, Soldado Rock [Soldado Fm]",NA,"",42,"Thanetian","",59.2,56,26958,"gp_mid",-42.27,6.82,"201",57.6,"thanetian",13119,-49.5405,6.2005,17
"52794",80477,"col","Tuscahoma",-84.85,31.7,"AHe-4 Tuscahoma",NA,"",4,"Thanetian","",59.2,56,124,"gp_mid",-57.76,35.02,"109",57.6,"thanetian",13177,-67.8548,33.5914,17
"52810",80495,"col","Tuscahoma",-87.37,31.82,"AMo-1 Greggs Landing Marl",NA,"",63,"Thanetian","",59.2,56,124,"gp_mid",-60.22,35.79,"109",57.6,"thanetian",13183,-67.8548,33.5914,17
"52892",80621,"col","Tuscahoma",-87.53,31.83,"AWi-22 Tuscahoma",NA,"",21,"Thanetian","",59.2,56,124,"gp_mid",-60.38,35.85,"109",57.6,"thanetian",13211,-67.8548,33.5914,17
"52896",80670,"col","Tuscahoma",-88.22,32.08,"ACh-12 Tuscahoma",NA,"",7,"Thanetian","",59.2,56,124,"gp_mid",-60.96,36.27,"101",57.6,"thanetian",13212,-71.5947,34.1963,17
"52897",80671,"col","Tuscahoma",-88.22,32.08,"ACh-20 Tuscahoma",NA,"",8,"Thanetian","",59.2,56,124,"gp_mid",-60.96,36.27,"101",57.6,"thanetian",13212,-71.5947,34.1963,17
"52898",80672,"col","Tuscahoma",-85.58,31.33,"ADa-3 Tuschoma",NA,"",13,"Thanetian","",59.2,56,124,"gp_mid",-58.63,34.87,"109",57.6,"thanetian",13213,-67.8548,33.5914,17
"52899",80673,"col","Tuscahoma",-87.37,31.82,"AMo-1 Bells Landing Marl",NA,"",13,"Thanetian","",59.2,56,124,"gp_mid",-60.22,35.79,"109",57.6,"thanetian",13183,-67.8548,33.5914,17
"52915",80761,"col","Tuscahoma",-87.37,31.82,"AMo-2 Tuscahoma",NA,"",27,"Thanetian","",59.2,56,124,"gp_mid",-60.22,35.79,"109",57.6,"thanetian",13183,-67.8548,33.5914,17
"52916",80762,"col","Tuscahoma",-87.95,31.85,"AWi-19 Tuscahoma",NA,"",10,"Thanetian","",59.2,56,124,"gp_mid",-60.79,35.98,"109",57.6,"thanetian",13215,-67.8548,33.5914,17
"52917",80763,"col","Tuscahoma",-87.95,31.85,"AWi-23 Tuscahoma",NA,"",7,"Thanetian","",59.2,56,124,"gp_mid",-60.79,35.98,"109",57.6,"thanetian",13215,-67.8548,33.5914,17
"52939",80825,"col","Trstelj",13.97,45.68,"Divaca",NA,"",15,"Thanetian","",59.2,56,26603,"gp_mid",21.21,31.03,"307",57.6,"thanetian",13227,16.8917,35.0871,17
"52941",80827,"col","Trstelj",13.99,45.71,"Cebulovica",NA,"",11,"Thanetian","",59.2,56,26603,"gp_mid",21.23,31.05,"307",57.6,"thanetian",13229,16.8917,35.0871,17
"52942",80828,"col","Trstelj",14,45.57,"Kozina",NA,"",2,"Thanetian","",59.2,56,26603,"gp_mid",21.16,30.93,"307",57.6,"thanetian",13230,16.8917,35.0871,17
"52943",80830,"col","Trstelj",14,45.57,"Kozina",NA,"",3,"Thanetian","",59.2,56,26603,"gp_mid",21.16,30.93,"307",57.6,"thanetian",13230,16.8917,35.0871,17
"52944",80832,"col","Trstelj",14,45.57,"Kozina",NA,"",3,"Thanetian","",59.2,56,26603,"gp_mid",21.16,30.93,"307",57.6,"thanetian",13230,16.8917,35.0871,17
"53457",81775,"col","Vincentown",-74.75,39.93,"Vincentown (Bryan collection, Vincentown Fm)",NA,"",5,"Thanetian","",59.2,56,27587,"gp_mid",-44.59,40.11,"109",57.6,"thanetian",13430,-54.9529,39.1212,17
"53467",81801,"col","Vine Hill Sandstone",-122.25,38.06,"Tunnel near smelter at Selby Station",NA,"UCMP IP12165",1,"Thanetian","",59.2,56,27587,"gp_mid",-91.24,47.3,"130",57.6,"thanetian",13435,NA,NA,17
"53588",82042,"col","Cardabia",116.58,-26.73,"Scrubby Range",NA,"",1,"Thanetian","",59.2,56,18233,"gp_mid",117.51,-54.13,"801",57.6,"thanetian",13504,103.8972,-51.8188,17
"54564",83307,"col","Jibou",23.26,47.26,"Jibou B (JBB4)",NA,"JBB; Calcaires de Rona; Botanic Garden of Jibou",25,"Thanetian","",59.2,56,44195,"gp_mid",28.51,29.18,"308",57.6,"thanetian",13820,18.2702,40.6562,17
"55062",83985,"col","Kalambaina",5.65,14.83,"Tamaské, Tahoua",NA,"",11,"Thanetian","",59.2,56,72239,"gp_mid",7.4,1.9,"714",57.6,"thanetian",13975,3.2781,6.7655,17
"55107",84045,"col","Aquia",-77.26,38.42,"Clifton Beach",NA,"",10,"Thanetian","",59.2,56,41194,"gp_mid",-47.65,39.36,"109",57.6,"thanetian",13991,-59.2504,37.2781,17
"56039",85320,"col","Tuscahoma",-87.53,31.85,"AWi-23 Replicate 1",NA,"",17,"Thanetian","",59.2,56,28506,"gp_mid",-60.37,35.87,"109",57.6,"thanetian",14340,-67.8548,33.5914,17
"56041",85322,"col","Tuscahoma",-87.53,31.85,"AWi-23 Replicate 2",NA,"",23,"Thanetian","",59.2,56,28506,"gp_mid",-60.37,35.87,"109",57.6,"thanetian",14340,-67.8548,33.5914,17
"56562",86176,"col","Tuscahoma",-87.42,31.78,"AMo-2 Rep 1",NA,"",24,"Thanetian","",59.2,56,28506,"gp_mid",-60.28,35.78,"109",57.6,"thanetian",14546,-67.8548,33.5914,17
"56563",86177,"col","Tuscahoma",-87.42,31.78,"AMo-2 Rep 2",NA,"",27,"Thanetian","",59.2,56,28506,"gp_mid",-60.28,35.78,"109",57.6,"thanetian",14546,-67.8548,33.5914,17
"56565",86179,"col","Tuscahoma",-87.42,31.78,"AMo-2 Rep 3",NA,"",29,"Thanetian","",59.2,56,28506,"gp_mid",-60.28,35.78,"109",57.6,"thanetian",14546,-67.8548,33.5914,17
"56606",86295,"col","",-6.57,32.87,"Lithoptila type specimen",NA,"Grand Daoui; Oued Zem",5,"Thanetian","",59.2,56,29076,"gp_mid",0.63,22.03,"707",57.6,"thanetian",14559,-8.2122,26.0193,17
"56853",86611,"col","",44,-22.58,"Andranonkira Plateau",NA,"",1,"Thanetian","",59.2,56,29108,"gp_mid",41.81,-39.82,"702",57.6,"thanetian",14636,39.3648,-32.9924,17
"57766",87827,"col","",-87.47,31.8,"Greggs Landing, Greggs Landing Marl",NA,"",2,"Thanetian","",59.2,56,13490,"gp_mid",-60.32,35.81,"109",57.6,"thanetian",14958,-67.8548,33.5914,17
"57767",87828,"col","",-87.47,31.8,"Greggs Landing, Bells Landing Marl",NA,"",3,"Thanetian","",59.2,56,13490,"gp_mid",-60.32,35.81,"109",57.6,"thanetian",14958,-67.8548,33.5914,17
"57769",87829,"col","",-87.53,31.83,"Lower Peach Tree Landing, Greggs Landing Marl",NA,"",1,"Thanetian","",59.2,56,13490,"gp_mid",-60.38,35.85,"109",57.6,"thanetian",13211,-67.8548,33.5914,17
"57770",87831,"col","",-87.53,31.83,"Lower Peach Tree Landing, Bells Landing Marl",NA,"",1,"Thanetian","",59.2,56,13490,"gp_mid",-60.38,35.85,"109",57.6,"thanetian",13211,-67.8548,33.5914,17
"57844",87925,"col","Conglomérat de Cernay",4.1,49.27,"Cernay",NA,"Cernay-lès-Reims; carrières Lemoine; Lemoine Quarry",52,"Thanetian","",59.2,56,29562,"gp_mid",11.49,39.21,"315",57.6,"thanetian",14975,1.7834,44.5577,17
"57856",87943,"col","",4.15,49.27,"Lentille de Berru",NA,"Berru bed 4",15,"Thanetian","",59.2,56,1635,"gp_mid",11.53,39.21,"315",57.6,"thanetian",11109,1.7834,44.5577,17
"57867",87955,"col","",4.05,49.17,"Calcaire de Rilly near Reims",NA,"",3,"Thanetian","",59.2,56,1635,"gp_mid",11.44,39.11,"315",57.6,"thanetian",14984,1.7834,44.5577,17
"58031",88183,"col","",18.62,49.22,"Hricovske Podhradie, loc. 51",NA,"Reef 659",40,"Thanetian","",59.2,56,29614,"gp_mid",23.67,38.79,"305",57.6,"thanetian",15039,15.3511,45.1295,17
"58032",88184,"col","",18.68,49.23,"Hradisko, loc. 66",NA,"Reef 659",38,"Thanetian","",59.2,56,29614,"gp_mid",23.72,38.81,"305",57.6,"thanetian",15040,15.3511,45.1295,17
"58033",88185,"col","",18.45,49.12,"Povazska Bystrica, loc. 36",NA,"Reef 660",38,"Thanetian","",59.2,56,29614,"gp_mid",23.53,38.7,"305",57.6,"thanetian",15041,15.3511,45.1295,17
"58122",88272,"col","",18.4,49.1,"Makovec-Rybarikovo, loc. 33",NA,"Reef 660",45,"Thanetian","",59.2,56,29614,"gp_mid",23.48,38.68,"305",57.6,"thanetian",15081,15.3511,45.1295,17
"58123",88273,"col","",18.62,49.22,"Hricovske Podhradie, loc. 55",NA,"Reef 659",35,"Thanetian","",59.2,56,29614,"gp_mid",23.67,38.79,"305",57.6,"thanetian",15039,15.3511,45.1295,17
"58124",88274,"col","",18.62,49.22,"Vlcia Jama, loc. 58",NA,"Reef 659",36,"Thanetian","",59.2,56,29614,"gp_mid",23.67,38.79,"305",57.6,"thanetian",15039,15.3511,45.1295,17
"58125",88275,"col","",18.45,49.1,"Sväta Helena, loc. 37",NA,"Reef 660",23,"Thanetian","",59.2,56,29614,"gp_mid",23.53,38.68,"305",57.6,"thanetian",15082,15.3511,45.1295,17
"58153",88301,"col","Jbel Guersif",-5.66,31.61,"Adrar Mgorn 1",NA,"",49,"Thanetian","",59.2,56,29646,"gp_mid",1.06,20.61,"714",57.6,"thanetian",15089,-8.2122,26.0193,17
"59267",90072,"col","Coal Canyon",-118.57,34.11,"CSUN 354, Garapito Creek",NA,"Garapito Creek; Sylvia Park",10,"Thanetian","",59.2,56,30195,"gp_mid",-89.58,41.78,"105",57.6,"thanetian",15457,-99.2121,36.6971,17
"59268",90073,"col","Coal Canyon",-118.57,34.11,"CSUN 355, Garapito Creek",NA,"Garapito Creek; Sylvia Park",6,"Thanetian","",59.2,56,30195,"gp_mid",-89.58,41.78,"105",57.6,"thanetian",15457,-99.2121,36.6971,17
"59286",90141,"col","Tuscahoma",-87.42,31.78,"Bells Rep 1",NA,"AMo-2 of Toulmin",21,"Thanetian","",59.2,56,29915,"gp_mid",-60.28,35.78,"109",57.6,"thanetian",14546,-67.8548,33.5914,17
"59287",90142,"col","Tuscahoma",-87.42,31.78,"Bells Rep 2",NA,"AMo-2 of Toulmin",19,"Thanetian","",59.2,56,29915,"gp_mid",-60.28,35.78,"109",57.6,"thanetian",14546,-67.8548,33.5914,17
"59474",90439,"col","Tuscahoma",-87.37,31.82,"AMo-1 Bells Landing",NA,"AMo-1 of Toulmin, 1977",35,"Thanetian","",59.2,56,28119,"gp_mid",-60.22,35.79,"109",57.6,"thanetian",13183,-67.8548,33.5914,17
"59735",90818,"col","Tuscahoma",-87.37,31.82,"PRI 751",NA,"",84,"Thanetian","",59.2,56,11845,"gp_mid",-60.22,35.79,"109",57.6,"thanetian",13183,-67.8548,33.5914,17
"59737",90895,"col","Lefkara",33.67,35.08,"Yigitler section, sample YK-54 [Lefkara Fm]",NA,"",25,"Thanetian","",59.2,56,19792,"gp_mid",NA,NA,"coordinates not computable using this model",57.6,"thanetian",15660,30.0629,27.3375,17
"59877",91755,"col","Vincentown",-74.56,40.05,"M 155",NA,"",1,"Thanetian","",59.2,56,11845,"gp_mid",-44.37,40.17,"109",57.6,"thanetian",15719,-54.9529,39.1212,17
"59888",91120,"col","Pendleton Ferry",-93.7,31.4,"PRI 2277",NA,"",5,"Thanetian","",59.2,56,11845,"gp_mid",-66.76,37.04,"101",57.6,"thanetian",15726,-75.3626,34.7961,17
"59894",91126,"col","Aquia",-77.38,38.43,"PRI 3144",NA,"",31,"Thanetian","",59.2,56,11845,"gp_mid",-47.75,39.4,"109",57.6,"thanetian",15731,-59.2504,37.2781,17
"59895",91127,"col","Aquia",-77.38,38.43,"PRI 3147",NA,"",13,"Thanetian","",59.2,56,11845,"gp_mid",-47.75,39.4,"109",57.6,"thanetian",15731,-59.2504,37.2781,17
"60420",91756,"col","Vincentown",-75.07,39.85,"M 157",NA,"",9,"Thanetian","",59.2,56,11845,"gp_mid",-44.93,40.12,"109",57.6,"thanetian",15885,-54.9529,39.1212,17
"60421",91757,"col","Vincentown",-75.11,39.76,"M 158",NA,"",2,"Thanetian","",59.2,56,11845,"gp_mid",-45.01,40.05,"109",57.6,"thanetian",15886,-54.9529,39.1212,17
"60425",91761,"col","Vincentown",-74.53,40.07,"M 164",NA,"",14,"Thanetian","",59.2,56,11845,"gp_mid",-44.33,40.18,"109",57.6,"thanetian",15888,-54.9529,39.1212,17
"60510",91846,"col","Pendleton Ferry",-93.75,31.47,"Sabine River upstream from highway 6 bridge",NA,"M 261",15,"Thanetian","",59.2,56,11845,"gp_mid",-66.78,37.12,"101",57.6,"thanetian",15924,-75.3626,34.7961,17
"60523",91859,"col","Aquia",-77.18,38.27,"M 281",NA,"",35,"Thanetian","",59.2,56,11845,"gp_mid",-47.64,39.19,"109",57.6,"thanetian",15931,-59.2504,37.2781,17
"60524",91860,"col","Aquia",-77.18,38.27,"M 282",NA,"",3,"Thanetian","",59.2,56,11845,"gp_mid",-47.64,39.19,"109",57.6,"thanetian",15931,-59.2504,37.2781,17
"60528",91864,"col","Aquia",-77.46,38.3,"M 288",NA,"",1,"Thanetian","",59.2,56,11845,"gp_mid",-47.89,39.3,"109",57.6,"thanetian",15934,-59.2504,37.2781,17
"60529",91865,"col","Aquia",-77.46,38.3,"M 289",NA,"",2,"Thanetian","",59.2,56,11845,"gp_mid",-47.89,39.3,"109",57.6,"thanetian",15934,-59.2504,37.2781,17
"60530",91866,"col","Aquia",-77.46,38.3,"M 290",NA,"",2,"Thanetian","",59.2,56,11845,"gp_mid",-47.89,39.3,"109",57.6,"thanetian",15934,-59.2504,37.2781,17
"60695",92031,"col","Tuscahoma",-87.4,31.81,"M 301",NA,"",2,"Thanetian","",59.2,56,11845,"gp_mid",-60.25,35.8,"109",57.6,"thanetian",15964,-67.8548,33.5914,17
"60696",92032,"col","Tuscahoma",-87.52,31.54,"M 302",NA,"",3,"Thanetian","",59.2,56,11845,"gp_mid",-60.47,35.57,"109",57.6,"thanetian",15965,-67.8548,33.5914,17
"60698",92034,"col","Tuscahoma",-87.52,31.54,"M 304",NA,"",39,"Thanetian","",59.2,56,11845,"gp_mid",-60.47,35.57,"109",57.6,"thanetian",15965,-67.8548,33.5914,17
"60897",92239,"col","Tuscahoma",-93.71,31.4,"M 407",NA,"",5,"Thanetian","",59.2,56,11845,"gp_mid",-66.77,37.05,"101",57.6,"thanetian",16045,-75.3626,34.7961,17
"60900",92242,"col","Pendleton Ferry",-93.71,31.4,"M 409",NA,"",3,"Thanetian","",59.2,56,11845,"gp_mid",-66.77,37.05,"101",57.6,"thanetian",16045,-75.3626,34.7961,17
"60935",92279,"col","Tuscahoma",-93.4,31.74,"M 80",NA,"",1,"Thanetian","",59.2,56,11845,"gp_mid",-66.32,37.29,"101",57.6,"thanetian",16065,-75.3626,34.7961,17
"60938",92281,"col","Marthaville",-93.57,31.47,"M 85",NA,"LGS 38",3,"Thanetian","",59.2,56,11845,"gp_mid",-66.61,37.08,"101",57.6,"thanetian",16066,-75.3626,34.7961,17
"60955",92302,"col","Marthaville",-93.4,31.74,"PRI 52",NA,"",5,"Thanetian","",59.2,56,11845,"gp_mid",-66.32,37.29,"101",57.6,"thanetian",16065,-75.3626,34.7961,17
"60958",92305,"col","Marthaville",-93.57,31.47,"PRI 55",NA,"",5,"Thanetian","",59.2,56,11845,"gp_mid",-66.61,37.08,"101",57.6,"thanetian",16066,-75.3626,34.7961,17
"60960",92307,"col","Pendleton Ferry",-93.82,31.26,"PRI 74",NA,"",7,"Thanetian","",59.2,56,11845,"gp_mid",-66.94,36.94,"101",57.6,"thanetian",16076,-75.3626,34.7961,17
"60990",92352,"col","Tuscahoma",-87.52,31.54,"PRI 790",NA,"",68,"Thanetian","",59.2,56,11845,"gp_mid",-60.47,35.57,"109",57.6,"thanetian",15965,-67.8548,33.5914,17
"65513",98257,"col","Tuscahoma",-88.11,32.06,"M 298",NA,"",11,"Thanetian","",59.2,56,11845,"gp_mid",-60.87,36.22,"101",57.6,"thanetian",17439,-67.8548,33.5914,17
"65560",98304,"col","Tuscahoma",-88.06,31.94,"M 653",NA,"",2,"Thanetian","",59.2,56,11845,"gp_mid",-60.86,36.09,"101",57.6,"thanetian",17465,-67.8548,33.5914,17
"65587",98331,"col","Tuscahoma",-88.02,32.15,"M 656",NA,"",2,"Thanetian","",59.2,56,11845,"gp_mid",-60.74,36.28,"101",57.6,"thanetian",17477,-67.8548,33.5914,17
"65609",98365,"col","Tuscahoma",-87.4,31.81,"M 661",NA,"",28,"Thanetian","",59.2,56,11845,"gp_mid",-60.25,35.8,"109",57.6,"thanetian",15964,-67.8548,33.5914,17
"65615",98371,"col","Tuscahoma",-87.55,31.84,"M 667",NA,"",3,"Thanetian","",59.2,56,11845,"gp_mid",-60.39,35.86,"109",57.6,"thanetian",17486,-67.8548,33.5914,17
"65621",98377,"col","Tuscahoma",-87.52,31.92,"M 668",NA,"",3,"Thanetian","",59.2,56,11845,"gp_mid",-60.33,35.93,"109",57.6,"thanetian",17489,-67.8548,33.5914,17
"65622",98378,"col","Tuscahoma",-87.52,31.92,"M 669",NA,"",5,"Thanetian","",59.2,56,11845,"gp_mid",-60.33,35.93,"109",57.6,"thanetian",17489,-67.8548,33.5914,17
"65623",98379,"col","Tuscahoma",-87.52,31.92,"M 670",NA,"",2,"Thanetian","",59.2,56,11845,"gp_mid",-60.33,35.93,"109",57.6,"thanetian",17489,-67.8548,33.5914,17
"65652",98409,"col","Tuscahoma",-87.53,31.84,"M 22",NA,"",8,"Thanetian","",59.2,56,11845,"gp_mid",-60.37,35.86,"109",57.6,"thanetian",17495,-67.8548,33.5914,17
"65861",98634,"col","Tuscahoma",-85.05,31.61,"M 699",NA,"",1,"Thanetian","",59.2,56,11845,"gp_mid",-57.99,34.99,"109",57.6,"thanetian",17579,-67.8548,33.5914,17
"65862",98635,"col","Tuscahoma",-85.05,31.61,"M 700",NA,"",2,"Thanetian","",59.2,56,11845,"gp_mid",-57.99,34.99,"109",57.6,"thanetian",17579,-67.8548,33.5914,17
"65919",98692,"col","Pendleton Ferry",-93.48,31.57,"LGS 52",NA,"",5,"Thanetian","",59.2,56,35012,"gp_mid",-66.48,37.15,"101",57.6,"thanetian",17606,-75.3626,34.7961,17
"65929",98702,"col","Aquia",-76.49,39.01,"M 479",NA,"",1,"Thanetian","",59.2,56,11845,"gp_mid",-46.65,39.71,"109",57.6,"thanetian",17609,-54.9529,39.1212,17
"66003",98774,"col","Marthaville",-93.4,31.74,"M 335",NA,"LGS 26",9,"Thanetian","",59.2,56,11845,"gp_mid",-66.32,37.29,"101",57.6,"thanetian",16065,-75.3626,34.7961,17
"66006",98777,"col","Pendleton Ferry",-93.4,31.74,"M 473",NA,"LGS 58",9,"Thanetian","",59.2,56,11845,"gp_mid",-66.32,37.29,"101",57.6,"thanetian",16065,-75.3626,34.7961,17
"66013",98784,"col","Marthaville",-93.4,31.74,"M 79",NA,"",1,"Thanetian","",59.2,56,11845,"gp_mid",-66.32,37.29,"101",57.6,"thanetian",16065,-75.3626,34.7961,17
"66045",98816,"col","Marthaville",-99.81,28.41,"M 550",NA,"",1,"Thanetian","",59.2,56,11845,"gp_mid",-74.13,35.71,"101",57.6,"thanetian",17666,-84.0474,31.0483,17
"66138",98910,"col","Pendleton Ferry",-93.4,31.61,"M 474",NA,"LGS 48",5,"Thanetian","",59.2,56,11845,"gp_mid",-66.38,37.17,"101",57.6,"thanetian",17704,-75.3626,34.7961,17
"66141",98913,"col","Marthaville",-93.51,31.72,"M 477",NA,"LGS 35",4,"Thanetian","",59.2,56,11845,"gp_mid",-66.44,37.29,"101",57.6,"thanetian",17707,-75.3626,34.7961,17
"66143",98915,"col","Pendleton Ferry",-93.57,31.35,"M 715",NA,"LGS 43",6,"Thanetian","",59.2,56,11845,"gp_mid",-66.65,36.96,"101",57.6,"thanetian",17708,-75.3626,34.7961,17
"66144",98916,"col","Marthaville",-93.57,31.35,"M 716",NA,"",1,"Thanetian","",59.2,56,11845,"gp_mid",-66.65,36.96,"101",57.6,"thanetian",17708,-75.3626,34.7961,17
"66145",98918,"col","Marthaville",-93.48,31.57,"M 718",NA,"",1,"Thanetian","",59.2,56,11845,"gp_mid",-66.48,37.15,"101",57.6,"thanetian",17606,-75.3626,34.7961,17
"66147",98920,"col","Marthaville",-93.48,31.57,"M 720",NA,"LGS 30",5,"Thanetian","",59.2,56,11845,"gp_mid",-66.48,37.15,"101",57.6,"thanetian",17606,-75.3626,34.7961,17
"66149",98922,"col","Pendleton Ferry",-93.57,31.35,"LGS 42",NA,"",10,"Thanetian","",59.2,56,35012,"gp_mid",-66.65,36.96,"101",57.6,"thanetian",17708,-75.3626,34.7961,17
"66150",98923,"col","Marthaville",-93.64,31.63,"M 84",NA,"LGS 32",6,"Thanetian","",59.2,56,11845,"gp_mid",-66.61,37.25,"101",57.6,"thanetian",17710,-75.3626,34.7961,17
"66153",98927,"col","Marthaville",-93.64,31.63,"LGS 36",NA,"",2,"Thanetian","",59.2,56,35012,"gp_mid",-66.61,37.25,"101",57.6,"thanetian",17710,-75.3626,34.7961,17
"66155",98929,"col","Pendleton Ferry",-93.57,31.35,"M 894",NA,"LGS 49",10,"Thanetian","",59.2,56,11845,"gp_mid",-66.65,36.96,"101",57.6,"thanetian",17708,-75.3626,34.7961,17
"66269",99045,"col","Pendleton Ferry",-93.71,31.4,"M 837",NA,"",1,"Thanetian","",59.2,56,11845,"gp_mid",-66.77,37.05,"101",57.6,"thanetian",16045,-75.3626,34.7961,17
"66441",99260,"col","Tuscahoma",-76.55,38.95,"M 728",NA,"",1,"Thanetian","",59.2,56,11845,"gp_mid",-46.73,39.67,"109",57.6,"thanetian",17807,-54.9529,39.1212,17
"66447",99266,"col","Aquia",-77.1,38.52,"M 484",NA,"",1,"Thanetian","",59.2,56,11845,"gp_mid",-47.45,39.41,"109",57.6,"thanetian",17811,-59.2504,37.2781,17
"66455",99273,"col","Aquia",-76.99,38.4,"M 731",NA,"",1,"Thanetian","",59.2,56,11845,"gp_mid",-47.4,39.26,"109",57.6,"thanetian",17812,-59.2504,37.2781,17
"66456",99274,"col","Aquia",-76.99,38.4,"M 732",NA,"",2,"Thanetian","",59.2,56,11845,"gp_mid",-47.4,39.26,"109",57.6,"thanetian",17812,-59.2504,37.2781,17
"66458",99276,"col","Aquia",-77.13,38.55,"M 734",NA,"",1,"Thanetian","",59.2,56,11845,"gp_mid",-47.47,39.44,"109",57.6,"thanetian",17813,-59.2504,37.2781,17
"66460",99278,"col","Aquia",-77.1,38.52,"M 865",NA,"",1,"Thanetian","",59.2,56,11845,"gp_mid",-47.45,39.41,"109",57.6,"thanetian",17811,-59.2504,37.2781,17
"66462",99280,"col","Aquia",-76.13,39.27,"M 342",NA,"",1,"Thanetian","",59.2,56,11845,"gp_mid",-46.2,39.86,"109",57.6,"thanetian",17815,-54.9529,39.1212,17
"66464",99282,"col","Aquia",-76.97,38.7,"M 121",NA,"",8,"Thanetian","",59.2,56,11845,"gp_mid",-47.25,39.54,"109",57.6,"thanetian",17817,-59.2504,37.2781,17
"66465",99283,"col","Aquia",-76.76,38.97,"M 489",NA,"",1,"Thanetian","",59.2,56,11845,"gp_mid",-46.93,39.74,"109",57.6,"thanetian",17818,-54.9529,39.1212,17
"66466",99284,"col","",-76.75,38.87,"M 490",NA,"",1,"Thanetian","",59.2,56,11845,"gp_mid",-46.96,39.65,"109",57.6,"thanetian",17819,-54.9529,39.1212,17
"66467",99285,"col","Aquia",-76.91,38.9,"M 491",NA,"",1,"Thanetian","",59.2,56,11845,"gp_mid",-47.1,39.71,"109",57.6,"thanetian",17820,-58.5889,39.7239,17
"66470",99288,"col","Aquia",-77.07,38.61,"M 739",NA,"",3,"Thanetian","",59.2,56,11845,"gp_mid",-47.38,39.48,"109",57.6,"thanetian",17821,-59.2504,37.2781,17
"66712",99717,"col","Marthaville",-93.22,31.72,"LGS 13",NA,"",4,"Thanetian","",59.2,56,35012,"gp_mid",-66.15,37.22,"101",57.6,"thanetian",17883,-75.3626,34.7961,17
"66714",99718,"col","Marthaville",-93.22,31.72,"LGS 14",NA,"",3,"Thanetian","",59.2,56,35012,"gp_mid",-66.15,37.22,"101",57.6,"thanetian",17883,-75.3626,34.7961,17
"66715",99719,"col","Marthaville",-93.4,31.74,"LGS 15",NA,"",2,"Thanetian","",59.2,56,35012,"gp_mid",-66.32,37.29,"101",57.6,"thanetian",16065,-75.3626,34.7961,17
"66716",99720,"col","Marthaville",-93.4,31.74,"LGS 16",NA,"",4,"Thanetian","",59.2,56,35012,"gp_mid",-66.32,37.29,"101",57.6,"thanetian",16065,-75.3626,34.7961,17
"66717",99721,"col","Marthaville",-93.4,31.74,"LGS 17",NA,"",6,"Thanetian","",59.2,56,35012,"gp_mid",-66.32,37.29,"101",57.6,"thanetian",16065,-75.3626,34.7961,17
"66719",99723,"col","Pendleton Ferry",-93.3,31.69,"LGS 55",NA,"",8,"Thanetian","",59.2,56,35012,"gp_mid",-66.25,37.22,"101",57.6,"thanetian",17884,-75.3626,34.7961,17
"66720",99724,"col","Marthaville",-93.4,31.74,"LGS 19",NA,"",6,"Thanetian","",59.2,56,35012,"gp_mid",-66.32,37.29,"101",57.6,"thanetian",16065,-75.3626,34.7961,17
"66721",99725,"col","Marthaville",-93.4,31.74,"LGS 21",NA,"",8,"Thanetian","",59.2,56,35012,"gp_mid",-66.32,37.29,"101",57.6,"thanetian",16065,-75.3626,34.7961,17
"66722",99726,"col","Marthaville",-93.4,31.74,"LGS 22",NA,"",2,"Thanetian","",59.2,56,35012,"gp_mid",-66.32,37.29,"101",57.6,"thanetian",16065,-75.3626,34.7961,17
"66723",99727,"col","Marthaville",-93.4,31.74,"LGS 23",NA,"",2,"Thanetian","",59.2,56,35012,"gp_mid",-66.32,37.29,"101",57.6,"thanetian",16065,-75.3626,34.7961,17
"66724",99728,"col","Marthaville",-93.4,31.74,"LGS 24",NA,"",1,"Thanetian","",59.2,56,35012,"gp_mid",-66.32,37.29,"101",57.6,"thanetian",16065,-75.3626,34.7961,17
"66725",99729,"col","Marthaville",-93.4,31.74,"LGS 25",NA,"",4,"Thanetian","",59.2,56,35012,"gp_mid",-66.32,37.29,"101",57.6,"thanetian",16065,-75.3626,34.7961,17
"66727",99731,"col","Marthaville",-93.4,31.74,"LGS 28",NA,"",1,"Thanetian","",59.2,56,35012,"gp_mid",-66.32,37.29,"101",57.6,"thanetian",16065,-75.3626,34.7961,17
"66728",99732,"col","Marthaville",-93.4,31.74,"LGS 29",NA,"",1,"Thanetian","",59.2,56,35012,"gp_mid",-66.32,37.29,"101",57.6,"thanetian",16065,-75.3626,34.7961,17
"66729",99733,"col","Marthaville",-93.85,31.43,"LGS 39",NA,"",3,"Thanetian","",59.2,56,35012,"gp_mid",-66.9,37.11,"101",57.6,"thanetian",17885,-75.3626,34.7961,17
"66750",99758,"col","Marthaville",-93.4,31.74,"LGS 31",NA,"",1,"Thanetian","",59.2,56,35012,"gp_mid",-66.32,37.29,"101",57.6,"thanetian",16065,-75.3626,34.7961,17
"66751",99759,"col","Marthaville",-93.4,31.74,"LGS 33",NA,"",3,"Thanetian","",59.2,56,35012,"gp_mid",-66.32,37.29,"101",57.6,"thanetian",16065,-75.3626,34.7961,17
"66755",99763,"col","Marthaville",-93.64,31.63,"LGS 34",NA,"",4,"Thanetian","",59.2,56,35012,"gp_mid",-66.61,37.25,"101",57.6,"thanetian",17710,-75.3626,34.7961,17
"67705",101117,"col","Tuscahoma",-87.37,31.82,"MGS 83",NA,"",1,"Thanetian","",59.2,56,11842,"gp_mid",-60.22,35.79,"109",57.6,"thanetian",13183,-67.8548,33.5914,17
"67706",101118,"col","Tuscahoma",-87.5,31.53,"MGS 84",NA,"",1,"Thanetian","",59.2,56,11842,"gp_mid",-60.46,35.56,"109",57.6,"thanetian",18242,-67.8548,33.5914,17
"67711",101123,"col","Marthaville",-93.09,31.76,"MGS 95",NA,"LGS 20",9,"Thanetian","",59.2,56,11842,"gp_mid",-66,37.23,"101",57.6,"thanetian",18245,-75.3626,34.7961,17
"67712",101124,"col","Marthaville",-93.09,31.76,"MGS 96",NA,"LGS 27",3,"Thanetian","",59.2,56,11842,"gp_mid",-66,37.23,"101",57.6,"thanetian",18245,-75.3626,34.7961,17
"67714",101126,"col","Pendleton Ferry",-93.57,31.47,"M 713",NA,"LGS 40",47,"Thanetian","",59.2,56,11842,"gp_mid",-66.61,37.08,"101",57.6,"thanetian",16066,-75.3626,34.7961,17
"67717",101129,"col","Pendleton Ferry",-93.57,31.47,"MGS 103",NA,"LGS 51",12,"Thanetian","",59.2,56,11842,"gp_mid",-66.61,37.08,"101",57.6,"thanetian",16066,-75.3626,34.7961,17
"67883",101302,"col","Aquia",-77.18,38.27,"M 283",NA,"",7,"Thanetian","",59.2,56,11845,"gp_mid",-47.64,39.19,"109",57.6,"thanetian",15931,-59.2504,37.2781,17
"67887",101306,"col","Aquia",-77.3,38.35,"M 630",NA,"",17,"Thanetian","",59.2,56,11845,"gp_mid",-47.72,39.3,"109",57.6,"thanetian",18305,-59.2504,37.2781,17
"67897",101316,"col","Aquia",-77.41,38.42,"PRI 1270",NA,"",2,"Thanetian","",59.2,56,11845,"gp_mid",-47.79,39.4,"109",57.6,"thanetian",18308,-59.2504,37.2781,17
"67899",101318,"col","Aquia",-77.41,38.42,"M 634",NA,"",1,"Thanetian","",59.2,56,11845,"gp_mid",-47.79,39.4,"109",57.6,"thanetian",18308,-59.2504,37.2781,17
"67900",101319,"col","Aquia",-77.41,38.42,"M 920",NA,"",2,"Thanetian","",59.2,56,11845,"gp_mid",-47.79,39.4,"109",57.6,"thanetian",18308,-59.2504,37.2781,17
"67902",101321,"col","Aquia",-77.37,37.77,"M 636",NA,"",2,"Thanetian","",59.2,56,11845,"gp_mid",-48.04,38.77,"109",57.6,"thanetian",18310,-59.2504,37.2781,17
"67903",101322,"col","Aquia",-77.37,37.77,"M 854",NA,"",1,"Thanetian","",59.2,56,11845,"gp_mid",-48.04,38.77,"109",57.6,"thanetian",18310,-59.2504,37.2781,17
"67909",101328,"col","Vincentown",-74.66,39.84,"PRI 2009",NA,"",4,"Thanetian","",59.2,56,11845,"gp_mid",-44.55,40,"109",57.6,"thanetian",18315,-54.9529,39.1212,17
"67921",101340,"col","",-74.53,40.07,"M 519",NA,"",1,"Thanetian","",59.2,56,11845,"gp_mid",-44.33,40.18,"109",57.6,"thanetian",15888,-54.9529,39.1212,17
"67931",101350,"col","Vincentown",-74,40.24,"M 162",NA,"",4,"Thanetian","",59.2,56,11845,"gp_mid",-43.75,40.2,"109",57.6,"thanetian",18326,-54.9529,39.1212,17
"67942",101361,"col","Aquia",-77.28,37.32,"M 852",NA,"",1,"Thanetian","",59.2,56,11845,"gp_mid",-48.14,38.32,"109",57.6,"thanetian",18331,-59.2504,37.2781,17
"68715",102400,"col","",27.6,43.15,"Trustikovo",NA,"",21,"Thanetian","",59.2,56,34737,"gp_mid",29.44,24.12,"308",57.6,"thanetian",18726,23.0507,38.0605,17
"68716",102401,"col","",27.65,43.22,"Povelyanovo",NA,"",4,"Thanetian","",59.2,56,34737,"gp_mid",29.5,24.16,"308",57.6,"thanetian",18727,23.0507,38.0605,17
"68717",102402,"col","",27.63,43.17,"Razdelna",NA,"",1,"Thanetian","",59.2,56,34737,"gp_mid",29.47,24.12,"308",57.6,"thanetian",18728,23.0507,38.0605,17
"68718",102403,"col","",24.77,43.68,"Somovit",NA,"",5,"Thanetian","",59.2,56,34737,"gp_mid",27.67,25.52,"308",57.6,"thanetian",18729,23.0507,38.0605,17
"69672",103766,"col","",24.53,43.35,"Kurtozhabene",NA,"",2,"Thanetian","",59.2,56,34737,"gp_mid",27.34,25.3,"308",57.6,"thanetian",19152,23.0507,38.0605,17
"69777",103935,"col","",27.28,43.02,"Komunari",NA,"",1,"Thanetian","",59.2,56,34737,"gp_mid",29.14,24.1,"308",57.6,"thanetian",19214,23.0507,38.0605,17
"70297",105201,"col","Marthaville",-93.4,31.74,"LGS 18",NA,"",5,"Thanetian","",59.2,56,35012,"gp_mid",-66.32,37.29,"101",57.6,"thanetian",16065,-75.3626,34.7961,17
"70301",105209,"col","Pendleton Ferry",-93.22,31.72,"LGS 60",NA,"",2,"Thanetian","",59.2,56,35012,"gp_mid",-66.15,37.22,"101",57.6,"thanetian",17883,-75.3626,34.7961,17
"70581",105503,"col","Pendleton Ferry",-93.57,31.35,"LGS 44",NA,"",6,"Thanetian","",59.2,56,35012,"gp_mid",-66.65,36.96,"101",57.6,"thanetian",17708,-75.3626,34.7961,17
"70583",105505,"col","Pendleton Ferry",-93.57,31.35,"LGS 46",NA,"",5,"Thanetian","",59.2,56,35012,"gp_mid",-66.65,36.96,"101",57.6,"thanetian",17708,-75.3626,34.7961,17
"76046",112144,"col","",-81.27,-4.7,"South of Negritos",NA,"",11,"Thanetian","",59.2,56,36607,"gp_mid",-63.34,-5.18,"201",57.6,"thanetian",21287,NA,NA,17
"77024",113321,"col","",-6.12,32.12,"Sidi Chennane",NA,"Arambourgisuchus khouribgaensis type locality",1,"Thanetian","",59.2,56,36774,"gp_mid",0.81,21.2,"707",57.6,"thanetian",21589,-8.2122,26.0193,17
"77286",113632,"col","interbasaltic plant-beds",-6.23,56.34,"Ardtun Head, Isle of Mull",NA,"",12,"Thanetian","",59.2,56,36962,"gp_mid",3.9,46.83,"303",57.6,"thanetian",21685,-8.5281,51.847,17
"77421",113770,"col","Hannut",4.1,50.3,"Jeumont",NA,"Eosuchus lerichei type locality",1,"Thanetian","",59.2,56,29875,"gp_mid",11.58,40.24,"315",57.6,"thanetian",21735,1.7834,44.5577,17
"77726",114106,"col","Lakhra",67.88,26.17,"Yale-GSP locality W1",NA,"",14,"Thanetian","",59.2,56,37015,"gp_mid",66.29,-6.99,"501",57.6,"thanetian",21842,61.0409,3.1418,17
"80925",118314,"col","",-42.88,-22.84,"São José de Itaborai",NA,"Companhia Nacional de Cimento Portland quarry",68,"Itaboraian","",59,57,42973,"gp_mid",-27.2,-28.16,"201",58,"thanetian",22640,-26.703,-26.2301,17
"83679",121516,"col","Cerrejón",-72.58,11.13,"FH0705-FH0712 (Cerrejón Formation)",NA,"",1,"Thanetian","",59.2,56,38750,"gp_mid",-52.52,9.28,"203",57.6,"thanetian",23375,-58.2237,5.426,17
"83680",121517,"col","Bogota",-73.96,5.08,"FH0903 (Bogota Formation)",NA,"",1,"Thanetian","",59.2,56,38750,"gp_mid",-54.72,3.47,"203",57.6,"thanetian",23376,-61.8953,1.1648,17
"83681",121518,"col","Bogota",-73.86,5.14,"FH0801 (Bogota Formation)",NA,"",1,"Thanetian","",59.2,56,38750,"gp_mid",-54.62,3.52,"203",57.6,"thanetian",23377,-61.8953,1.1648,17
"83682",121519,"col","Bogota",-73.86,5.14,"FH0806 (Bogota Formation)",NA,"",1,"Thanetian","",59.2,56,38750,"gp_mid",-54.62,3.52,"203",57.6,"thanetian",23377,-61.8953,1.1648,17
"84560",122852,"col","Aquia",-77.27,38.34,"Belvedere Beach",NA,"Belvidere Beach",2,"Thanetian","",59.2,56,39155,"gp_mid",-47.7,39.28,"109",57.6,"thanetian",23626,-59.2504,37.2781,17
"85100",123511,"col","Vincentown",-74.6,39.26,"Ocean City (NJSM)",NA,"",1,"Thanetian","",59.2,56,34880,"gp_mid",-44.76,39.44,"109",57.6,"thanetian",23827,-54.9529,39.1212,17
"85101",123512,"col","Vincentown",-74.75,39.93,"Vincentown",NA,"Crocodilus clavirostris type",2,"Thanetian","",59.2,56,34880,"gp_mid",-44.59,40.11,"109",57.6,"thanetian",13430,-54.9529,39.1212,17
"85103",123514,"col","Aquia",-76.99,38.7,"USNM Eosuchus minor specimens",NA,"",1,"Thanetian","",59.2,56,34880,"gp_mid",-47.26,39.55,"109",57.6,"thanetian",23829,-59.2504,37.2781,17
"85104",123515,"col","Aquia",-77.3,38.4,"USNM Eosuchus minor specimens",NA,"",1,"Thanetian","",59.2,56,34880,"gp_mid",-47.69,39.35,"109",57.6,"thanetian",23830,-59.2504,37.2781,17
"85424",123874,"col","Lower Aquia",-76.85,38.91,"Landover Mall",NA,"",1,"Thanetian","",59.2,56,39866,"gp_mid",-47.04,39.71,"109",57.6,"thanetian",23964,-54.9529,39.1212,17
"85655",124191,"col","Aquia",-77.27,38.46,"Liverpool Point",NA,"",9,"Thanetian","",59.2,56,39882,"gp_mid",-47.64,39.4,"109",57.6,"thanetian",24007,-59.2504,37.2781,17
"85675",124225,"col","",-109.17,45.15,"Foster Gulch, Eagle coal mine, Bear Creek",NA,"",1,"Thanetian","",59.2,56,5055,"gp_mid",-76.95,53.91,"101",57.6,"thanetian",24014,-87.4595,49.3639,17
"86273",124965,"col","Vincentown",-74.75,39.94,"Rancocas Creek, south branch",NA,"Vincentown",19,"Thanetian","",59.2,56,40566,"gp_mid",-44.59,40.12,"109",57.6,"thanetian",24197,-54.9529,39.1212,17
"86274",124966,"col","Vincentown",-74.78,39.93,"Medford Farms",NA,"",22,"Thanetian","",59.2,56,39861,"gp_mid",-44.63,40.11,"109",57.6,"thanetian",24198,-54.9529,39.1212,17
"86373",125070,"col","Sentinel Butte",-103.79,47.63,"Sheep Butte",NA,"",2,"Thanetian","",59.2,56,40538,"gp_mid",-69.48,54.91,"101",57.6,"thanetian",24227,-82.6408,51.2353,17
"86449",177668,"col","Santa Susana",-118.73,34.28,"UCMP 7015. Santa Susana",NA,"UCLA 7015",2,"Thanetian","",59.2,56,58779,"gp_mid",-89.71,41.97,"105",57.6,"thanetian",24261,-99.2121,36.6971,17
"87879",127180,"col","Aquia",-77.17,38.58,"Mattawoman Creek",NA,"",1,"Thanetian","",59.2,56,41357,"gp_mid",-47.49,39.48,"109",57.6,"thanetian",24547,-59.2504,37.2781,17
"88662",128411,"col","Taizicun",89.77,42.38,"Shanshan",NA,"Mongolemys turfanensis type specimen locality; IVPP loc. 66013",1,"Thanetian","",59.2,56,41938,"gp_mid",86.45,37.93,"407",57.6,"thanetian",24785,84.601,43.6202,17
"92187",133215,"col","Djbel",-5.61,31.51,"Talazit",NA,"",1,"Thanetian","",59.2,56,42870,"gp_mid",1.08,20.5,"714",57.6,"thanetian",8062,-4.7471,25.5058,17
"92212",133243,"col","Jbel Guersif",-5.66,31.61,"Ilimzi",NA,"",3,"Thanetian","",59.2,56,42890,"gp_mid",1.06,20.61,"714",57.6,"thanetian",15089,-8.2122,26.0193,17
"92213",133244,"col","",-5.66,31.61,"Timadriouine",NA,"",1,"Thanetian","",59.2,56,42890,"gp_mid",1.06,20.61,"714",57.6,"thanetian",15089,-8.2122,26.0193,17
"95204",137125,"col","",4.03,49.25,"Montchenot East",NA,"Les Monts-Martin; Mont-Chenot",24,"Thanetian","",59.2,56,43828,"gp_mid",11.43,39.2,"315",57.6,"thanetian",26590,1.7834,44.5577,17
"95205",137126,"col","",4.03,49.25,"Montchenot West",NA,"Les Monts-Martin; Mont-Chenot",9,"Thanetian","",59.2,56,43828,"gp_mid",11.43,39.2,"315",57.6,"thanetian",26590,1.7834,44.5577,17
"95211",137132,"col","Châlons-sur-Vesle",3.92,49.29,"Châlons-sur-Vesle",NA,"",2,"Thanetian","",59.2,56,43830,"gp_mid",11.34,39.24,"315",57.6,"thanetian",26591,1.7834,44.5577,17
"95273",137197,"col","Jbel Guersif",-5.66,31.61,"Adrar Mgorn 1bis",NA,"",6,"Thanetian","",59.2,56,43865,"gp_mid",1.06,20.61,"714",57.6,"thanetian",15089,-8.2122,26.0193,17
"95565",137533,"col","Ninniyur",79.2,11.29,"Mattur ",NA,"",2,"Thanetian","",59.2,56,43995,"gp_mid",71.74,-24.54,"501",57.6,"thanetian",26692,64.4291,-18.5828,17
"95566",137534,"col","Ninniyur",79.48,11.53,"Ninniyur village",NA,"",1,"Thanetian","",59.2,56,43995,"gp_mid",72.1,-24.39,"501",57.6,"thanetian",26693,64.4291,-18.5828,17
"95567",137535,"col","Ninniyur",79.28,11.42,"Sendurai ",NA,"",1,"Thanetian","",59.2,56,43995,"gp_mid",71.86,-24.45,"501",57.6,"thanetian",26694,64.4291,-18.5828,17
"95805",137805,"col","",2.9,46.1,"Menat (Dangeard Bakouline collection, Universite de Lyon 1)",NA,"",3,"Thanetian","",59.2,56,44067,"gp_mid",10.2,36.11,"305",57.6,"thanetian",26765,2.0571,39.5618,17
"96224",138239,"col","Jibou",23.26,47.26,"Jibou A (JBA)",NA,"Calcaires de Rona; Botanic Garden of Jibou",10,"Thanetian","",59.2,56,44195,"gp_mid",28.51,29.18,"308",57.6,"thanetian",13820,18.2702,40.6562,17
"96225",138240,"col","Jibou",23.3,47.28,"Rona 1 (RN1)",NA,"Calcaires de Rona; River Somes",12,"Thanetian","",59.2,56,44195,"gp_mid",28.55,29.18,"308",57.6,"thanetian",26913,18.2702,40.6562,17
"96226",138241,"col","Jibou",23.3,47.28,"Rona 2 (RN2)",NA,"Calcaires de Rona; River Somes",7,"Thanetian","",59.2,56,44195,"gp_mid",28.55,29.18,"308",57.6,"thanetian",26913,18.2702,40.6562,17
"96227",138242,"col","Jibou",23.26,47.26,"Jibou B (JBB1)",NA,"JBB; Calcaires de Rona; Botanic Garden of Jibou",1,"Thanetian","",59.2,56,44196,"gp_mid",28.51,29.18,"308",57.6,"thanetian",13820,18.2702,40.6562,17
"96228",138243,"col","Jibou",23.26,47.26,"Jibou B (JBB2)",NA,"JBB; Calcaires de Rona; Botanic Garden of Jibou",1,"Thanetian","",59.2,56,44196,"gp_mid",28.51,29.18,"308",57.6,"thanetian",13820,18.2702,40.6562,17
"96229",138244,"col","Jibou",23.26,47.26,"Jibou B (JBB3)",NA,"JBB; Calcaires de Rona; Botanic Garden of Jibou",1,"Thanetian","",59.2,56,44196,"gp_mid",28.51,29.18,"308",57.6,"thanetian",13820,18.2702,40.6562,17
"96230",138245,"col","Jibou",23.26,47.26,"Jibou B (JBB5)",NA,"JBB; Calcaires de Rona; Botanic Garden of Jibou",1,"Thanetian","",59.2,56,44196,"gp_mid",28.51,29.18,"308",57.6,"thanetian",13820,18.2702,40.6562,17
"100078",142748,"col","",-87.34,32,"Prairie Creek and Pine Barren section / Prairie Creek and Allenton",NA,"",26,"Thanetian","",59.2,56,45555,"gp_mid",-60.12,35.96,"109",57.6,"thanetian",27579,-67.8548,33.5914,17
"100079",142749,"col","",-87.2,31.97,"Estelle",NA,"",5,"Thanetian","",59.2,56,45555,"gp_mid",-59.99,35.9,"109",57.6,"thanetian",27580,-67.8548,33.5914,17
"102147",145510,"col","Fulra Dam",68.64,23.58,"Narayan Sarovar Rd [Fulra Dam Fm]",NA,"",15,"Thanetian","",59.2,56,47038,"gp_mid",65.97,-9.66,"501",57.6,"thanetian",27909,57.0629,-5.8112,17
"107261",151895,"col","Kolosh",42.83,37.22,"Shiranish village, Kolosh Fm",NA,"",5,"Thanetian","",59.2,56,48535,"gp_mid",43.49,17.35,"503",57.6,"thanetian",28752,38.3673,24.4138,17
"107983",153143,"col","Pavy",-64.4,81.74,"Watercourse Bay, Ellesmere Island",NA,"",1,"Thanetian","",59.2,56,49341,"gp_mid",10.18,70.08,"106",57.6,"thanetian",29008,-8.1126,76.8182,17
"108140",153341,"col","",-85.82,31.72,"Well near Brundidge Depot (USGS locality 25208)",NA,"",2,"Thanetian","",59.2,56,49378,"gp_mid",-58.71,35.29,"109",57.6,"thanetian",29016,-67.8548,33.5914,17
"108146",153348,"col","Vincentown",-74.75,39.99,"Stokely Canning Factory, north bank of Rancocas Creek",NA,"",1,"Thanetian","",59.2,56,49378,"gp_mid",-44.57,40.16,"109",57.6,"thanetian",29020,-54.9529,39.1212,17
"108703",154088,"col","",-2.26,43.3,"Zumaya section, U1, 17m, Samples Z4",NA,"",45,"Thanetian","",59.2,56,49947,"gp_mid",6.21,33.31,"304",57.6,"thanetian",29167,-4.2637,36.8823,17
"108704",154089,"col","",-2.26,43.3,"Zumaya section, U2, Samples Z5, Thickness 18 m",NA,"",45,"Thanetian","",59.2,56,49947,"gp_mid",6.21,33.31,"304",57.6,"thanetian",29167,-4.2637,36.8823,17
"109716",155340,"col","Ulukla",35,37.62,"Ulukla Basin, Ulukla Fm, Northern Margin: Imrahor Log",NA,"",6,"Thanetian","",59.2,56,50684,"gp_mid",37.6,24.06,"504",57.6,"thanetian",29375,31.4016,29.543,17
"109737",155376,"col","Ulukla",35,37.62,"Ulukla Basin, Ulukla Fm, Imrahor Log, Back Reef Facies",NA,"",15,"Thanetian","",59.2,56,50684,"gp_mid",37.6,24.06,"504",57.6,"thanetian",29375,31.4016,29.543,17
"109738",155377,"col","Ulukla",35,37.62,"Ulukla Basin, Ulukla Fm, Imrahor Log, Back Reef Facies",NA,"",9,"Thanetian","",59.2,56,50684,"gp_mid",37.6,24.06,"504",57.6,"thanetian",29375,31.4016,29.543,17
"109742",155381,"col","Ulukla",35,37.62,"Ulukla Fm, between the Ardçl and mrahor logs",NA,"",8,"Thanetian","",59.2,56,50684,"gp_mid",37.6,24.06,"504",57.6,"thanetian",29375,31.4016,29.543,17
"110031",155900,"col","Salt Mountain Limestone",-87.92,31.43,"USGS Loc. 2646 - Salt Mountain [Salt Mountain Lmst]",NA,"",2,"Thanetian","",59.2,56,32912,"gp_mid",-60.91,35.57,"109",57.6,"thanetian",3982,-67.8548,33.5914,17
"110032",155901,"col","Salt Mountain Limestone",-87.92,31.43,"USGS Loc. 13395 - Richmond Branch [Salt Mountain Lmst]",NA,"",2,"Thanetian","",59.2,56,32912,"gp_mid",-60.91,35.57,"109",57.6,"thanetian",3982,-67.8548,33.5914,17
"110630",157012,"col","Cabo de Lata",-3.83,43.49,"Cabo Mayor 10",NA,"",1,"Thanetian","",59.2,56,45052,"gp_mid",4.89,33.65,"304",57.6,"thanetian",29586,-4.2637,36.8823,17
"110633",157015,"col","Cabo de Lata",-1.78,42.91,"Navarra Casas de Oraien",NA,"",8,"Thanetian","",59.2,56,45052,"gp_mid",6.57,32.88,"304",57.6,"thanetian",29589,-0.8103,36.8048,17
"110641",157024,"col","Cabo de Lata",-1.79,42.92,"Navarra Larumbe",NA,"",5,"Thanetian","",59.2,56,45052,"gp_mid",6.56,32.88,"304",57.6,"thanetian",29591,-0.8103,36.8048,17
"112818",160381,"col","Hannut",5.01,50.68,"Wansin [Hannut Fm]",NA,"",1,"Thanetian","",59.2,56,52290,"gp_mid",12.38,40.58,"315",57.6,"thanetian",30311,1.7834,44.5577,17
"112822",160387,"col","",63.21,52.97,"Sokolovsky Quarry",NA,"",1,"Thanetian","",59.2,56,52290,"gp_mid",60.41,44.79,"402",57.6,"thanetian",30315,56.6222,50.9511,17
"114272",162205,"col","",-6.23,56.34,"Isle of Mull (Seward collection)",NA,"",1,"Thanetian","",59.2,56,5043,"gp_mid",3.9,46.83,"303",57.6,"thanetian",21685,-8.5281,51.847,17
"114276",162250,"col","Kamchik",163.78,60.92,"Unspecified localities [Kamchik Fm]",NA,"",8,"Thanetian","",59.2,56,52858,"gp_mid",153.15,70.64,"405",57.6,"thanetian",30655,164.3938,68.8401,17
"116444",165994,"col","Aquia",-76.75,38.82,"Upper Marlboro (Aquia Fm)",NA,"",1,"Thanetian","",59.2,56,54247,"gp_mid",-46.98,39.6,"109",57.6,"thanetian",31179,-54.9529,39.1212,17
"116445",165995,"col","Aquia",-76.79,38.87,"3 miles west of Leeland (Maryland Geological Survey coll)",NA,"",1,"Thanetian","",59.2,56,54247,"gp_mid",-47.01,39.65,"109",57.6,"thanetian",31180,-54.9529,39.1212,17
"116446",165996,"col","Aquia",-76.48,38.99,"Mouth of Severn River, opposite Annapolis",NA,"",1,"Thanetian","",59.2,56,54247,"gp_mid",-46.65,39.68,"109",57.6,"thanetian",31181,-54.9529,39.1212,17
"116485",166042,"col","",-119.04,34.44,"UCMP 3763, Simi Hills, Calabasas",NA,"",1,"Thanetian","",59.2,56,54289,"gp_mid",-90.01,42.17,"105",57.6,"thanetian",31200,-99.2121,36.6971,17
"116493",166081,"col","Soldado",-61.35,10.08,"Marac Quarry (Rutsch locality 22)",NA,"",3,"Thanetian","",59.2,56,27690,"gp_mid",-41.62,6.74,"201",57.6,"thanetian",31204,-45.826,6.1708,17
"116495",166086,"col","Santa Susana",-118.72,34.26,"UCMP 7016, Simi Valley, Santa Susana",NA,"",1,"Thanetian","",59.2,56,54289,"gp_mid",-89.71,41.94,"105",57.6,"thanetian",31205,-99.2121,36.6971,17
"116499",166096,"col","Santa Susana",-118.74,34.24,"UCMP 3820, Simi Hills, Calabasas",NA,"",1,"Thanetian","",59.2,56,54289,"gp_mid",-89.73,41.94,"105",57.6,"thanetian",31208,-99.2121,36.6971,17
"117063",167205,"col","Aquia",-77.01,38.74,"Fort Washington Construction Site",NA,"",1,"Thanetian","",59.2,56,54562,"gp_mid",-47.27,39.59,"109",57.6,"thanetian",31389,-59.2504,37.2781,17
"117552",167877,"col","Salamanca",-67.12,-45.4,"Puerto Visser - Nivel 151",NA,"",1,"Thanetian","",59.2,56,54874,"gp_mid",-56.82,-47.34,"291",57.6,"thanetian",31540,-54.2935,-48.7461,17
"117554",167879,"col","Río Chico",-67.12,-45.4,"Puerto Visser - Nivel 115",NA,"",1,"Thanetian","",59.2,56,54874,"gp_mid",-56.82,-47.34,"291",57.6,"thanetian",31540,-54.2935,-48.7461,17
"117555",167880,"col","Río Chico",-67.12,-45.4,"Puerto Visser - Nivel 142",NA,"",1,"Thanetian","",59.2,56,54874,"gp_mid",-56.82,-47.34,"291",57.6,"thanetian",31540,-54.2935,-48.7461,17
"117595",167921,"col","Salamanca",-67.12,-45.4,"Puerto Visser",NA,"",26,"Thanetian","",59.2,56,54876,"gp_mid",-56.82,-47.34,"291",57.6,"thanetian",31540,-54.2935,-48.7461,17
"117602",167933,"col","",12.98,47.94,"Kch 6, Kroisbach, Haunsberg near St. Pankraz",NA,"",1,"Thanetian","",59.2,56,29379,"gp_mid",18.89,37.59,"305",57.6,"thanetian",31553,8.4561,39.5002,17
"117603",167934,"col","",12.98,47.94,"Kroisbachgraben, Salzburg",NA,"",1,"Thanetian","",59.2,56,54938,"gp_mid",18.89,37.59,"305",57.6,"thanetian",31553,8.4561,39.5002,17
"117614",167948,"col","",1.75,6.29,"Adabion (Oppenheim collection)",NA,"",18,"Thanetian","",59.2,56,28131,"gp_mid",1.83,-5.63,"714",57.6,"thanetian",31557,-4.9649,0.2348,17
"117783",168382,"col","Soldado",-61.46,10.29,"Vista Bella Estate (Rutsch locality 25)",NA,"",1,"Thanetian","",59.2,56,27690,"gp_mid",-41.69,6.95,"201",57.6,"thanetian",31576,-45.826,6.1708,17
"119437",170996,"col","Sepultura",-115.53,29.78,"Sepultura Formation, Mesa San Carlos",NA,"",10,"Thanetian","",59.2,56,55653,"gp_mid",NA,NA,"coordinates not computable using this model",57.6,"thanetian",31800,NA,NA,17
"120597",172933,"col","Garra",31.61,23.42,"Bir Dungul (section B) (=BDB)",NA,"",2,"Thanetian","",59.2,56,56227,"gp_mid",32.96,6.69,"715",57.6,"thanetian",32056,25.4376,12.4116,17
"120598",172934,"col","Garra",31.34,23.29,"Lake Nasser",NA,"",2,"Thanetian","",59.2,56,56227,"gp_mid",32.71,6.59,"715",57.6,"thanetian",32057,25.4376,12.4116,17
"120729",173476,"col","Pendleton",-93.5,31.47,"Sabine Parish",NA,"",27,"Thanetian","",59.2,56,56523,"gp_mid",-66.53,37.05,"101",57.6,"thanetian",32087,-75.3626,34.7961,17
"120730",173477,"col","Marthaville",-93.5,31.47,"Sabine Parish",NA,"",0,"Thanetian","",59.2,56,56523,"gp_mid",-66.53,37.05,"101",57.6,"thanetian",32087,-75.3626,34.7961,17
"122217",176065,"col","Cayara",-66.53,-19.05,"Wila Apacheta",NA,"Vela Pachita",5,"Thanetian","",59.2,56,19694,"gp_mid",-50.78,-21.43,"201",57.6,"thanetian",32369,-53.7117,-23.7503,17
"122311",176206,"col","Kamyshin",44.42,41.32,"Loznoe",NA,"",4,"Thanetian","",59.2,56,57846,"gp_mid",46.19,31.64,"511",57.6,"thanetian",32386,40.6802,39.3907,17
"122494",176456,"col","Sepultura",-115.53,29.78,"PU 1334 – Float material along the southern branch of Cajiloa Creek",NA,"",17,"Thanetian","",59.2,56,58068,"gp_mid",NA,NA,"coordinates not computable using this model",57.6,"thanetian",31800,NA,NA,17
"122495",176457,"col","Sepultura",-115.52,29.76,"PU 1300-2 - 1.6 km north and 3.7 km east of intersection of Cajiloa Creek",NA,"",4,"Thanetian","",59.2,56,58068,"gp_mid",NA,NA,"coordinates not computable using this model",57.6,"thanetian",32451,NA,NA,17
"123398",177978,"col","Sables de Bracheux",2.15,49.36,"Abbecourt",NA,"",7,"Thanetian","",59.2,56,58869,"gp_mid",9.87,39.39,"315",57.6,"thanetian",32682,1.7834,44.5577,17
"123463",178041,"col","Châlons-sur-Vesle",3.82,49.29,"Jonchery-sur-Vesle",NA,"",14,"Thanetian","",59.2,56,58192,"gp_mid",11.26,39.25,"315",57.6,"thanetian",32690,1.7834,44.5577,17
"123498",178086,"col","",0.03,49.33,"Chenay",NA,"",34,"Thanetian","",59.2,56,26566,"gp_mid",8.08,39.47,"305",57.6,"thanetian",32706,-1.5943,44.4664,17
"125446",180732,"col","",143.18,-38.73,"North of Pebble Point",NA,"",1,"Thanetian","",59.2,56,60019,"gp_mid",163.4,-58.83,"801",57.6,"thanetian",33253,145.2528,-61.4435,17
"125447",180733,"col","Pebble Point",143.18,-38.73,"Pebble Point (AM cephalopod collection)",NA,"",1,"Thanetian","",59.2,56,60019,"gp_mid",163.41,-58.84,"801",57.6,"thanetian",33253,145.2528,-61.4435,17
"125448",180734,"col","Pebble Point",143.18,-38.73,"Pebble Point (Tate Museum collection)",NA,"",1,"Thanetian","",59.2,56,60019,"gp_mid",163.41,-58.84,"801",57.6,"thanetian",33253,145.2528,-61.4435,17
"125501",180791,"col","",4.03,49.23,"Louvois",NA,"20 km south of Reims",6,"Thanetian","",59.2,56,60040,"gp_mid",11.43,39.17,"315",57.6,"thanetian",33259,1.7834,44.5577,17
"125669",181073,"col","",3.72,48.72,"Sézanne (Munier-Chalmas collection)",NA,"",5,"Thanetian","",59.2,56,60151,"gp_mid",11.12,38.68,"305",57.6,"thanetian",33300,1.9256,42.0598,17
"126470",182623,"col","Navarri",0.78,42.27,"Campo",NA,"",1,"Thanetian","",59.2,56,60814,"gp_mid",8.69,32,"304",57.6,"thanetian",33496,-0.8103,36.8048,17
"127204",183771,"col","Sables de Bracheux",2.15,49.36,"Abbecourt (Pacaud collection)",NA,"",1,"Thanetian","",59.2,56,61368,"gp_mid",9.87,39.39,"315",57.6,"thanetian",32682,1.7834,44.5577,17
"127237",183804,"col","",1.98,49.28,"Remise Madame, Bachivillers (Pacaud collection)",NA,"",1,"Thanetian","",59.2,56,61368,"gp_mid",9.71,39.32,"305",57.6,"thanetian",33674,1.7834,44.5577,17
"127238",183805,"col","",1.98,49.28,"Remise Madame, Bachivillers (Pons collection)",NA,"",1,"Thanetian","",59.2,56,61368,"gp_mid",9.71,39.32,"305",57.6,"thanetian",33674,1.7834,44.5577,17
"127353",183922,"col","Dungan",70.51,30.42,"Fossil Bed F.2712, Zinda Pir",NA,"",1,"Thanetian","",59.2,56,599,"gp_mid",69.99,-3.86,"501",57.6,"thanetian",33690,62.7072,0.1705,17
"127435",184012,"col","Santa Susana",-118.56,34.08,"LACMIP 7060, between Temescal and Santa Ynez canyons",NA,"",1,"Thanetian","",59.2,56,58450,"gp_mid",-89.57,41.75,"105",57.6,"thanetian",33702,-99.2121,36.6971,17
"127436",184013,"col","Santa Susana",-118.56,34.08,"LACMIP 10508, Trailer Canyon",NA,"",1,"Thanetian","",59.2,56,58450,"gp_mid",-89.57,41.75,"105",57.6,"thanetian",33702,-99.2121,36.6971,17
"127437",184014,"col","Santa Susana",-118.55,34.09,"LACMIP 11717, Quarry Canyon",NA,"",1,"Thanetian","",59.2,56,58450,"gp_mid",-89.56,41.76,"105",57.6,"thanetian",33703,-99.2121,36.6971,17
"127440",184017,"col","Santa Susana",-118.69,34.25,"LACMIP 21607, Simi Valley",NA,"",1,"Thanetian","",59.2,56,58450,"gp_mid",-89.68,41.94,"105",57.6,"thanetian",33705,-99.2121,36.6971,17
"127500",184082,"col","",68.19,25.68,"Stn 1, Old Indus Coal pit",NA,"",1,"Thanetian","",59.2,56,61516,"gp_mid",66.36,-7.55,"501",57.6,"thanetian",33706,61.0409,3.1418,17
"127502",184084,"col","",68.2,25.7,"Stn 2, Sarwar Coal pit",NA,"",1,"Thanetian","",59.2,56,61516,"gp_mid",66.39,-7.53,"501",57.6,"thanetian",33707,61.0409,3.1418,17
"127503",184085,"col","",68.19,25.42,"Stn 3, Khnu Brohi coal pit",NA,"",2,"Thanetian","",59.2,56,61516,"gp_mid",66.27,-7.79,"501",57.6,"thanetian",33708,61.0409,3.1418,17
"127667",184300,"col","Bald Head Shoals",-78.27,33.76,"Cape Fear Arch, Long Bay ship channel, core BS92-12",NA,"",1,"Thanetian","",59.2,56,61604,"gp_mid",-50.55,35.23,"109",57.6,"thanetian",33758,-59.8701,34.8288,17
"127698",184446,"col","",32.06,39.4,"Kirkkavak Hill sample 08.K.11.1",NA,"",1,"Thanetian","",59.2,56,61799,"gp_mid",35.44,29.14,"510",57.6,"thanetian",33763,33.7977,33.5783,17
"127699",184447,"col","",32.06,39.4,"Kirkkavak Hill sample 08.K.2.1",NA,"",1,"Thanetian","",59.2,56,61799,"gp_mid",35.44,29.14,"510",57.6,"thanetian",33763,33.7977,33.5783,17
"127979",184810,"col","",12.98,47.94,"Kch 8, Kroisbach, Haunsberg near St. Pankraz",NA,"",1,"Thanetian","",59.2,56,56314,"gp_mid",18.89,37.59,"305",57.6,"thanetian",31553,8.4561,39.5002,17
"127999",184830,"col","Sables de Bracheux",2.15,49.36,"Abbecourt (Deshayes collection)",NA,"",2,"Thanetian","",59.2,56,61542,"gp_mid",9.87,39.39,"315",57.6,"thanetian",32682,1.7834,44.5577,17
"128000",184831,"col","Sables de Bracheux",2.03,49.47,"Bracheux (Deshayes collection)",NA,"",1,"Thanetian","",59.2,56,61542,"gp_mid",9.78,39.51,"315",57.6,"thanetian",33839,1.7834,44.5577,17
"128137",185139,"col","Santa Susana",-118.54,34.08,"LACMIP 26897, Temescal Canyon",NA,"",1,"Thanetian","",59.2,56,58450,"gp_mid",-89.55,41.75,"105",57.6,"thanetian",33883,-99.2121,36.6971,17
"128170",185193,"col","Santa Susana",-118.74,34.24,"CSUN 1342, Runkle Canyon",NA,"",7,"Thanetian","",59.2,56,62128,"gp_mid",-89.74,41.93,"105",57.6,"thanetian",31208,-99.2121,36.6971,17
"128171",185194,"col","Santa Susana",-118.75,34.24,"UCMP 3792, Runkle Canyon",NA,"",3,"Thanetian","",59.2,56,62128,"gp_mid",-89.74,41.93,"105",57.6,"thanetian",33890,-99.2121,36.6971,17
"128172",185195,"col","Santa Susana",-118.71,34.25,"UCMP 7009, Meier Canyon",NA,"",2,"Thanetian","",59.2,56,62128,"gp_mid",-89.7,41.94,"105",57.6,"thanetian",33891,-99.2121,36.6971,17
"128176",185199,"col","Coal Canyon",-118.57,34.11,"UCLA 7108 - Garapito Creek [Coal Canyon Fm]",NA,"LACMIP 27108",2,"Thanetian","",59.2,56,56522,"gp_mid",-89.58,41.78,"105",57.6,"thanetian",15457,-99.2121,36.6971,17
"128177",185200,"col","Santa Susana",-118.77,34.22,"CSUN 1290, Bus Canyon",NA,"",3,"Thanetian","",59.2,56,56522,"gp_mid",-89.76,41.92,"105",57.6,"thanetian",33895,-99.2121,36.6971,17
"129280",186974,"col","Williamsburg",-79.64,33.28,"Martin Marietta Berkeley Quarry -Paleocene level",NA,"Cross Quarry, Martin Marietta Aggregates Quarry",8,"Thanetian","",59.2,56,62708,"gp_mid",-52.06,35.14,"109",57.6,"thanetian",34218,-60.4541,32.3765,17
"129667",187613,"col","Moseley Creek",-77.45,35.29,"Mosley Creek, route 55 bridge",NA,"",2,"Thanetian","",59.2,56,62993,"gp_mid",-49.14,36.46,"109",57.6,"thanetian",34306,-59.8701,34.8288,17
"129668",187614,"col","Moseley Creek",-77.44,35.29,"Mosley Creek, south of route 55 bridge",NA,"",1,"Thanetian","",59.2,56,62993,"gp_mid",-49.14,36.46,"109",57.6,"thanetian",34307,-59.8701,34.8288,17
"129669",187615,"col","Moseley Creek",-77.44,35.29,"Spoil pits adjacent to Mosley Creek",NA,"",1,"Thanetian","",59.2,56,62993,"gp_mid",-49.14,36.46,"109",57.6,"thanetian",34307,-59.8701,34.8288,17
"130839",190086,"col","Kakara",77.1,30.91,"Bakhalag-Bughar",NA,"near the villages Kog, Ghanagughat and Kalharan",5,"Thanetian","",59.2,56,63383,"gp_mid",75.54,-5.18,"501",57.6,"thanetian",34467,71.857,6.0012,17
"132320",193035,"col","Santa Susana",-118.74,34.25,"Southwest of Santa Susana",NA,"Locality 4 of Waring 1917, LSJU 4",39,"Thanetian","",59.2,56,65473,"gp_mid",-89.73,41.94,"105",57.6,"thanetian",34806,-99.2121,36.6971,17
"132321",193036,"col","Coal Canyon",-118.63,34.05,"Locality 5 (of Waring 1917) - Santa Monica Mountains [Coal Canyon Fm]",NA,"",9,"Thanetian","",59.2,56,27071,"gp_mid",-89.65,41.73,"105",57.6,"thanetian",34807,-99.2121,36.6971,17
"132323",193038,"col","Coal Canyon",-118.65,34.06,"Locality 7 (of Waring 1917) - Santa Monica Mountains [Coal Canyon Fm]",NA,"",3,"Thanetian","",59.2,56,27071,"gp_mid",-89.68,41.74,"105",57.6,"thanetian",34809,-99.2121,36.6971,17
"132431",193460,"col","",5.23,50.57,"Vinalmont",NA,"",3,"Thanetian","",59.2,56,65726,"gp_mid",12.55,40.46,"315",57.6,"thanetian",34837,1.7834,44.5577,17
"132623",194122,"col","Kakara",77,31.07,"Kakara village",NA,"",4,"Thanetian","",59.2,56,63383,"gp_mid",75.51,-5,"501",57.6,"thanetian",34889,71.857,6.0012,17
"133911",196713,"col","Chickaloon",-148.95,61.74,"Chickaloon amber, Evan Jones Mine",NA,"",13,"Thanetian","",59.2,56,66950,"gp_mid",-113.89,75.51,"125",57.6,"thanetian",35163,-120.3378,70.1249,17
"134751",198239,"col","Saratov beds",43.98,48.73,"Karpovka",NA,"",3,"Thanetian","",59.2,56,67532,"gp_mid",45.01,39,"302",57.6,"thanetian",35399,39.9133,44.358,17
"135472",199921,"col","Tarawan",30.69,25.73,"Naqb El Rufuf, bed 12",NA,"",2,"Thanetian","",59.2,56,67989,"gp_mid",32.34,9.07,"715",57.6,"thanetian",35534,25.5749,14.908,17
"135474",199923,"col","Tarawan",30.73,25.86,"Um El Ghanayim, bed 6",NA,"",2,"Thanetian","",59.2,56,67989,"gp_mid",32.39,9.19,"715",57.6,"thanetian",35536,25.5749,14.908,17
"136415",201914,"col","",74.02,8.12,"Site 219",NA,"",5,"Thanetian","",59.2,56,69125,"gp_mid",NA,NA,"coordinates not computable using this model",57.6,"thanetian",35775,59.1403,-22.3365,17
"137990",204137,"col","Santa Susana",-118.74,34.24,"UCMP 3773, Simi Hills, Calabasas",NA,"",1,"Thanetian","",59.2,56,54289,"gp_mid",-89.73,41.94,"105",57.6,"thanetian",31208,-99.2121,36.6971,17
"138867",205349,"col","Sepultura",-115.52,29.76,"PU 1305 (=PU 1306, PU 1307)",NA,"",1,"Thanetian","",59.2,56,58870,"gp_mid",NA,NA,"coordinates not computable using this model",57.6,"thanetian",32451,NA,NA,17
"138886",205391,"col","Simi",-122.08,38,"Pacheco, north",NA,"",1,"Thanetian","",59.2,56,66330,"gp_mid",-91.06,47.22,"130",57.6,"thanetian",8260,NA,NA,17
"138887",205392,"col","Simi",-122.13,38.02,"Martinez, near",NA,"",2,"Thanetian","",59.2,56,66330,"gp_mid",-91.12,47.25,"130",57.6,"thanetian",36447,NA,NA,17
"138888",205393,"col","San Francisquito",-117.85,34.42,"UCMP loc. 2245, Pinyon Ridge",NA,"Rock Creek, Big Rock Creek",14,"Thanetian","",59.2,56,72882,"gp_mid",-88.71,41.98,"105",57.6,"thanetian",36448,-98.0847,40.6031,17
"138889",205394,"col","Simi",-118.72,34.26,"Meier Canyon",NA,"UCR 4573, UCR 6668, UCR 6670, UCR 6671, UCR 6682, UCR 6805, UCR 6806, UCR 6825, UCR 6873, UCR 6899, UCR, 7319, 7320",16,"Thanetian","",59.2,56,66330,"gp_mid",-89.71,41.95,"105",57.6,"thanetian",31205,-99.2121,36.6971,17
"138890",205395,"col","Simi",-118.74,34.26,"Runkle Canyon",NA,"UCR 4579, UCR 6832",2,"Thanetian","",59.2,56,66330,"gp_mid",-89.73,41.95,"105",57.6,"thanetian",36449,-99.2121,36.6971,17
"138918",205434,"col","Seguin",-96.77,31.02,"BR-PCR",NA,"Brazos River",1,"Thanetian","",59.2,56,28119,"gp_mid",-70.05,37.46,"101",57.6,"thanetian",36466,-79.7125,32.9303,17
"138939",205455,"col","Weches",-97.47,30.18,"Dry Creek",NA,"Navosota River",74,"Thanetian","",59.2,56,28119,"gp_mid",-71.08,36.83,"101",57.6,"thanetian",36479,-79.7125,32.9303,17
"138986",205502,"col","Seguin",-97.48,30.18,"MossB",NA,"Seguin type locality, moss branch\r\n\r\n\r\n\r\n",3,"Thanetian","",59.2,56,28119,"gp_mid",-71.09,36.83,"101",57.6,"thanetian",36509,-79.7125,32.9303,17
"138998",205514,"col","Seguin",-96.87,30.01,"PCW",NA,"Pond Creek\r\n\r\n\r\n\r\n\r\n\r\n\r\n\r\n\r\n\r\n",1,"Thanetian","",59.2,56,28119,"gp_mid",-70.52,36.52,"101",57.6,"thanetian",36515,-79.7125,32.9303,17
"139014",205530,"col","Seguin",-97.08,30.26,"SBS",NA,"Solomons Branch\r\n",21,"Thanetian","",59.2,56,28119,"gp_mid",-70.65,36.81,"101",57.6,"thanetian",36524,-79.7125,32.9303,17
"139038",205554,"col","Las Virgenes",-118.79,34.24,"Simi Hills, Las Virgenes Sandstone",NA,"UCR 6683, UCR 6887",3,"Thanetian","",59.2,56,66330,"gp_mid",-89.79,41.94,"105",57.6,"thanetian",36540,-99.2121,36.6971,17
"140012",206991,"col","Williamsburg",-79.64,33.28,"Jamestown Quarry, Chicora Member",NA,"",1,"Thanetian","",59.2,56,71195,"gp_mid",-52.07,35.13,"109",57.6,"thanetian",34218,-60.4541,32.3765,17
"141234",208954,"col","",33.93,44.81," Glubokii Yar",NA,"",1,"Thanetian","",59.2,56,72121,"gp_mid",36.79,34.61,"302",57.6,"thanetian",37163,29.7591,41.0332,17
"141489",209337,"col","Falaises de Fresco",-5.62,5.08,"Falaises de Fresco, region CD (Kraïébouèn)",NA,"",1,"Thanetian","",59.2,56,26458,"gp_mid",-5.62,-5.1,"714",57.6,"thanetian",12910,-8.9987,-1.734,17
"141490",209338,"col","Falaises de Fresco",-5.62,5.08,"Falaises de Fresco, region JK (Laga-Ghirobo), bed 5",NA,"",5,"Thanetian","",59.2,56,26458,"gp_mid",-5.62,-5.1,"714",57.6,"thanetian",12910,-8.9987,-1.734,17
"141491",209339,"col","Falaises de Fresco",-5.62,5.08,"Falaises de Fresco, region JK (Laga-Ghirobo), bed 2-5",NA,"",4,"Thanetian","",59.2,56,26458,"gp_mid",-5.62,-5.1,"714",57.6,"thanetian",12910,-8.9987,-1.734,17
"141492",209340,"col","Falaises de Fresco",-5.62,5.08,"Falaises de Fresco, region MN (Laga-Ghirobo), bed 5",NA,"",2,"Thanetian","",59.2,56,26458,"gp_mid",-5.62,-5.1,"714",57.6,"thanetian",12910,-8.9987,-1.734,17
"141493",209341,"col","Falaises de Fresco",-5.62,5.08,"Falaises de Fresco, region CD (Kraïébouèn), bed 5",NA,"",2,"Thanetian","",59.2,56,72227,"gp_mid",-5.62,-5.1,"714",57.6,"thanetian",12910,-8.9987,-1.734,17
"141494",209342,"col","Falaises de Fresco",-5.62,5.08,"Falaises de Fresco, region JK (Laga-Ghirobo), top of bed 3",NA,"",3,"Thanetian","",59.2,56,72227,"gp_mid",-5.62,-5.1,"714",57.6,"thanetian",12910,-8.9987,-1.734,17
"141495",209343,"col","Falaises de Fresco",-5.62,5.08,"Falaises de Fresco, point N (Laga-Ghirobo), bed 2",NA,"",1,"Thanetian","",59.2,56,72227,"gp_mid",-5.62,-5.1,"714",57.6,"thanetian",12910,-8.9987,-1.734,17
"141496",209344,"col","Falaises de Fresco",-5.62,5.08,"Falaises de Fresco, bed 2-5 undivided",NA,"",2,"Thanetian","",59.2,56,72227,"gp_mid",-5.62,-5.1,"714",57.6,"thanetian",12910,-8.9987,-1.734,17
"141726",209587,"col","Jbel Ta'Louit",-6.61,31.5,"Jbel Guersif",NA,"",1,"Thanetian","",59.2,56,72297,"gp_mid",0.2,20.72,"714",57.6,"thanetian",37250,-8.2122,26.0193,17
"141886",209812,"col","Beinisvørð",-7.65,62.1,"Fjørudalsnev, Mykines",NA,"",1,"Thanetian","",59.2,56,72385,"gp_mid",NA,NA,"coordinates not computable using this model",57.6,"thanetian",37298,-8.6926,56.8461,17
"145092",214288,"col","Santa Susana",-118.55,34.07,"LACMIP loc. 11984, Palisades Highlands",NA,"",2,"Thanetian","",59.2,56,66332,"gp_mid",-89.56,41.74,"105",57.6,"thanetian",37937,-99.2121,36.6971,17
"145093",214289,"col","Santa Susana",-118.55,34.08,"LACMIP loc. 16869, Palisades Highlands",NA,"CSUN Loc. 1590",11,"Thanetian","",59.2,56,66332,"gp_mid",-89.56,41.75,"105",57.6,"thanetian",37938,-99.2121,36.6971,17
"145094",214290,"col","Santa Susana",-118.55,34.08,"LACMIP loc. 16888, Palisades Highlands",NA,"",2,"Thanetian","",59.2,56,66332,"gp_mid",-89.56,41.75,"105",57.6,"thanetian",37938,-99.2121,36.6971,17
"145095",214291,"col","Santa Susana",-118.55,34.07,"LACMIP loc. 16897, Pulga Canyon",NA,"",2,"Thanetian","",59.2,56,66332,"gp_mid",-89.56,41.74,"105",57.6,"thanetian",37937,-99.2121,36.6971,17
"145096",214292,"col","Santa Susana",-118.56,34.09,"LACMIP loc. 26814, Quarry Canyon",NA,"UCLA loc. 6184",1,"Thanetian","",59.2,56,66332,"gp_mid",-89.57,41.76,"105",57.6,"thanetian",37939,-99.2121,36.6971,17
