"","collection_no","record_type","formation","lng","lat","collection_name","collection_subset","collection_aka","n_occs","early_interval","late_interval","max_ma","min_ma","reference_no","paleomodel","paleolng","paleolat","geoplate","mid_ma"
"77",1213,"col","Tuscahoma",-87.421669,31.806944,"H76-33-4, Bells Landing Mbr, Alabama",NA,"",0,"Thanetian","",59.2,56,38,"gp_mid",-60.27,35.8,"109",57.6
"80",1211,"col","Tuscahoma",-87.421669,31.806944,"H76-33-2, Bells Landing Mbr, Alabama",NA,"",0,"Thanetian","",59.2,56,38,"gp_mid",-60.27,35.8,"109",57.6
"1473",3113,"col","Vincentown",-74.683334,39.971943,"Vincentown Formation, NJ",NA,"",164,"Thanetian","",59.2,56,140,"gp_mid",-44.51,40.13,"109",57.6
"2933",6266,"col","Pebble Point",143.183334,-38.700001,"PL3001, Dilwyn Cove, Pebble Point Fm., Victoria, Australia",NA,"",40,"Thanetian","",59.2,56,398,"gp_mid",163.38,-58.81,"801",57.6
"2934",6267,"col","Pebble Point",143.183334,-38.700001,"PL3003, SE of Princetown, Pebble Point Fm., Victoria, Australia",NA,"",47,"Thanetian","",59.2,56,398,"gp_mid",163.38,-58.81,"801",57.6
"2935",6268,"col","Pebble Point",143.166672,-38.683334,"PL3004, NW Buckley Point, Pebble Point Fm., Victoria, Australia",NA,"",22,"Thanetian","",59.2,56,398,"gp_mid",163.34,-58.8,"801",57.6
"2936",6269,"col","Pebble Point",145.5,-37.75,"PL3005, Killara Bluff, Pebble Point Fm., Victoria, Australia",NA,"",2,"Thanetian","",59.2,56,398,"gp_mid",165.45,-57.08,"801",57.6
"3992",11120,"col","Lodo",-120.683998,36.623001,"CAS 31318, Panoche Creek",NA,"",6,"Thanetian","",59.2,56,4090,"gp_mid",-89.89,45.65,"130",57.6
"3998",11126,"col","Lodo",-120.695,36.605999,"LSJU 1068, junction of Silver and Panoche Creek",NA,"",5,"Thanetian","",59.2,56,4090,"gp_mid",-89.91,45.63,"130",57.6
"5017",13185,"col","Aquia",-76.960556,37.875,"Piscataway",NA,"",1,"Thanetian","",59.2,56,4382,"gp_mid",-47.6,38.76,"109",57.6
"5018",13186,"col","Aquia",-76.468613,36.603058,"Paspotansa",NA,"",1,"Thanetian","",59.2,56,4382,"gp_mid",-47.67,37.43,"109",57.6
"11309",21215,"col","Thanet",1.133333,51.366669,"Thanet Sands",NA,"Herne Bay",5,"Thanetian","",59.2,56,6504,"gp_mid",9.22,41.45,"315",57.6
"11310",21218,"col","Woolwich & Reading Beds",-0.1,51.383331,"Woolwich Beds - Croyden",NA,"",19,"Thanetian","",59.2,56,6504,"gp_mid",8.2,41.53,"315",57.6
"12420",23239,"col","Woolwich & Reading beds",-0.016667,51.450001,"Woolwich Beds - Counter Hill/Lewisham",NA,"",2,"Thanetian","",59.2,56,6528,"gp_mid",8.27,41.59,"315",57.6
"12421",23240,"col","Woolwich & Reading beds",0.2,51.466667,"Woolwich Beds, Woolwich",NA,"",1,"Thanetian","",59.2,56,6528,"gp_mid",8.46,41.59,"315",57.6
"12437",23313,"col","Woolwich & Reading Beds",0.066667,51.349998,"Woolwich Beds - Newington",NA,"",1,"Thanetian","",59.2,56,6528,"gp_mid",8.33,41.48,"315",57.6
"12438",23315,"col","Woolrich & Reading Beds",-1,51.333332,"Reading Beds - Reading",NA,"",14,"Thanetian","",59.2,56,6528,"gp_mid",7.44,41.53,"315",57.6
"12439",23316,"col","Woolwich & Reading Beds",-0.033333,51.516666,"Reading Beds, Hedge Row, Lea Valley",NA,"",1,"Thanetian","",59.2,56,6528,"gp_mid",8.27,41.66,"315",57.6
"12441",23318,"col","Woolwich & Reading Beds",0.016667,51.416668,"Woolwich Beds - Bromley",NA,"",1,"Thanetian","",59.2,56,6528,"gp_mid",8.3,41.55,"315",57.6
"12443",23320,"col","Woolwich & Reading Beds",-0.083333,51.516666,"Woolwich beds - Tooting, London",NA,"",8,"Thanetian","",59.2,56,6528,"gp_mid",8.23,41.66,"315",57.6
"12449",23326,"col","Woolwich & Reading Beds",-0.066667,51.450001,"Woolwich Beds - Dulwich",NA,"",2,"Thanetian","",59.2,56,6528,"gp_mid",8.23,41.59,"315",57.6
"12450",23327,"col","Woolwich & Reading Beds",0,51.733334,"Reading Beds - Broxbourne",NA,"",4,"Thanetian","",59.2,56,6528,"gp_mid",8.32,41.87,"315",57.6
"12451",23328,"col","Woolwich & reading Beds",-0.033333,51.633331,"Reading Beds - Ponder's End",NA,"",1,"Thanetian","",59.2,56,6528,"gp_mid",8.28,41.77,"315",57.6
"12452",23329,"col","Woolwich & Reading Beds",0,51.333332,"Woolwich Beds - Beddington",NA,"",1,"Thanetian","",59.2,56,6528,"gp_mid",8.27,41.47,"315",57.6
"12881",24270,"col","Avella",14.166667,42.166668,"Maiella reef blocks II, Italy",NA,"Reef 907",39,"Thanetian","",59.2,56,6862,"gp_mid",19.25,27.95,"307",57.6
"13867",27018,"col","Babica Beds",21.9,49.916668,"Babica, Middle Carpathians",NA,"KT loc. 435",100,"Thanetian","",59.2,56,7472,"gp_mid",26.41,39.49,"305",57.6
"13868",27019,"col","Czarnorzeki Beds",21.933332,49.766666,"Plosina, Middle Carpathians",NA,"KT loc. 435",106,"Thanetian","",59.2,56,7472,"gp_mid",26.44,39.34,"305",57.6
"13869",27020,"col","Czarnorzeki Beds",21.966667,49.766666,"Blizne, Middle Carpathians",NA,"KT loc. 435",82,"Thanetian","",59.2,56,7472,"gp_mid",26.47,39.34,"305",57.6
"13870",27021,"col","Czarnorzeki Beds",21.966667,49.766666,"Blizne conglomerates, Middle Carpathians",NA,"KT loc. 435",8,"Thanetian","",59.2,56,7472,"gp_mid",26.47,39.34,"305",57.6
"17109",31329,"col","",5.733333,43.599998,"Saint-Maurin",NA,"Rians",1,"Thanetian","",59.2,56,8465,"gp_mid",12.45,33.48,"305",57.6
"17110",31330,"col","",5.533333,43.533333,"Saint-Antonin",NA,"Suberoque farm",1,"Thanetian","",59.2,56,8465,"gp_mid",12.27,33.43,"305",57.6
"17111",31331,"col","",5.9,43.683334,"Saint-Julien-le-Montagnie",NA,"Saint-Julien",1,"Thanetian","",59.2,56,8465,"gp_mid",12.6,33.56,"305",57.6
"17112",31332,"col","",6.033333,43.566666,"Ponteves",NA,"",1,"Thanetian","",59.2,56,8465,"gp_mid",12.71,33.44,"305",57.6
"17113",31333,"col","",6.15,43.566666,"Sillans-la-Cascade",NA,"",1,"Thanetian","",59.2,56,8465,"gp_mid",12.81,33.43,"305",57.6
"17114",31334,"col","",5.783333,43.716667,"La Baraque, Vinon",NA,"La Barraque",1,"Thanetian","",59.2,56,8465,"gp_mid",12.5,33.6,"305",57.6
"19806",34415,"col","Dakhla",27.833332,26.452778,"Farafra Oasis Thanetian mounds, Egypt",NA,"Reef 1741",8,"Thanetian","",59.2,56,9061,"gp_mid",29.83,10.05,"715",57.6
"19964",34652,"col","Salt Mountain Limestone",-87.916664,31.433332,"Salt Mountain [Salt Mountain Lmst]",NA,"Reef 690",28,"Thanetian","",59.2,56,9168,"gp_mid",-60.91,35.57,"109",57.6
"22904",38793,"col","",-41.549999,-22.1,"700 m east of São José (Itaborai Basin)",NA,"",5,"Itaboraian","",59,57,13023,"gp_mid",-25.73,-27.57,"201",58
"28440",45854,"col","Auradu Limestone",45.049999,10.333333,"Berbera-Sheikh area",NA,"Reef 3367",14,"Thanetian","",59.2,56,12203,"gp_mid",43.46,-6.92,"709",57.6
"32699",51083,"col","Red Bluff Tuff",-176.25,-44.299999,"CH/f488 - Red Bluff Tuff, Chatham Islands",NA,"GS 12187; Coll# 2758 (Hendy PhD)",12,"Thanetian","",59.2,56,13610,"gp_mid",-140.1,-49.28,"807",57.6
"33711",133242,"col","",-5.605556,31.507221,"N'Tagourt",NA,"",1,"Thanetian","",59.2,56,42889,"gp_mid",1.08,20.5,"714",57.6
"33713",133241,"col","",-7,31.959999,"Ihadjamene",NA,"Ihad Jamene",10,"Thanetian","",59.2,56,42889,"gp_mid",-0.01,21.25,"707",57.6
"34125",52593,"col","Silverado",-117.818336,33.856945,"F83 - Silverado Formation, Santa Ana Mountains",NA,"Field #Y92A",1,"Thanetian","",59.2,56,3060,"gp_mid",-88.82,41.42,"105",57.6
"34126",52594,"col","Silverado",-117.818336,33.856945,"F84 - Silverado Formation, Santa Ana Mountains",NA,"USGS #18981; Field #S26",1,"Thanetian","",59.2,56,3060,"gp_mid",-88.82,41.42,"105",57.6
"34127",52595,"col","Silverado",-117.818336,33.856945,"F85 - Silverado Formation, Santa Ana Mountains",NA,"USGS #18982; Field #S101",7,"Thanetian","",59.2,56,3060,"gp_mid",-88.82,41.42,"105",57.6
"34128",52596,"col","Silverado",-117.712219,33.866669,"F86 - Silverado Formation, Santa Ana Mountains",NA,"USGS #18983; Field #S25",22,"Thanetian","",59.2,56,3060,"gp_mid",-88.7,41.41,"105",57.6
"34129",52597,"col","Silverado",-117.724998,33.790558,"F87 - Silverado Formation, Santa Ana Mountains",NA,"Field #S74",4,"Thanetian","",59.2,56,3060,"gp_mid",-88.73,41.34,"105",57.6
"34130",52598,"col","Silverado",-117.712219,33.866669,"F88 - Silverado Formation, Santa Ana Mountains",NA,"USGS# 18984; Field# S42",5,"Thanetian","",59.2,56,3060,"gp_mid",-88.7,41.41,"105",57.6
"34131",52599,"col","Silverado",-117.712219,33.866669,"F89 - Silverado Formation, Santa Ana Mountains",NA,"USGS# 18985; Field# S45",5,"Thanetian","",59.2,56,3060,"gp_mid",-88.7,41.41,"105",57.6
"34132",52600,"col","Silverado",-117.712219,33.866669,"F90 - Silverado Formation, Santa Ana Mountains",NA,"USGS# 18986; Field# S44",2,"Thanetian","",59.2,56,3060,"gp_mid",-88.7,41.41,"105",57.6
"34133",52601,"col","Silverado",-117.712219,33.866669,"F91 - Silverado Formation, Santa Ana Mountains",NA,"USGS# 18987",1,"Thanetian","",59.2,56,3060,"gp_mid",-88.7,41.41,"105",57.6
"34134",52602,"col","Silverado",-117.712219,33.866669,"F92 - Silverado Formation, Santa Ana Mountains",NA,"USGS# 18988",8,"Thanetian","",59.2,56,3060,"gp_mid",-88.7,41.41,"105",57.6
"34135",52603,"col","Silverado",-117.712219,33.866669,"F93 - Silverado Formation, Santa Ana Mountains",NA,"USGS# 18989",5,"Thanetian","",59.2,56,3060,"gp_mid",-88.7,41.41,"105",57.6
"34136",52604,"col","Silverado",-117.712219,33.866669,"F94 - Silverado Formation, Santa Ana Mountains",NA,"USGS# 18990",3,"Thanetian","",59.2,56,3060,"gp_mid",-88.7,41.41,"105",57.6
"34137",52605,"col","Silverado",-117.756943,33.81028,"F95 - Silverado Formation, Santa Ana Mountains",NA,"Pomoma College loc.# 160",4,"Thanetian","",59.2,56,3060,"gp_mid",-88.76,41.36,"105",57.6
"34138",52606,"col","Silverado",-117.756943,33.81028,"F96 - Silverado Formation, Santa Ana Mountains",NA,"Field# V16",8,"Thanetian","",59.2,56,3060,"gp_mid",-88.76,41.36,"105",57.6
"34139",52607,"col","Silverado",-117.724998,33.790558,"F97 - Silverado Formation, Santa Ana Mountains",NA,"USGS# 18991",2,"Thanetian","",59.2,56,3060,"gp_mid",-88.73,41.34,"105",57.6
"34140",52608,"col","Silverado",-117.724998,33.790558,"F98 - Silverado Formation, Santa Ana Mountains",NA,"",1,"Thanetian","",59.2,56,3060,"gp_mid",-88.73,41.34,"105",57.6
"34141",52609,"col","Silverado",-117.724998,33.790558,"F99 - Silverado Formation, Santa Ana Mountains",NA,"USGS# 18992",3,"Thanetian","",59.2,56,3060,"gp_mid",-88.73,41.34,"105",57.6
"34142",52610,"col","Martinez",-122.241997,38.057499,"UW 2329, Selby Station",NA,"",9,"Thanetian","",59.2,56,14145,"gp_mid",-91.23,47.3,"130",57.6
"34143",52611,"col","Martinez",-122.016998,38.214001,"UW 2363 - Potrero Hills",NA,"",11,"Thanetian","",59.2,56,14145,"gp_mid",-90.93,47.42,"130",57.6
"34144",52612,"col","Martinez",-122.154999,38.049999,"UW 260A - Benicia",NA,"",35,"Thanetian","",59.2,56,14145,"gp_mid",-91.14,47.28,"130",57.6
"34145",52613,"col","Martinez",-122.097,38.015999,"UW 1075 - Martinez",NA,"",21,"Thanetian","",59.2,56,14145,"gp_mid",-91.08,47.24,"130",57.6
"34147",52615,"col","Martinez",-122.127998,38.005001,"UW 1698 - Martinez",NA,"",7,"Thanetian","",59.2,56,14145,"gp_mid",-91.12,47.23,"130",57.6
"34148",52616,"col","Martinez",-122.242203,38.057499,"UW 1853A - Selby Station",NA,"",3,"Thanetian","",59.2,56,14145,"gp_mid",-91.23,47.3,"130",57.6
"34149",52617,"col","Martinez",-122.084,38.004501,"UW 1956 - Vine Hill",NA,"",5,"Thanetian","",59.2,56,14145,"gp_mid",-91.07,47.23,"130",57.6
"34150",52618,"col","Martinez",-121.994003,38.213001,"UW 2540 - Potrero Hills",NA,"",15,"Thanetian","",59.2,56,14145,"gp_mid",-90.91,47.42,"130",57.6
"41640",62244,"col","Aquia",-76.673889,37.953609,"Piscataway Mbr, Aquia Fm - 128-137 m, Haynesville Core",NA,"",3,"Thanetian","",59.2,56,17987,"gp_mid",-47.29,38.76,"109",57.6
"45579",68175,"col","Argiles d'lignite du Soissonnais",2.65,49.349998,"Le Quesnoy (reworked elasmobranchs)",NA,"",12,"Thanetian","",59.2,56,19606,"gp_mid",10.28,39.36,"315",57.6
"45790",68428,"col","Sables de Bracheux",4.15,49.266666,"Mont Berru",NA,"Berru bed 5; Mouras Quarry; Cernay",42,"Thanetian","",59.2,56,29562,"gp_mid",11.53,39.21,"315",57.6
"45791",68429,"col","Tuffeau de St Omer",3.169167,50.526669,"Templeuve",NA,"",7,"Thanetian","",59.2,56,19707,"gp_mid",10.83,40.51,"315",57.6
"45795",68433,"col","Upnor",1.125833,51.373611,"Herne Bay",NA,"",1,"Thanetian","",59.2,56,42904,"gp_mid",9.21,41.45,"315",57.6
"46256",68903,"col","",-2.083333,42.866669,"Usabide and Legunbe, Pyrenean Basin, Navarra",NA,"Reef 697",24,"Thanetian","",59.2,56,19892,"gp_mid",6.3,32.86,"304",57.6
"47898",71234,"col","",-5.85,34.316666,"Ouled Abdoun Basin (selachians associated with Phosphatherium)",NA,"",5,"Thanetian","",59.2,56,23856,"gp_mid",NA,NA,"coordinates not computable using this model",57.6
"50875",76994,"col","Zongpu",90,32,"Bed 13 (of Douvillé) - Operculina limestone",NA,"",14,"Thanetian","",59.2,56,26050,"gp_mid",85.43,13.56,"613",57.6
"51126",77353,"col","",-6.716667,32.683334,"Sidi Chennane",NA,"Quarry A4",3,"Thanetian","",59.2,56,26180,"gp_mid",0.44,21.88,"707",57.6
"51656",78359,"col","Aquia",-76.800003,38.866669,"3 miles west of Leeland",NA,"",1,"Thanetian","",59.2,56,26372,"gp_mid",-47.01,39.65,"109",57.6
"51931",78687,"col","Falaises de Fresco",-5.615,5.075,"Falaises de Fresco, region EF (Kraïébouèn), bed 5",NA,"",7,"Thanetian","",59.2,56,26458,"gp_mid",-5.62,-5.1,"714",57.6
"52268",79282,"col","",13.833333,45.666668,"Padriciano",NA,"",7,"Thanetian","",59.2,56,26586,"gp_mid",21.1,31.07,"307",57.6
"52274",79288,"col","",13.95,45.599998,"Hrpelje-Kozina",NA,"",4,"Thanetian","",59.2,56,26586,"gp_mid",21.14,30.97,"307",57.6
"52275",79289,"col","",14,45.733334,"Dolenja Vas, Bed 26",NA,"",4,"Thanetian","",59.2,56,26585,"gp_mid",21.26,31.07,"307",57.6
"52276",79290,"col","",13.95,45.599998,"Golež",NA,"",2,"Thanetian","",59.2,56,26586,"gp_mid",21.14,30.97,"307",57.6
"52278",79292,"col","",14,45.733334,"Dolenja Vas, Bed 28",NA,"",3,"Thanetian","",59.2,56,26585,"gp_mid",21.26,31.07,"307",57.6
"52279",79293,"col","",13.9,45.716667,"Sopada hill",NA,"",4,"Thanetian","",59.2,56,26586,"gp_mid",21.18,31.09,"307",57.6
"52280",79294,"col","",14,45.733334,"Dolenja Vas, Bed 29",NA,"Reef 3702",7,"Thanetian","",59.2,56,26585,"gp_mid",21.26,31.07,"307",57.6
"52281",79295,"col","",14,45.733334,"Dolenja Vas, Bed 30",NA,"",6,"Thanetian","",59.2,56,26585,"gp_mid",21.26,31.07,"307",57.6
"52282",79296,"col","",14.25,45.583332,"Breg",NA,"",3,"Thanetian","",59.2,56,26586,"gp_mid",21.34,30.85,"307",57.6
"52283",79297,"col","",14,45.733334,"Dolenja vas West, Bed 29",NA,"Dolenja vas, Bed 29",1,"Thanetian","",59.2,56,26586,"gp_mid",21.26,31.07,"307",57.6
"52290",79304,"col","",0.9,42.166668,"Claret 0",NA,"",3,"Thanetian","",59.2,56,26583,"gp_mid",8.77,31.89,"304",57.6
"52291",79305,"col","",0.9,42.166668,"Claret 4",NA,"",8,"Thanetian","",59.2,56,26583,"gp_mid",8.77,31.89,"304",57.6
"52292",79306,"col","",0.9,42.166668,"Tendruy",NA,"",4,"Thanetian","",59.2,56,26583,"gp_mid",8.77,31.89,"304",57.6
"52293",79307,"col","",0.9,42.166668,"Palau",NA,"",3,"Thanetian","",59.2,56,26583,"gp_mid",8.77,31.89,"304",57.6
"52636",80170,"col","Soldado",-62.014999,10.077,"Bed No. 2, Soldado Rock [Soldado Fm]",NA,"",42,"Thanetian","",59.2,56,26958,"gp_mid",-42.27,6.82,"201",57.6
"52794",80477,"col","Tuscahoma",-84.849998,31.700001,"AHe-4 Tuscahoma",NA,"",4,"Thanetian","",59.2,56,124,"gp_mid",-57.76,35.02,"109",57.6
"52810",80495,"col","Tuscahoma",-87.366669,31.816668,"AMo-1 Greggs Landing Marl",NA,"",63,"Thanetian","",59.2,56,124,"gp_mid",-60.22,35.79,"109",57.6
"52892",80621,"col","Tuscahoma",-87.533333,31.833332,"AWi-22 Tuscahoma",NA,"",21,"Thanetian","",59.2,56,124,"gp_mid",-60.38,35.85,"109",57.6
"52896",80670,"col","Tuscahoma",-88.216667,32.083332,"ACh-12 Tuscahoma",NA,"",7,"Thanetian","",59.2,56,124,"gp_mid",-60.96,36.27,"101",57.6
"52897",80671,"col","Tuscahoma",-88.216667,32.083332,"ACh-20 Tuscahoma",NA,"",8,"Thanetian","",59.2,56,124,"gp_mid",-60.96,36.27,"101",57.6
"52898",80672,"col","Tuscahoma",-85.583336,31.333332,"ADa-3 Tuschoma",NA,"",13,"Thanetian","",59.2,56,124,"gp_mid",-58.63,34.87,"109",57.6
"52899",80673,"col","Tuscahoma",-87.366669,31.816668,"AMo-1 Bells Landing Marl",NA,"",13,"Thanetian","",59.2,56,124,"gp_mid",-60.22,35.79,"109",57.6
"52915",80761,"col","Tuscahoma",-87.366669,31.816668,"AMo-2 Tuscahoma",NA,"",27,"Thanetian","",59.2,56,124,"gp_mid",-60.22,35.79,"109",57.6
"52916",80762,"col","Tuscahoma",-87.949997,31.85,"AWi-19 Tuscahoma",NA,"",10,"Thanetian","",59.2,56,124,"gp_mid",-60.79,35.98,"109",57.6
"52917",80763,"col","Tuscahoma",-87.949997,31.85,"AWi-23 Tuscahoma",NA,"",7,"Thanetian","",59.2,56,124,"gp_mid",-60.79,35.98,"109",57.6
"52939",80825,"col","Trstelj",13.970278,45.684723,"Divaca",NA,"",15,"Thanetian","",59.2,56,26603,"gp_mid",21.21,31.03,"307",57.6
"52941",80827,"col","Trstelj",13.991667,45.706669,"Cebulovica",NA,"",11,"Thanetian","",59.2,56,26603,"gp_mid",21.23,31.05,"307",57.6
"52942",80828,"col","Trstelj",14.004722,45.572777,"Kozina",NA,"",2,"Thanetian","",59.2,56,26603,"gp_mid",21.16,30.93,"307",57.6
"52943",80830,"col","Trstelj",14.004722,45.572777,"Kozina",NA,"",3,"Thanetian","",59.2,56,26603,"gp_mid",21.16,30.93,"307",57.6
"52944",80832,"col","Trstelj",14.004722,45.572777,"Kozina",NA,"",3,"Thanetian","",59.2,56,26603,"gp_mid",21.16,30.93,"307",57.6
"53457",81775,"col","Vincentown",-74.748611,39.933887,"Vincentown (Bryan collection, Vincentown Fm)",NA,"",5,"Thanetian","",59.2,56,27587,"gp_mid",-44.59,40.11,"109",57.6
"53467",81801,"col","Vine Hill Sandstone",-122.245003,38.056499,"Tunnel near smelter at Selby Station",NA,"UCMP IP12165",1,"Thanetian","",59.2,56,27587,"gp_mid",-91.24,47.3,"130",57.6
"53588",82042,"col","Cardabia",116.583336,-26.733334,"Scrubby Range",NA,"",1,"Thanetian","",59.2,56,18233,"gp_mid",117.51,-54.13,"801",57.6
"54564",83307,"col","Jibou",23.261389,47.264999,"Jibou B (JBB4)",NA,"JBB; Calcaires de Rona; Botanic Garden of Jibou",25,"Thanetian","",59.2,56,44195,"gp_mid",28.51,29.18,"308",57.6
"55062",83985,"col","Kalambaina",5.652778,14.825833,"Tamaské, Tahoua",NA,"",11,"Thanetian","",59.2,56,72239,"gp_mid",7.4,1.9,"714",57.6
"55107",84045,"col","Aquia",-77.264999,38.417999,"Clifton Beach",NA,"",10,"Thanetian","",59.2,56,41194,"gp_mid",-47.65,39.36,"109",57.6
"56039",85320,"col","Tuscahoma",-87.533333,31.85,"AWi-23 Replicate 1",NA,"",17,"Thanetian","",59.2,56,28506,"gp_mid",-60.37,35.87,"109",57.6
"56041",85322,"col","Tuscahoma",-87.533333,31.85,"AWi-23 Replicate 2",NA,"",23,"Thanetian","",59.2,56,28506,"gp_mid",-60.37,35.87,"109",57.6
"56562",86176,"col","Tuscahoma",-87.416664,31.783333,"AMo-2 Rep 1",NA,"",24,"Thanetian","",59.2,56,28506,"gp_mid",-60.28,35.78,"109",57.6
"56563",86177,"col","Tuscahoma",-87.416664,31.783333,"AMo-2 Rep 2",NA,"",27,"Thanetian","",59.2,56,28506,"gp_mid",-60.28,35.78,"109",57.6
"56565",86179,"col","Tuscahoma",-87.416664,31.783333,"AMo-2 Rep 3",NA,"",29,"Thanetian","",59.2,56,28506,"gp_mid",-60.28,35.78,"109",57.6
"56606",86295,"col","",-6.566667,32.866669,"Lithoptila type specimen",NA,"Grand Daoui; Oued Zem",5,"Thanetian","",59.2,56,29076,"gp_mid",0.63,22.03,"707",57.6
"56853",86611,"col","",44,-22.583332,"Andranonkira Plateau",NA,"",1,"Thanetian","",59.2,56,29108,"gp_mid",41.81,-39.82,"702",57.6
"57766",87827,"col","",-87.466667,31.799999,"Greggs Landing, Greggs Landing Marl",NA,"",2,"Thanetian","",59.2,56,13490,"gp_mid",-60.32,35.81,"109",57.6
"57767",87828,"col","",-87.466667,31.799999,"Greggs Landing, Bells Landing Marl",NA,"",3,"Thanetian","",59.2,56,13490,"gp_mid",-60.32,35.81,"109",57.6
"57769",87829,"col","",-87.533333,31.833332,"Lower Peach Tree Landing, Greggs Landing Marl",NA,"",1,"Thanetian","",59.2,56,13490,"gp_mid",-60.38,35.85,"109",57.6
"57770",87831,"col","",-87.533333,31.833332,"Lower Peach Tree Landing, Bells Landing Marl",NA,"",1,"Thanetian","",59.2,56,13490,"gp_mid",-60.38,35.85,"109",57.6
"57844",87925,"col","Conglomérat de Cernay",4.1,49.266666,"Cernay",NA,"Cernay-lès-Reims; carrières Lemoine; Lemoine Quarry",52,"Thanetian","",59.2,56,29562,"gp_mid",11.49,39.21,"315",57.6
"57856",87943,"col","",4.15,49.266666,"Lentille de Berru",NA,"Berru bed 4",15,"Thanetian","",59.2,56,1635,"gp_mid",11.53,39.21,"315",57.6
"57867",87955,"col","",4.05,49.166668,"Calcaire de Rilly near Reims",NA,"",3,"Thanetian","",59.2,56,1635,"gp_mid",11.44,39.11,"315",57.6
"58031",88183,"col","",18.616667,49.216667,"Hricovske Podhradie, loc. 51",NA,"Reef 659",40,"Thanetian","",59.2,56,29614,"gp_mid",23.67,38.79,"305",57.6
"58032",88184,"col","",18.683332,49.233334,"Hradisko, loc. 66",NA,"Reef 659",38,"Thanetian","",59.2,56,29614,"gp_mid",23.72,38.81,"305",57.6
"58033",88185,"col","",18.450001,49.116669,"Povazska Bystrica, loc. 36",NA,"Reef 660",38,"Thanetian","",59.2,56,29614,"gp_mid",23.53,38.7,"305",57.6
"58122",88272,"col","",18.4,49.099998,"Makovec-Rybarikovo, loc. 33",NA,"Reef 660",45,"Thanetian","",59.2,56,29614,"gp_mid",23.48,38.68,"305",57.6
"58123",88273,"col","",18.616667,49.216667,"Hricovske Podhradie, loc. 55",NA,"Reef 659",35,"Thanetian","",59.2,56,29614,"gp_mid",23.67,38.79,"305",57.6
"58124",88274,"col","",18.616667,49.216667,"Vlcia Jama, loc. 58",NA,"Reef 659",36,"Thanetian","",59.2,56,29614,"gp_mid",23.67,38.79,"305",57.6
"58125",88275,"col","",18.450001,49.099998,"Sväta Helena, loc. 37",NA,"Reef 660",23,"Thanetian","",59.2,56,29614,"gp_mid",23.53,38.68,"305",57.6
"58153",88301,"col","Jbel Guersif",-5.66,31.610001,"Adrar Mgorn 1",NA,"",49,"Thanetian","",59.2,56,29646,"gp_mid",1.06,20.61,"714",57.6
"59267",90072,"col","Coal Canyon",-118.570396,34.113499,"CSUN 354, Garapito Creek",NA,"Garapito Creek; Sylvia Park",10,"Thanetian","",59.2,56,30195,"gp_mid",-89.58,41.78,"105",57.6
"59268",90073,"col","Coal Canyon",-118.570503,34.114498,"CSUN 355, Garapito Creek",NA,"Garapito Creek; Sylvia Park",6,"Thanetian","",59.2,56,30195,"gp_mid",-89.58,41.78,"105",57.6
"59286",90141,"col","Tuscahoma",-87.416664,31.783333,"Bells Rep 1",NA,"AMo-2 of Toulmin",21,"Thanetian","",59.2,56,29915,"gp_mid",-60.28,35.78,"109",57.6
"59287",90142,"col","Tuscahoma",-87.416664,31.783333,"Bells Rep 2",NA,"AMo-2 of Toulmin",19,"Thanetian","",59.2,56,29915,"gp_mid",-60.28,35.78,"109",57.6
"59474",90439,"col","Tuscahoma",-87.366669,31.816668,"AMo-1 Bells Landing",NA,"AMo-1 of Toulmin, 1977",35,"Thanetian","",59.2,56,28119,"gp_mid",-60.22,35.79,"109",57.6
"59735",90818,"col","Tuscahoma",-87.366669,31.816668,"PRI 751",NA,"",84,"Thanetian","",59.2,56,11845,"gp_mid",-60.22,35.79,"109",57.6
"59737",90895,"col","Lefkara",33.666668,35.083332,"Yigitler section, sample YK-54 [Lefkara Fm]",NA,"",25,"Thanetian","",59.2,56,19792,"gp_mid",NA,NA,"coordinates not computable using this model",57.6
"59877",91755,"col","Vincentown",-74.5625,40.048889,"M 155",NA,"",1,"Thanetian","",59.2,56,11845,"gp_mid",-44.37,40.17,"109",57.6
"59888",91120,"col","Pendleton Ferry",-93.699997,31.4,"PRI 2277",NA,"",5,"Thanetian","",59.2,56,11845,"gp_mid",-66.76,37.04,"101",57.6
"59894",91126,"col","Aquia",-77.376389,38.430832,"PRI 3144",NA,"",31,"Thanetian","",59.2,56,11845,"gp_mid",-47.75,39.4,"109",57.6
"59895",91127,"col","Aquia",-77.376389,38.430832,"PRI 3147",NA,"",13,"Thanetian","",59.2,56,11845,"gp_mid",-47.75,39.4,"109",57.6
"60420",91756,"col","Vincentown",-75.068054,39.852222,"M 157",NA,"",9,"Thanetian","",59.2,56,11845,"gp_mid",-44.93,40.12,"109",57.6
"60421",91757,"col","Vincentown",-75.10833,39.762501,"M 158",NA,"",2,"Thanetian","",59.2,56,11845,"gp_mid",-45.01,40.05,"109",57.6
"60425",91761,"col","Vincentown",-74.53083,40.067501,"M 164",NA,"",14,"Thanetian","",59.2,56,11845,"gp_mid",-44.33,40.18,"109",57.6
"60510",91846,"col","Pendleton Ferry",-93.748001,31.468,"Sabine River upstream from highway 6 bridge",NA,"M 261",15,"Thanetian","",59.2,56,11845,"gp_mid",-66.78,37.12,"101",57.6
"60523",91859,"col","Aquia",-77.184441,38.268055,"M 281",NA,"",35,"Thanetian","",59.2,56,11845,"gp_mid",-47.64,39.19,"109",57.6
"60524",91860,"col","Aquia",-77.184441,38.268055,"M 282",NA,"",3,"Thanetian","",59.2,56,11845,"gp_mid",-47.64,39.19,"109",57.6
"60528",91864,"col","Aquia",-77.460556,38.303055,"M 288",NA,"",1,"Thanetian","",59.2,56,11845,"gp_mid",-47.89,39.3,"109",57.6
"60529",91865,"col","Aquia",-77.460556,38.303055,"M 289",NA,"",2,"Thanetian","",59.2,56,11845,"gp_mid",-47.89,39.3,"109",57.6
"60530",91866,"col","Aquia",-77.460556,38.303055,"M 290",NA,"",2,"Thanetian","",59.2,56,11845,"gp_mid",-47.89,39.3,"109",57.6
"60695",92031,"col","Tuscahoma",-87.397224,31.808611,"M 301",NA,"",2,"Thanetian","",59.2,56,11845,"gp_mid",-60.25,35.8,"109",57.6
"60696",92032,"col","Tuscahoma",-87.515556,31.540277,"M 302",NA,"",3,"Thanetian","",59.2,56,11845,"gp_mid",-60.47,35.57,"109",57.6
"60698",92034,"col","Tuscahoma",-87.515556,31.540277,"M 304",NA,"",39,"Thanetian","",59.2,56,11845,"gp_mid",-60.47,35.57,"109",57.6
"60897",92239,"col","Tuscahoma",-93.708611,31.403055,"M 407",NA,"",5,"Thanetian","",59.2,56,11845,"gp_mid",-66.77,37.05,"101",57.6
"60900",92242,"col","Pendleton Ferry",-93.708611,31.403055,"M 409",NA,"",3,"Thanetian","",59.2,56,11845,"gp_mid",-66.77,37.05,"101",57.6
"60935",92279,"col","Tuscahoma",-93.396667,31.73889,"M 80",NA,"",1,"Thanetian","",59.2,56,11845,"gp_mid",-66.32,37.29,"101",57.6
"60938",92281,"col","Marthaville",-93.574997,31.469444,"M 85",NA,"LGS 38",3,"Thanetian","",59.2,56,11845,"gp_mid",-66.61,37.08,"101",57.6
"60955",92302,"col","Marthaville",-93.396667,31.73889,"PRI 52",NA,"",5,"Thanetian","",59.2,56,11845,"gp_mid",-66.32,37.29,"101",57.6
"60958",92305,"col","Marthaville",-93.574997,31.469444,"PRI 55",NA,"",5,"Thanetian","",59.2,56,11845,"gp_mid",-66.61,37.08,"101",57.6
"60960",92307,"col","Pendleton Ferry",-93.824722,31.259443,"PRI 74",NA,"",7,"Thanetian","",59.2,56,11845,"gp_mid",-66.94,36.94,"101",57.6
"60990",92352,"col","Tuscahoma",-87.515556,31.540277,"PRI 790",NA,"",68,"Thanetian","",59.2,56,11845,"gp_mid",-60.47,35.57,"109",57.6
"65513",98257,"col","Tuscahoma",-88.114998,32.058334,"M 298",NA,"",11,"Thanetian","",59.2,56,11845,"gp_mid",-60.87,36.22,"101",57.6
"65560",98304,"col","Tuscahoma",-88.061668,31.935833,"M 653",NA,"",2,"Thanetian","",59.2,56,11845,"gp_mid",-60.86,36.09,"101",57.6
"65587",98331,"col","Tuscahoma",-88.019447,32.146111,"M 656",NA,"",2,"Thanetian","",59.2,56,11845,"gp_mid",-60.74,36.28,"101",57.6
"65609",98365,"col","Tuscahoma",-87.397224,31.808611,"M 661",NA,"",28,"Thanetian","",59.2,56,11845,"gp_mid",-60.25,35.8,"109",57.6
"65615",98371,"col","Tuscahoma",-87.54528,31.840834,"M 667",NA,"",3,"Thanetian","",59.2,56,11845,"gp_mid",-60.39,35.86,"109",57.6
"65621",98377,"col","Tuscahoma",-87.515282,31.918333,"M 668",NA,"",3,"Thanetian","",59.2,56,11845,"gp_mid",-60.33,35.93,"109",57.6
"65622",98378,"col","Tuscahoma",-87.515282,31.918333,"M 669",NA,"",5,"Thanetian","",59.2,56,11845,"gp_mid",-60.33,35.93,"109",57.6
"65623",98379,"col","Tuscahoma",-87.515282,31.918333,"M 670",NA,"",2,"Thanetian","",59.2,56,11845,"gp_mid",-60.33,35.93,"109",57.6
"65652",98409,"col","Tuscahoma",-87.532501,31.840834,"M 22",NA,"",8,"Thanetian","",59.2,56,11845,"gp_mid",-60.37,35.86,"109",57.6
"65861",98634,"col","Tuscahoma",-85.047218,31.609167,"M 699",NA,"",1,"Thanetian","",59.2,56,11845,"gp_mid",-57.99,34.99,"109",57.6
"65862",98635,"col","Tuscahoma",-85.047218,31.609167,"M 700",NA,"",2,"Thanetian","",59.2,56,11845,"gp_mid",-57.99,34.99,"109",57.6
"65919",98692,"col","Pendleton Ferry",-93.484169,31.56889,"LGS 52",NA,"",5,"Thanetian","",59.2,56,35012,"gp_mid",-66.48,37.15,"101",57.6
"65929",98702,"col","Aquia",-76.493332,39.013611,"M 479",NA,"",1,"Thanetian","",59.2,56,11845,"gp_mid",-46.65,39.71,"109",57.6
"66003",98774,"col","Marthaville",-93.396667,31.73889,"M 335",NA,"LGS 26",9,"Thanetian","",59.2,56,11845,"gp_mid",-66.32,37.29,"101",57.6
"66006",98777,"col","Pendleton Ferry",-93.396667,31.73889,"M 473",NA,"LGS 58",9,"Thanetian","",59.2,56,11845,"gp_mid",-66.32,37.29,"101",57.6
"66013",98784,"col","Marthaville",-93.396667,31.73889,"M 79",NA,"",1,"Thanetian","",59.2,56,11845,"gp_mid",-66.32,37.29,"101",57.6
"66045",98816,"col","Marthaville",-99.8125,28.411667,"M 550",NA,"",1,"Thanetian","",59.2,56,11845,"gp_mid",-74.13,35.71,"101",57.6
"66138",98910,"col","Pendleton Ferry",-93.403053,31.613056,"M 474",NA,"LGS 48",5,"Thanetian","",59.2,56,11845,"gp_mid",-66.38,37.17,"101",57.6
"66141",98913,"col","Marthaville",-93.509171,31.716389,"M 477",NA,"LGS 35",4,"Thanetian","",59.2,56,11845,"gp_mid",-66.44,37.29,"101",57.6
"66143",98915,"col","Pendleton Ferry",-93.574997,31.352777,"M 715",NA,"LGS 43",6,"Thanetian","",59.2,56,11845,"gp_mid",-66.65,36.96,"101",57.6
"66144",98916,"col","Marthaville",-93.574997,31.352777,"M 716",NA,"",1,"Thanetian","",59.2,56,11845,"gp_mid",-66.65,36.96,"101",57.6
"66145",98918,"col","Marthaville",-93.484169,31.56889,"M 718",NA,"",1,"Thanetian","",59.2,56,11845,"gp_mid",-66.48,37.15,"101",57.6
"66147",98920,"col","Marthaville",-93.484169,31.56889,"M 720",NA,"LGS 30",5,"Thanetian","",59.2,56,11845,"gp_mid",-66.48,37.15,"101",57.6
"66149",98922,"col","Pendleton Ferry",-93.574997,31.352777,"LGS 42",NA,"",10,"Thanetian","",59.2,56,35012,"gp_mid",-66.65,36.96,"101",57.6
"66150",98923,"col","Marthaville",-93.644165,31.631666,"M 84",NA,"LGS 32",6,"Thanetian","",59.2,56,11845,"gp_mid",-66.61,37.25,"101",57.6
"66153",98927,"col","Marthaville",-93.644165,31.631666,"LGS 36",NA,"",2,"Thanetian","",59.2,56,35012,"gp_mid",-66.61,37.25,"101",57.6
"66155",98929,"col","Pendleton Ferry",-93.574997,31.352777,"M 894",NA,"LGS 49",10,"Thanetian","",59.2,56,11845,"gp_mid",-66.65,36.96,"101",57.6
"66269",99045,"col","Pendleton Ferry",-93.708611,31.403055,"M 837",NA,"",1,"Thanetian","",59.2,56,11845,"gp_mid",-66.77,37.05,"101",57.6
"66441",99260,"col","Tuscahoma",-76.548889,38.953056,"M 728",NA,"",1,"Thanetian","",59.2,56,11845,"gp_mid",-46.73,39.67,"109",57.6
"66447",99266,"col","Aquia",-77.102501,38.522221,"M 484",NA,"",1,"Thanetian","",59.2,56,11845,"gp_mid",-47.45,39.41,"109",57.6
"66455",99273,"col","Aquia",-76.989441,38.395557,"M 731",NA,"",1,"Thanetian","",59.2,56,11845,"gp_mid",-47.4,39.26,"109",57.6
"66456",99274,"col","Aquia",-76.989441,38.395557,"M 732",NA,"",2,"Thanetian","",59.2,56,11845,"gp_mid",-47.4,39.26,"109",57.6
"66458",99276,"col","Aquia",-77.13472,38.546112,"M 734",NA,"",1,"Thanetian","",59.2,56,11845,"gp_mid",-47.47,39.44,"109",57.6
"66460",99278,"col","Aquia",-77.102501,38.522221,"M 865",NA,"",1,"Thanetian","",59.2,56,11845,"gp_mid",-47.45,39.41,"109",57.6
"66462",99280,"col","Aquia",-76.131943,39.271389,"M 342",NA,"",1,"Thanetian","",59.2,56,11845,"gp_mid",-46.2,39.86,"109",57.6
"66464",99282,"col","Aquia",-76.972504,38.700558,"M 121",NA,"",8,"Thanetian","",59.2,56,11845,"gp_mid",-47.25,39.54,"109",57.6
"66465",99283,"col","Aquia",-76.75972,38.968334,"M 489",NA,"",1,"Thanetian","",59.2,56,11845,"gp_mid",-46.93,39.74,"109",57.6
"66466",99284,"col","",-76.748886,38.873611,"M 490",NA,"",1,"Thanetian","",59.2,56,11845,"gp_mid",-46.96,39.65,"109",57.6
"66467",99285,"col","Aquia",-76.90667,38.896111,"M 491",NA,"",1,"Thanetian","",59.2,56,11845,"gp_mid",-47.1,39.71,"109",57.6
"66470",99288,"col","Aquia",-77.071671,38.607777,"M 739",NA,"",3,"Thanetian","",59.2,56,11845,"gp_mid",-47.38,39.48,"109",57.6
"66712",99717,"col","Marthaville",-93.215279,31.715279,"LGS 13",NA,"",4,"Thanetian","",59.2,56,35012,"gp_mid",-66.15,37.22,"101",57.6
"66714",99718,"col","Marthaville",-93.215279,31.715279,"LGS 14",NA,"",3,"Thanetian","",59.2,56,35012,"gp_mid",-66.15,37.22,"101",57.6
"66715",99719,"col","Marthaville",-93.396667,31.73889,"LGS 15",NA,"",2,"Thanetian","",59.2,56,35012,"gp_mid",-66.32,37.29,"101",57.6
"66716",99720,"col","Marthaville",-93.396667,31.73889,"LGS 16",NA,"",4,"Thanetian","",59.2,56,35012,"gp_mid",-66.32,37.29,"101",57.6
"66717",99721,"col","Marthaville",-93.396667,31.73889,"LGS 17",NA,"",6,"Thanetian","",59.2,56,35012,"gp_mid",-66.32,37.29,"101",57.6
"66719",99723,"col","Pendleton Ferry",-93.304726,31.690556,"LGS 55",NA,"",8,"Thanetian","",59.2,56,35012,"gp_mid",-66.25,37.22,"101",57.6
"66720",99724,"col","Marthaville",-93.396667,31.73889,"LGS 19",NA,"",6,"Thanetian","",59.2,56,35012,"gp_mid",-66.32,37.29,"101",57.6
"66721",99725,"col","Marthaville",-93.396667,31.73889,"LGS 21",NA,"",8,"Thanetian","",59.2,56,35012,"gp_mid",-66.32,37.29,"101",57.6
"66722",99726,"col","Marthaville",-93.396667,31.73889,"LGS 22",NA,"",2,"Thanetian","",59.2,56,35012,"gp_mid",-66.32,37.29,"101",57.6
"66723",99727,"col","Marthaville",-93.396667,31.73889,"LGS 23",NA,"",2,"Thanetian","",59.2,56,35012,"gp_mid",-66.32,37.29,"101",57.6
"66724",99728,"col","Marthaville",-93.396667,31.73889,"LGS 24",NA,"",1,"Thanetian","",59.2,56,35012,"gp_mid",-66.32,37.29,"101",57.6
"66725",99729,"col","Marthaville",-93.396667,31.73889,"LGS 25",NA,"",4,"Thanetian","",59.2,56,35012,"gp_mid",-66.32,37.29,"101",57.6
"66727",99731,"col","Marthaville",-93.396667,31.73889,"LGS 28",NA,"",1,"Thanetian","",59.2,56,35012,"gp_mid",-66.32,37.29,"101",57.6
"66728",99732,"col","Marthaville",-93.396667,31.73889,"LGS 29",NA,"",1,"Thanetian","",59.2,56,35012,"gp_mid",-66.32,37.29,"101",57.6
"66729",99733,"col","Marthaville",-93.845833,31.432501,"LGS 39",NA,"",3,"Thanetian","",59.2,56,35012,"gp_mid",-66.9,37.11,"101",57.6
"66750",99758,"col","Marthaville",-93.396667,31.73889,"LGS 31",NA,"",1,"Thanetian","",59.2,56,35012,"gp_mid",-66.32,37.29,"101",57.6
"66751",99759,"col","Marthaville",-93.396667,31.73889,"LGS 33",NA,"",3,"Thanetian","",59.2,56,35012,"gp_mid",-66.32,37.29,"101",57.6
"66755",99763,"col","Marthaville",-93.644165,31.631666,"LGS 34",NA,"",4,"Thanetian","",59.2,56,35012,"gp_mid",-66.61,37.25,"101",57.6
"67705",101117,"col","Tuscahoma",-87.366669,31.816668,"MGS 83",NA,"",1,"Thanetian","",59.2,56,11842,"gp_mid",-60.22,35.79,"109",57.6
"67706",101118,"col","Tuscahoma",-87.5,31.533333,"MGS 84",NA,"",1,"Thanetian","",59.2,56,11842,"gp_mid",-60.46,35.56,"109",57.6
"67711",101123,"col","Marthaville",-93.086388,31.760834,"MGS 95",NA,"LGS 20",9,"Thanetian","",59.2,56,11842,"gp_mid",-66,37.23,"101",57.6
"67712",101124,"col","Marthaville",-93.086388,31.760834,"MGS 96",NA,"LGS 27",3,"Thanetian","",59.2,56,11842,"gp_mid",-66,37.23,"101",57.6
"67714",101126,"col","Pendleton Ferry",-93.574997,31.469444,"M 713",NA,"LGS 40",47,"Thanetian","",59.2,56,11842,"gp_mid",-66.61,37.08,"101",57.6
"67717",101129,"col","Pendleton Ferry",-93.574997,31.469444,"MGS 103",NA,"LGS 51",12,"Thanetian","",59.2,56,11842,"gp_mid",-66.61,37.08,"101",57.6
"67883",101302,"col","Aquia",-77.184441,38.268055,"M 283",NA,"",7,"Thanetian","",59.2,56,11845,"gp_mid",-47.64,39.19,"109",57.6
"67887",101306,"col","Aquia",-77.301941,38.346111,"M 630",NA,"",17,"Thanetian","",59.2,56,11845,"gp_mid",-47.72,39.3,"109",57.6
"67897",101316,"col","Aquia",-77.408333,38.421944,"PRI 1270",NA,"",2,"Thanetian","",59.2,56,11845,"gp_mid",-47.79,39.4,"109",57.6
"67899",101318,"col","Aquia",-77.408333,38.421944,"M 634",NA,"",1,"Thanetian","",59.2,56,11845,"gp_mid",-47.79,39.4,"109",57.6
"67900",101319,"col","Aquia",-77.408333,38.421944,"M 920",NA,"",2,"Thanetian","",59.2,56,11845,"gp_mid",-47.79,39.4,"109",57.6
"67902",101321,"col","Aquia",-77.37056,37.766388,"M 636",NA,"",2,"Thanetian","",59.2,56,11845,"gp_mid",-48.04,38.77,"109",57.6
"67903",101322,"col","Aquia",-77.37056,37.766388,"M 854",NA,"",1,"Thanetian","",59.2,56,11845,"gp_mid",-48.04,38.77,"109",57.6
"67909",101328,"col","Vincentown",-74.656387,39.844444,"PRI 2009",NA,"",4,"Thanetian","",59.2,56,11845,"gp_mid",-44.55,40,"109",57.6
"67921",101340,"col","",-74.53083,40.067501,"M 519",NA,"",1,"Thanetian","",59.2,56,11845,"gp_mid",-44.33,40.18,"109",57.6
"67931",101350,"col","Vincentown",-74,40.243057,"M 162",NA,"",4,"Thanetian","",59.2,56,11845,"gp_mid",-43.75,40.2,"109",57.6
"67942",101361,"col","Aquia",-77.276947,37.317501,"M 852",NA,"",1,"Thanetian","",59.2,56,11845,"gp_mid",-48.14,38.32,"109",57.6
"68715",102400,"col","",27.6,43.150002,"Trustikovo",NA,"",21,"Thanetian","",59.2,56,34737,"gp_mid",29.44,24.12,"308",57.6
"68716",102401,"col","",27.65,43.216667,"Povelyanovo",NA,"",4,"Thanetian","",59.2,56,34737,"gp_mid",29.5,24.16,"308",57.6
"68717",102402,"col","",27.633333,43.166668,"Razdelna",NA,"",1,"Thanetian","",59.2,56,34737,"gp_mid",29.47,24.12,"308",57.6
"68718",102403,"col","",24.766666,43.683334,"Somovit",NA,"",5,"Thanetian","",59.2,56,34737,"gp_mid",27.67,25.52,"308",57.6
"69672",103766,"col","",24.533333,43.349998,"Kurtozhabene",NA,"",2,"Thanetian","",59.2,56,34737,"gp_mid",27.34,25.3,"308",57.6
"69777",103935,"col","",27.283333,43.016666,"Komunari",NA,"",1,"Thanetian","",59.2,56,34737,"gp_mid",29.14,24.1,"308",57.6
"70297",105201,"col","Marthaville",-93.396667,31.73889,"LGS 18",NA,"",5,"Thanetian","",59.2,56,35012,"gp_mid",-66.32,37.29,"101",57.6
"70301",105209,"col","Pendleton Ferry",-93.215279,31.715279,"LGS 60",NA,"",2,"Thanetian","",59.2,56,35012,"gp_mid",-66.15,37.22,"101",57.6
"70581",105503,"col","Pendleton Ferry",-93.574997,31.352777,"LGS 44",NA,"",6,"Thanetian","",59.2,56,35012,"gp_mid",-66.65,36.96,"101",57.6
"70583",105505,"col","Pendleton Ferry",-93.574997,31.352777,"LGS 46",NA,"",5,"Thanetian","",59.2,56,35012,"gp_mid",-66.65,36.96,"101",57.6
"76046",112144,"col","",-81.26667,-4.7,"South of Negritos",NA,"",11,"Thanetian","",59.2,56,36607,"gp_mid",-63.34,-5.18,"201",57.6
"77024",113321,"col","",-6.116667,32.116669,"Sidi Chennane",NA,"Arambourgisuchus khouribgaensis type locality",1,"Thanetian","",59.2,56,36774,"gp_mid",0.81,21.2,"707",57.6
"77286",113632,"col","interbasaltic plant-beds",-6.231,56.342999,"Ardtun Head, Isle of Mull",NA,"",12,"Thanetian","",59.2,56,36962,"gp_mid",3.9,46.83,"303",57.6
"77421",113770,"col","Hannut",4.1,50.299999,"Jeumont",NA,"Eosuchus lerichei type locality",1,"Thanetian","",59.2,56,29875,"gp_mid",11.58,40.24,"315",57.6
"77726",114106,"col","Lakhra",67.883331,26.166668,"Yale-GSP locality W1",NA,"",14,"Thanetian","",59.2,56,37015,"gp_mid",66.29,-6.99,"501",57.6
"80925",118314,"col","",-42.875,-22.838888,"São José de Itaborai",NA,"Companhia Nacional de Cimento Portland quarry",68,"Itaboraian","",59,57,42973,"gp_mid",-27.2,-28.16,"201",58
"83679",121516,"col","Cerrejón",-72.583336,11.130278,"FH0705-FH0712 (Cerrejón Formation)",NA,"",1,"Thanetian","",59.2,56,38750,"gp_mid",-52.52,9.28,"203",57.6
"83680",121517,"col","Bogota",-73.955002,5.076667,"FH0903 (Bogota Formation)",NA,"",1,"Thanetian","",59.2,56,38750,"gp_mid",-54.72,3.47,"203",57.6
"83681",121518,"col","Bogota",-73.855553,5.14,"FH0801 (Bogota Formation)",NA,"",1,"Thanetian","",59.2,56,38750,"gp_mid",-54.62,3.52,"203",57.6
"83682",121519,"col","Bogota",-73.855553,5.137222,"FH0806 (Bogota Formation)",NA,"",1,"Thanetian","",59.2,56,38750,"gp_mid",-54.62,3.52,"203",57.6
"84560",122852,"col","Aquia",-77.274719,38.336109,"Belvedere Beach",NA,"Belvidere Beach",2,"Thanetian","",59.2,56,39155,"gp_mid",-47.7,39.28,"109",57.6
"85100",123511,"col","Vincentown",-74.599998,39.259998,"Ocean City (NJSM)",NA,"",1,"Thanetian","",59.2,56,34880,"gp_mid",-44.76,39.44,"109",57.6
"85101",123512,"col","Vincentown",-74.748611,39.933887,"Vincentown",NA,"Crocodilus clavirostris type",2,"Thanetian","",59.2,56,34880,"gp_mid",-44.59,40.11,"109",57.6
"85103",123514,"col","Aquia",-76.986946,38.701111,"USNM Eosuchus minor specimens",NA,"",1,"Thanetian","",59.2,56,34880,"gp_mid",-47.26,39.55,"109",57.6
"85104",123515,"col","Aquia",-77.300003,38.400002,"USNM Eosuchus minor specimens",NA,"",1,"Thanetian","",59.2,56,34880,"gp_mid",-47.69,39.35,"109",57.6
"85424",123874,"col","Lower Aquia",-76.848892,38.913891,"Landover Mall",NA,"",1,"Thanetian","",59.2,56,39866,"gp_mid",-47.04,39.71,"109",57.6
"85655",124191,"col","Aquia",-77.269165,38.46389,"Liverpool Point",NA,"",9,"Thanetian","",59.2,56,39882,"gp_mid",-47.64,39.4,"109",57.6
"85675",124225,"col","",-109.169998,45.145,"Foster Gulch, Eagle coal mine, Bear Creek",NA,"",1,"Thanetian","",59.2,56,5055,"gp_mid",-76.95,53.91,"101",57.6
"86273",124965,"col","Vincentown",-74.752045,39.938969,"Rancocas Creek, south branch",NA,"Vincentown",19,"Thanetian","",59.2,56,40566,"gp_mid",-44.59,40.12,"109",57.6
"86274",124966,"col","Vincentown",-74.784264,39.92564,"Medford Farms",NA,"",22,"Thanetian","",59.2,56,39861,"gp_mid",-44.63,40.11,"109",57.6
"86373",125070,"col","Sentinel Butte",-103.794998,47.630001,"Sheep Butte",NA,"",2,"Thanetian","",59.2,56,40538,"gp_mid",-69.48,54.91,"101",57.6
"86449",177668,"col","Santa Susana",-118.73333,34.283333,"UCMP 7015. Santa Susana",NA,"UCLA 7015",2,"Thanetian","",59.2,56,58779,"gp_mid",-89.71,41.97,"105",57.6
"87879",127180,"col","Aquia",-77.165558,38.576111,"Mattawoman Creek",NA,"",1,"Thanetian","",59.2,56,41357,"gp_mid",-47.49,39.48,"109",57.6
"88662",128411,"col","Taizicun",89.76667,42.383331,"Shanshan",NA,"Mongolemys turfanensis type specimen locality; IVPP loc. 66013",1,"Thanetian","",59.2,56,41938,"gp_mid",86.45,37.93,"407",57.6
"92187",133215,"col","Djbel",-5.605556,31.507221,"Talazit",NA,"",1,"Thanetian","",59.2,56,42870,"gp_mid",1.08,20.5,"714",57.6
"92212",133243,"col","Jbel Guersif",-5.66,31.610001,"Ilimzi",NA,"",3,"Thanetian","",59.2,56,42890,"gp_mid",1.06,20.61,"714",57.6
"92213",133244,"col","",-5.66,31.610001,"Timadriouine",NA,"",1,"Thanetian","",59.2,56,42890,"gp_mid",1.06,20.61,"714",57.6
"95204",137125,"col","",4.033333,49.25,"Montchenot East",NA,"Les Monts-Martin; Mont-Chenot",24,"Thanetian","",59.2,56,43828,"gp_mid",11.43,39.2,"315",57.6
"95205",137126,"col","",4.033333,49.25,"Montchenot West",NA,"Les Monts-Martin; Mont-Chenot",9,"Thanetian","",59.2,56,43828,"gp_mid",11.43,39.2,"315",57.6
"95211",137132,"col","Châlons-sur-Vesle",3.9175,49.290001,"Châlons-sur-Vesle",NA,"",2,"Thanetian","",59.2,56,43830,"gp_mid",11.34,39.24,"315",57.6
"95273",137197,"col","Jbel Guersif",-5.66,31.610001,"Adrar Mgorn 1bis",NA,"",6,"Thanetian","",59.2,56,43865,"gp_mid",1.06,20.61,"714",57.6
"95565",137533,"col","Ninniyur",79.204445,11.292778,"Mattur ",NA,"",2,"Thanetian","",59.2,56,43995,"gp_mid",71.74,-24.54,"501",57.6
"95566",137534,"col","Ninniyur",79.48333,11.533333,"Ninniyur village",NA,"",1,"Thanetian","",59.2,56,43995,"gp_mid",72.1,-24.39,"501",57.6
"95567",137535,"col","Ninniyur",79.283333,11.416667,"Sendurai ",NA,"",1,"Thanetian","",59.2,56,43995,"gp_mid",71.86,-24.45,"501",57.6
"95805",137805,"col","",2.9,46.099998,"Menat (Dangeard Bakouline collection, Universite de Lyon 1)",NA,"",3,"Thanetian","",59.2,56,44067,"gp_mid",10.2,36.11,"305",57.6
"96224",138239,"col","Jibou",23.261389,47.264999,"Jibou A (JBA)",NA,"Calcaires de Rona; Botanic Garden of Jibou",10,"Thanetian","",59.2,56,44195,"gp_mid",28.51,29.18,"308",57.6
"96225",138240,"col","Jibou",23.298611,47.284721,"Rona 1 (RN1)",NA,"Calcaires de Rona; River Somes",12,"Thanetian","",59.2,56,44195,"gp_mid",28.55,29.18,"308",57.6
"96226",138241,"col","Jibou",23.298611,47.284721,"Rona 2 (RN2)",NA,"Calcaires de Rona; River Somes",7,"Thanetian","",59.2,56,44195,"gp_mid",28.55,29.18,"308",57.6
"96227",138242,"col","Jibou",23.261389,47.264999,"Jibou B (JBB1)",NA,"JBB; Calcaires de Rona; Botanic Garden of Jibou",1,"Thanetian","",59.2,56,44196,"gp_mid",28.51,29.18,"308",57.6
"96228",138243,"col","Jibou",23.261389,47.264999,"Jibou B (JBB2)",NA,"JBB; Calcaires de Rona; Botanic Garden of Jibou",1,"Thanetian","",59.2,56,44196,"gp_mid",28.51,29.18,"308",57.6
"96229",138244,"col","Jibou",23.261389,47.264999,"Jibou B (JBB3)",NA,"JBB; Calcaires de Rona; Botanic Garden of Jibou",1,"Thanetian","",59.2,56,44196,"gp_mid",28.51,29.18,"308",57.6
"96230",138245,"col","Jibou",23.261389,47.264999,"Jibou B (JBB5)",NA,"JBB; Calcaires de Rona; Botanic Garden of Jibou",1,"Thanetian","",59.2,56,44196,"gp_mid",28.51,29.18,"308",57.6
"100078",142748,"col","",-87.341393,32,"Prairie Creek and Pine Barren section / Prairie Creek and Allenton",NA,"",26,"Thanetian","",59.2,56,45555,"gp_mid",-60.12,35.96,"109",57.6
"100079",142749,"col","",-87.202499,31.969444,"Estelle",NA,"",5,"Thanetian","",59.2,56,45555,"gp_mid",-59.99,35.9,"109",57.6
"102147",145510,"col","Fulra Dam",68.64389,23.576944,"Narayan Sarovar Rd [Fulra Dam Fm]",NA,"",15,"Thanetian","",59.2,56,47038,"gp_mid",65.97,-9.66,"501",57.6
"107261",151895,"col","Kolosh",42.833332,37.216667,"Shiranish village, Kolosh Fm",NA,"",5,"Thanetian","",59.2,56,48535,"gp_mid",43.49,17.35,"503",57.6
"107983",153143,"col","Pavy",-64.397003,81.737503,"Watercourse Bay, Ellesmere Island",NA,"",1,"Thanetian","",59.2,56,49341,"gp_mid",10.18,70.08,"106",57.6
"108140",153341,"col","",-85.816002,31.719999,"Well near Brundidge Depot (USGS locality 25208)",NA,"",2,"Thanetian","",59.2,56,49378,"gp_mid",-58.71,35.29,"109",57.6
"108146",153348,"col","Vincentown",-74.749001,39.9856,"Stokely Canning Factory, north bank of Rancocas Creek",NA,"",1,"Thanetian","",59.2,56,49378,"gp_mid",-44.57,40.16,"109",57.6
"108703",154088,"col","",-2.259722,43.299999,"Zumaya section, U1, 17m, Samples Z4",NA,"",45,"Thanetian","",59.2,56,49947,"gp_mid",6.21,33.31,"304",57.6
"108704",154089,"col","",-2.259722,43.299999,"Zumaya section, U2, Samples Z5, Thickness 18 m",NA,"",45,"Thanetian","",59.2,56,49947,"gp_mid",6.21,33.31,"304",57.6
"109716",155340,"col","Ulukla",35,37.616669,"Ulukla Basin, Ulukla Fm, Northern Margin: Imrahor Log",NA,"",6,"Thanetian","",59.2,56,50684,"gp_mid",37.6,24.06,"504",57.6
"109737",155376,"col","Ulukla",35,37.616669,"Ulukla Basin, Ulukla Fm, Imrahor Log, Back Reef Facies",NA,"",15,"Thanetian","",59.2,56,50684,"gp_mid",37.6,24.06,"504",57.6
"109738",155377,"col","Ulukla",35,37.616669,"Ulukla Basin, Ulukla Fm, Imrahor Log, Back Reef Facies",NA,"",9,"Thanetian","",59.2,56,50684,"gp_mid",37.6,24.06,"504",57.6
"109742",155381,"col","Ulukla",35,37.616669,"Ulukla Fm, between the Ardçl and mrahor logs",NA,"",8,"Thanetian","",59.2,56,50684,"gp_mid",37.6,24.06,"504",57.6
"110031",155900,"col","Salt Mountain Limestone",-87.916664,31.433332,"USGS Loc. 2646 - Salt Mountain [Salt Mountain Lmst]",NA,"",2,"Thanetian","",59.2,56,32912,"gp_mid",-60.91,35.57,"109",57.6
"110032",155901,"col","Salt Mountain Limestone",-87.916664,31.433332,"USGS Loc. 13395 - Richmond Branch [Salt Mountain Lmst]",NA,"",2,"Thanetian","",59.2,56,32912,"gp_mid",-60.91,35.57,"109",57.6
"110630",157012,"col","Cabo de Lata",-3.829167,43.487499,"Cabo Mayor 10",NA,"",1,"Thanetian","",59.2,56,45052,"gp_mid",4.89,33.65,"304",57.6
"110633",157015,"col","Cabo de Lata",-1.776111,42.91111,"Navarra Casas de Oraien",NA,"",8,"Thanetian","",59.2,56,45052,"gp_mid",6.57,32.88,"304",57.6
"110641",157024,"col","Cabo de Lata",-1.788611,42.915558,"Navarra Larumbe",NA,"",5,"Thanetian","",59.2,56,45052,"gp_mid",6.56,32.88,"304",57.6
"112818",160381,"col","Hannut",5.013333,50.679169,"Wansin [Hannut Fm]",NA,"",1,"Thanetian","",59.2,56,52290,"gp_mid",12.38,40.58,"315",57.6
"112822",160387,"col","",63.207222,52.969444,"Sokolovsky Quarry",NA,"",1,"Thanetian","",59.2,56,52290,"gp_mid",60.41,44.79,"402",57.6
"114272",162205,"col","",-6.231,56.342999,"Isle of Mull (Seward collection)",NA,"",1,"Thanetian","",59.2,56,5043,"gp_mid",3.9,46.83,"303",57.6
"114276",162250,"col","Kamchik",163.781387,60.915833,"Unspecified localities [Kamchik Fm]",NA,"",8,"Thanetian","",59.2,56,52858,"gp_mid",153.15,70.64,"405",57.6
"116444",165994,"col","Aquia",-76.75,38.82,"Upper Marlboro (Aquia Fm)",NA,"",1,"Thanetian","",59.2,56,54247,"gp_mid",-46.98,39.6,"109",57.6
"116445",165995,"col","Aquia",-76.794998,38.865002,"3 miles west of Leeland (Maryland Geological Survey coll)",NA,"",1,"Thanetian","",59.2,56,54247,"gp_mid",-47.01,39.65,"109",57.6
"116446",165996,"col","Aquia",-76.477997,38.990002,"Mouth of Severn River, opposite Annapolis",NA,"",1,"Thanetian","",59.2,56,54247,"gp_mid",-46.65,39.68,"109",57.6
"116485",166042,"col","",-119.035004,34.441002,"UCMP 3763, Simi Hills, Calabasas",NA,"",1,"Thanetian","",59.2,56,54289,"gp_mid",-90.01,42.17,"105",57.6
"116493",166081,"col","Soldado",-61.349998,10.08,"Marac Quarry (Rutsch locality 22)",NA,"",3,"Thanetian","",59.2,56,27690,"gp_mid",-41.62,6.74,"201",57.6
"116495",166086,"col","Santa Susana",-118.724998,34.255001,"UCMP 7016, Simi Valley, Santa Susana",NA,"",1,"Thanetian","",59.2,56,54289,"gp_mid",-89.71,41.94,"105",57.6
"116499",166096,"col","Santa Susana",-118.735001,34.244999,"UCMP 3820, Simi Hills, Calabasas",NA,"",1,"Thanetian","",59.2,56,54289,"gp_mid",-89.73,41.94,"105",57.6
"117063",167205,"col","Aquia",-77.010399,38.7435,"Fort Washington Construction Site",NA,"",1,"Thanetian","",59.2,56,54562,"gp_mid",-47.27,39.59,"109",57.6
"117552",167877,"col","Salamanca",-67.1175,-45.403889,"Puerto Visser - Nivel 151",NA,"",1,"Thanetian","",59.2,56,54874,"gp_mid",-56.82,-47.34,"291",57.6
"117554",167879,"col","Río Chico",-67.1175,-45.403889,"Puerto Visser - Nivel 115",NA,"",1,"Thanetian","",59.2,56,54874,"gp_mid",-56.82,-47.34,"291",57.6
"117555",167880,"col","Río Chico",-67.1175,-45.403889,"Puerto Visser - Nivel 142",NA,"",1,"Thanetian","",59.2,56,54874,"gp_mid",-56.82,-47.34,"291",57.6
"117595",167921,"col","Salamanca",-67.1175,-45.403889,"Puerto Visser",NA,"",26,"Thanetian","",59.2,56,54876,"gp_mid",-56.82,-47.34,"291",57.6
"117602",167933,"col","",12.985,47.938,"Kch 6, Kroisbach, Haunsberg near St. Pankraz",NA,"",1,"Thanetian","",59.2,56,29379,"gp_mid",18.89,37.59,"305",57.6
"117603",167934,"col","",12.985,47.938,"Kroisbachgraben, Salzburg",NA,"",1,"Thanetian","",59.2,56,54938,"gp_mid",18.89,37.59,"305",57.6
"117614",167948,"col","",1.750833,6.290556,"Adabion (Oppenheim collection)",NA,"",18,"Thanetian","",59.2,56,28131,"gp_mid",1.83,-5.63,"714",57.6
"117783",168382,"col","Soldado",-61.459,10.287,"Vista Bella Estate (Rutsch locality 25)",NA,"",1,"Thanetian","",59.2,56,27690,"gp_mid",-41.69,6.95,"201",57.6
"119437",170996,"col","Sepultura",-115.533333,29.783333,"Sepultura Formation, Mesa San Carlos",NA,"",10,"Thanetian","",59.2,56,55653,"gp_mid",NA,NA,"coordinates not computable using this model",57.6
"120597",172933,"col","Garra",31.606667,23.415277,"Bir Dungul (section B) (=BDB)",NA,"",2,"Thanetian","",59.2,56,56227,"gp_mid",32.96,6.69,"715",57.6
"120598",172934,"col","Garra",31.342222,23.2925,"Lake Nasser",NA,"",2,"Thanetian","",59.2,56,56227,"gp_mid",32.71,6.59,"715",57.6
"120729",173476,"col","Pendleton",-93.5,31.466667,"Sabine Parish",NA,"",27,"Thanetian","",59.2,56,56523,"gp_mid",-66.53,37.05,"101",57.6
"120730",173477,"col","Marthaville",-93.5,31.466667,"Sabine Parish",NA,"",0,"Thanetian","",59.2,56,56523,"gp_mid",-66.53,37.05,"101",57.6
"122217",176065,"col","Cayara",-66.530266,-19.045691,"Wila Apacheta",NA,"Vela Pachita",5,"Thanetian","",59.2,56,19694,"gp_mid",-50.78,-21.43,"201",57.6
"122311",176206,"col","Kamyshin",44.416668,41.316666,"Loznoe",NA,"",4,"Thanetian","",59.2,56,57846,"gp_mid",46.19,31.64,"511",57.6
"122494",176456,"col","Sepultura",-115.533333,29.783333,"PU 1334 – Float material along the southern branch of Cajiloa Creek",NA,"",17,"Thanetian","",59.2,56,58068,"gp_mid",NA,NA,"coordinates not computable using this model",57.6
"122495",176457,"col","Sepultura",-115.522057,29.758005,"PU 1300-2 - 1.6 km north and 3.7 km east of intersection of Cajiloa Creek",NA,"",4,"Thanetian","",59.2,56,58068,"gp_mid",NA,NA,"coordinates not computable using this model",57.6
"123398",177978,"col","Sables de Bracheux",2.154167,49.358334,"Abbecourt",NA,"",7,"Thanetian","",59.2,56,58869,"gp_mid",9.87,39.39,"315",57.6
"123463",178041,"col","Châlons-sur-Vesle",3.82,49.290001,"Jonchery-sur-Vesle",NA,"",14,"Thanetian","",59.2,56,58192,"gp_mid",11.26,39.25,"315",57.6
"123498",178086,"col","",0.033333,49.325001,"Chenay",NA,"",34,"Thanetian","",59.2,56,26566,"gp_mid",8.08,39.47,"305",57.6
"125446",180732,"col","",143.179001,-38.726002,"North of Pebble Point",NA,"",1,"Thanetian","",59.2,56,60019,"gp_mid",163.4,-58.83,"801",57.6
"125447",180733,"col","Pebble Point",143.184998,-38.731998,"Pebble Point (AM cephalopod collection)",NA,"",1,"Thanetian","",59.2,56,60019,"gp_mid",163.41,-58.84,"801",57.6
"125448",180734,"col","Pebble Point",143.184998,-38.731998,"Pebble Point (Tate Museum collection)",NA,"",1,"Thanetian","",59.2,56,60019,"gp_mid",163.41,-58.84,"801",57.6
"125501",180791,"col","",4.03,49.225555,"Louvois",NA,"20 km south of Reims",6,"Thanetian","",59.2,56,60040,"gp_mid",11.43,39.17,"315",57.6
"125669",181073,"col","",3.72,48.720001,"Sézanne (Munier-Chalmas collection)",NA,"",5,"Thanetian","",59.2,56,60151,"gp_mid",11.12,38.68,"305",57.6
"126470",182623,"col","Navarri",0.782778,42.268612,"Campo",NA,"",1,"Thanetian","",59.2,56,60814,"gp_mid",8.69,32,"304",57.6
"127204",183771,"col","Sables de Bracheux",2.154167,49.358334,"Abbecourt (Pacaud collection)",NA,"",1,"Thanetian","",59.2,56,61368,"gp_mid",9.87,39.39,"315",57.6
"127237",183804,"col","",1.98,49.279999,"Remise Madame, Bachivillers (Pacaud collection)",NA,"",1,"Thanetian","",59.2,56,61368,"gp_mid",9.71,39.32,"305",57.6
"127238",183805,"col","",1.98,49.279999,"Remise Madame, Bachivillers (Pons collection)",NA,"",1,"Thanetian","",59.2,56,61368,"gp_mid",9.71,39.32,"305",57.6
"127353",183922,"col","Dungan",70.510002,30.415001,"Fossil Bed F.2712, Zinda Pir",NA,"",1,"Thanetian","",59.2,56,599,"gp_mid",69.99,-3.86,"501",57.6
"127435",184012,"col","Santa Susana",-118.555,34.084999,"LACMIP 7060, between Temescal and Santa Ynez canyons",NA,"",1,"Thanetian","",59.2,56,58450,"gp_mid",-89.57,41.75,"105",57.6
"127436",184013,"col","Santa Susana",-118.557999,34.084999,"LACMIP 10508, Trailer Canyon",NA,"",1,"Thanetian","",59.2,56,58450,"gp_mid",-89.57,41.75,"105",57.6
"127437",184014,"col","Santa Susana",-118.553802,34.091,"LACMIP 11717, Quarry Canyon",NA,"",1,"Thanetian","",59.2,56,58450,"gp_mid",-89.56,41.76,"105",57.6
"127440",184017,"col","Santa Susana",-118.695,34.252998,"LACMIP 21607, Simi Valley",NA,"",1,"Thanetian","",59.2,56,58450,"gp_mid",-89.68,41.94,"105",57.6
"127500",184082,"col","",68.188332,25.676666,"Stn 1, Old Indus Coal pit",NA,"",1,"Thanetian","",59.2,56,61516,"gp_mid",66.36,-7.55,"501",57.6
"127502",184084,"col","",68.203613,25.702223,"Stn 2, Sarwar Coal pit",NA,"",1,"Thanetian","",59.2,56,61516,"gp_mid",66.39,-7.53,"501",57.6
"127503",184085,"col","",68.188057,25.420834,"Stn 3, Khnu Brohi coal pit",NA,"",2,"Thanetian","",59.2,56,61516,"gp_mid",66.27,-7.79,"501",57.6
"127667",184300,"col","Bald Head Shoals",-78.269997,33.759998,"Cape Fear Arch, Long Bay ship channel, core BS92-12",NA,"",1,"Thanetian","",59.2,56,61604,"gp_mid",-50.55,35.23,"109",57.6
"127698",184446,"col","",32.060001,39.400002,"Kirkkavak Hill sample 08.K.11.1",NA,"",1,"Thanetian","",59.2,56,61799,"gp_mid",35.44,29.14,"510",57.6
"127699",184447,"col","",32.060001,39.400002,"Kirkkavak Hill sample 08.K.2.1",NA,"",1,"Thanetian","",59.2,56,61799,"gp_mid",35.44,29.14,"510",57.6
"127979",184810,"col","",12.985,47.938,"Kch 8, Kroisbach, Haunsberg near St. Pankraz",NA,"",1,"Thanetian","",59.2,56,56314,"gp_mid",18.89,37.59,"305",57.6
"127999",184830,"col","Sables de Bracheux",2.154167,49.358334,"Abbecourt (Deshayes collection)",NA,"",2,"Thanetian","",59.2,56,61542,"gp_mid",9.87,39.39,"315",57.6
"128000",184831,"col","Sables de Bracheux",2.033,49.474998,"Bracheux (Deshayes collection)",NA,"",1,"Thanetian","",59.2,56,61542,"gp_mid",9.78,39.51,"315",57.6
"128137",185139,"col","Santa Susana",-118.539497,34.084999,"LACMIP 26897, Temescal Canyon",NA,"",1,"Thanetian","",59.2,56,58450,"gp_mid",-89.55,41.75,"105",57.6
"128170",185193,"col","Santa Susana",-118.744499,34.242001,"CSUN 1342, Runkle Canyon",NA,"",7,"Thanetian","",59.2,56,62128,"gp_mid",-89.74,41.93,"105",57.6
"128171",185194,"col","Santa Susana",-118.745003,34.242001,"UCMP 3792, Runkle Canyon",NA,"",3,"Thanetian","",59.2,56,62128,"gp_mid",-89.74,41.93,"105",57.6
"128172",185195,"col","Santa Susana",-118.709999,34.25,"UCMP 7009, Meier Canyon",NA,"",2,"Thanetian","",59.2,56,62128,"gp_mid",-89.7,41.94,"105",57.6
"128176",185199,"col","Coal Canyon",-118.570396,34.113499,"UCLA 7108 - Garapito Creek [Coal Canyon Fm]",NA,"LACMIP 27108",2,"Thanetian","",59.2,56,56522,"gp_mid",-89.58,41.78,"105",57.6
"128177",185200,"col","Santa Susana",-118.765503,34.224998,"CSUN 1290, Bus Canyon",NA,"",3,"Thanetian","",59.2,56,56522,"gp_mid",-89.76,41.92,"105",57.6
"129280",186974,"col","Williamsburg",-79.643738,33.279495,"Martin Marietta Berkeley Quarry -Paleocene level",NA,"Cross Quarry, Martin Marietta Aggregates Quarry",8,"Thanetian","",59.2,56,62708,"gp_mid",-52.06,35.14,"109",57.6
"129667",187613,"col","Moseley Creek",-77.446503,35.294998,"Mosley Creek, route 55 bridge",NA,"",2,"Thanetian","",59.2,56,62993,"gp_mid",-49.14,36.46,"109",57.6
"129668",187614,"col","Moseley Creek",-77.444,35.2925,"Mosley Creek, south of route 55 bridge",NA,"",1,"Thanetian","",59.2,56,62993,"gp_mid",-49.14,36.46,"109",57.6
"129669",187615,"col","Moseley Creek",-77.445,35.292999,"Spoil pits adjacent to Mosley Creek",NA,"",1,"Thanetian","",59.2,56,62993,"gp_mid",-49.14,36.46,"109",57.6
"130839",190086,"col","Kakara",77.097,30.905001,"Bakhalag-Bughar",NA,"near the villages Kog, Ghanagughat and Kalharan",5,"Thanetian","",59.2,56,63383,"gp_mid",75.54,-5.18,"501",57.6
"132320",193035,"col","Santa Susana",-118.737999,34.248001,"Southwest of Santa Susana",NA,"Locality 4 of Waring 1917, LSJU 4",39,"Thanetian","",59.2,56,65473,"gp_mid",-89.73,41.94,"105",57.6
"132321",193036,"col","Coal Canyon",-118.626648,34.05151,"Locality 5 (of Waring 1917) - Santa Monica Mountains [Coal Canyon Fm]",NA,"",9,"Thanetian","",59.2,56,27071,"gp_mid",-89.65,41.73,"105",57.6
"132323",193038,"col","Coal Canyon",-118.648491,34.059273,"Locality 7 (of Waring 1917) - Santa Monica Mountains [Coal Canyon Fm]",NA,"",3,"Thanetian","",59.2,56,27071,"gp_mid",-89.68,41.74,"105",57.6
"132431",193460,"col","",5.233333,50.566666,"Vinalmont",NA,"",3,"Thanetian","",59.2,56,65726,"gp_mid",12.55,40.46,"315",57.6
"132623",194122,"col","Kakara",77,31.066668,"Kakara village",NA,"",4,"Thanetian","",59.2,56,63383,"gp_mid",75.51,-5,"501",57.6
"133911",196713,"col","Chickaloon",-148.949997,61.740002,"Chickaloon amber, Evan Jones Mine",NA,"",13,"Thanetian","",59.2,56,66950,"gp_mid",-113.89,75.51,"125",57.6
"134751",198239,"col","Saratov beds",43.975555,48.725834,"Karpovka",NA,"",3,"Thanetian","",59.2,56,67532,"gp_mid",45.01,39,"302",57.6
"135472",199921,"col","Tarawan",30.692223,25.731112,"Naqb El Rufuf, bed 12",NA,"",2,"Thanetian","",59.2,56,67989,"gp_mid",32.34,9.07,"715",57.6
"135474",199923,"col","Tarawan",30.731388,25.859444,"Um El Ghanayim, bed 6",NA,"",2,"Thanetian","",59.2,56,67989,"gp_mid",32.39,9.19,"715",57.6
"136415",201914,"col","",74.01667,8.116667,"Site 219",NA,"",5,"Thanetian","",59.2,56,69125,"gp_mid",NA,NA,"coordinates not computable using this model",57.6
"137990",204137,"col","Santa Susana",-118.735001,34.244999,"UCMP 3773, Simi Hills, Calabasas",NA,"",1,"Thanetian","",59.2,56,54289,"gp_mid",-89.73,41.94,"105",57.6
"138867",205349,"col","Sepultura",-115.522057,29.758005,"PU 1305 (=PU 1306, PU 1307)",NA,"",1,"Thanetian","",59.2,56,58870,"gp_mid",NA,NA,"coordinates not computable using this model",57.6
"138886",205391,"col","Simi",-122.075241,37.998032,"Pacheco, north",NA,"",1,"Thanetian","",59.2,56,66330,"gp_mid",-91.06,47.22,"130",57.6
"138887",205392,"col","Simi",-122.134132,38.019367,"Martinez, near",NA,"",2,"Thanetian","",59.2,56,66330,"gp_mid",-91.12,47.25,"130",57.6
"138888",205393,"col","San Francisquito",-117.846756,34.422424,"UCMP loc. 2245, Pinyon Ridge",NA,"Rock Creek, Big Rock Creek",14,"Thanetian","",59.2,56,72882,"gp_mid",-88.71,41.98,"105",57.6
"138889",205394,"col","Simi",-118.723427,34.264172,"Meier Canyon",NA,"UCR 4573, UCR 6668, UCR 6670, UCR 6671, UCR 6682, UCR 6805, UCR 6806, UCR 6825, UCR 6873, UCR 6899, UCR, 7319, 7320",16,"Thanetian","",59.2,56,66330,"gp_mid",-89.71,41.95,"105",57.6
"138890",205395,"col","Simi",-118.744537,34.256947,"Runkle Canyon",NA,"UCR 4579, UCR 6832",2,"Thanetian","",59.2,56,66330,"gp_mid",-89.73,41.95,"105",57.6
"138918",205434,"col","Seguin",-96.769997,31.02,"BR-PCR",NA,"Brazos River",1,"Thanetian","",59.2,56,28119,"gp_mid",-70.05,37.46,"101",57.6
"138939",205455,"col","Weches",-97.470001,30.18,"Dry Creek",NA,"Navosota River",74,"Thanetian","",59.2,56,28119,"gp_mid",-71.08,36.83,"101",57.6
"138986",205502,"col","Seguin",-97.480003,30.18,"MossB",NA,"Seguin type locality, moss branch\r\n\r\n\r\n\r\n",3,"Thanetian","",59.2,56,28119,"gp_mid",-71.09,36.83,"101",57.6
"138998",205514,"col","Seguin",-96.870003,30.01,"PCW",NA,"Pond Creek\r\n\r\n\r\n\r\n\r\n\r\n\r\n\r\n\r\n\r\n",1,"Thanetian","",59.2,56,28119,"gp_mid",-70.52,36.52,"101",57.6
"139014",205530,"col","Seguin",-97.080002,30.26,"SBS",NA,"Solomons Branch\r\n",21,"Thanetian","",59.2,56,28119,"gp_mid",-70.65,36.81,"101",57.6
"139038",205554,"col","Las Virgenes",-118.792961,34.23814,"Simi Hills, Las Virgenes Sandstone",NA,"UCR 6683, UCR 6887",3,"Thanetian","",59.2,56,66330,"gp_mid",-89.79,41.94,"105",57.6
"140012",206991,"col","Williamsburg",-79.644447,33.275555,"Jamestown Quarry, Chicora Member",NA,"",1,"Thanetian","",59.2,56,71195,"gp_mid",-52.07,35.13,"109",57.6
"141234",208954,"col","",33.934444,44.805557," Glubokii Yar",NA,"",1,"Thanetian","",59.2,56,72121,"gp_mid",36.79,34.61,"302",57.6
"141489",209337,"col","Falaises de Fresco",-5.615,5.075,"Falaises de Fresco, region CD (Kraïébouèn)",NA,"",1,"Thanetian","",59.2,56,26458,"gp_mid",-5.62,-5.1,"714",57.6
"141490",209338,"col","Falaises de Fresco",-5.615,5.075,"Falaises de Fresco, region JK (Laga-Ghirobo), bed 5",NA,"",5,"Thanetian","",59.2,56,26458,"gp_mid",-5.62,-5.1,"714",57.6
"141491",209339,"col","Falaises de Fresco",-5.615,5.075,"Falaises de Fresco, region JK (Laga-Ghirobo), bed 2-5",NA,"",4,"Thanetian","",59.2,56,26458,"gp_mid",-5.62,-5.1,"714",57.6
"141492",209340,"col","Falaises de Fresco",-5.615,5.075,"Falaises de Fresco, region MN (Laga-Ghirobo), bed 5",NA,"",2,"Thanetian","",59.2,56,26458,"gp_mid",-5.62,-5.1,"714",57.6
"141493",209341,"col","Falaises de Fresco",-5.615,5.075,"Falaises de Fresco, region CD (Kraïébouèn), bed 5",NA,"",2,"Thanetian","",59.2,56,72227,"gp_mid",-5.62,-5.1,"714",57.6
"141494",209342,"col","Falaises de Fresco",-5.615,5.075,"Falaises de Fresco, region JK (Laga-Ghirobo), top of bed 3",NA,"",3,"Thanetian","",59.2,56,72227,"gp_mid",-5.62,-5.1,"714",57.6
"141495",209343,"col","Falaises de Fresco",-5.615,5.075,"Falaises de Fresco, point N (Laga-Ghirobo), bed 2",NA,"",1,"Thanetian","",59.2,56,72227,"gp_mid",-5.62,-5.1,"714",57.6
"141496",209344,"col","Falaises de Fresco",-5.615,5.075,"Falaises de Fresco, bed 2-5 undivided",NA,"",2,"Thanetian","",59.2,56,72227,"gp_mid",-5.62,-5.1,"714",57.6
"141726",209587,"col","Jbel Ta'Louit",-6.609167,31.496668,"Jbel Guersif",NA,"",1,"Thanetian","",59.2,56,72297,"gp_mid",0.2,20.72,"714",57.6
"141886",209812,"col","Beinisvørð",-7.649,62.102001,"Fjørudalsnev, Mykines",NA,"",1,"Thanetian","",59.2,56,72385,"gp_mid",NA,NA,"coordinates not computable using this model",57.6
"145092",214288,"col","Santa Susana",-118.547935,34.072018,"LACMIP loc. 11984, Palisades Highlands",NA,"",2,"Thanetian","",59.2,56,66332,"gp_mid",-89.56,41.74,"105",57.6
"145093",214289,"col","Santa Susana",-118.550835,34.078609,"LACMIP loc. 16869, Palisades Highlands",NA,"CSUN Loc. 1590",11,"Thanetian","",59.2,56,66332,"gp_mid",-89.56,41.75,"105",57.6
"145094",214290,"col","Santa Susana",-118.55072,34.078632,"LACMIP loc. 16888, Palisades Highlands",NA,"",2,"Thanetian","",59.2,56,66332,"gp_mid",-89.56,41.75,"105",57.6
"145095",214291,"col","Santa Susana",-118.547691,34.072891,"LACMIP loc. 16897, Pulga Canyon",NA,"",2,"Thanetian","",59.2,56,66332,"gp_mid",-89.56,41.74,"105",57.6
"145096",214292,"col","Santa Susana",-118.558334,34.09,"LACMIP loc. 26814, Quarry Canyon",NA,"UCLA loc. 6184",1,"Thanetian","",59.2,56,66332,"gp_mid",-89.57,41.76,"105",57.6
