"","collection_no","record_type","formation","lng","lat","collection_name","collection_subset","collection_aka","n_occs","early_interval","late_interval","max_ma","min_ma","reference_no","paleomodel","paleolng","paleolat","geoplate","marine","mid_ma","time_bin"
"4",120576,"col","La Meseta",-56.599998,-64.216667,"DJ 153",NA,"",1,"Ypresian","",56,47.8,38549,"gp_mid",-67.39,-61.85,"803",1,51.9,"ypresian"
"55",1209,"col","Bashi",-86.861389,31.971111,"H76-79-2, Bashi Formation, Alabama",NA,"",0,"Ypresian","",56,47.8,38,"gp_mid",-63.27,35.4,"109",1,51.9,"ypresian"
"926",3260,"col","London Clay",0.833333,51.400002,"Miramar Crinoid Bed, Isle of Sheppey",NA,"",58,"Ypresian","",56,47.8,151,"gp_mid",8.27,42.57,"315",1,51.9,"ypresian"
"927",3261,"col","London Clay",-0.783333,50.833332,"Chichester Harbour, West Sussex",NA,"",29,"Ypresian","",56,47.8,152,"gp_mid",6.84,42.09,"315",1,51.9,"ypresian"
"928",3266,"col","London Clay",-1.285,50.886002,"Division B2, Bursledon Brickworks",NA,"",88,"Ypresian","",56,47.8,154,"gp_mid",6.42,42.17,"315",1,51.9,"ypresian"
"929",3267,"col","London Clay",-1.285,50.886002,"Barnea bed, Bursledon Brickworks",NA,"",74,"Ypresian","",56,47.8,154,"gp_mid",6.42,42.17,"315",1,51.9,"ypresian"
"930",3268,"col","London Clay",-1.285,50.886002,"Division C, Bursledon Brickworks",NA,"",64,"Ypresian","",56,47.8,154,"gp_mid",6.42,42.17,"315",1,51.9,"ypresian"
"1850",5494,"col","Bateque",-113.083336,26.933332,"CSUN Loc. 1219 [Bateque Fm]",NA,"",3,"Ypresian","",56,47.8,322,"gp_mid",-88.52,32.59,"105",1,51.9,"ypresian"
"1851",5495,"col","Bateque",-113,26.75,"CSUN Loc. 1220a [Bateque Fm]",NA,"",12,"Ypresian","",56,47.8,322,"gp_mid",-88.47,32.4,"105",1,51.9,"ypresian"
"1852",5496,"col","Bateque",-113,26.75,"CSUN Loc. 1220b [Bateque Fm]",NA,"",58,"Ypresian","",56,47.8,322,"gp_mid",-88.47,32.4,"105",1,51.9,"ypresian"
"1853",5497,"col","Bateque",-113,26.75,"CSUN Loc. 1220c [Bateque Fm]",NA,"",7,"Ypresian","",56,47.8,322,"gp_mid",-88.47,32.4,"105",1,51.9,"ypresian"
"1855",5502,"col","Bateque",-112.936943,26.666668,"CSUN Loc. 1291b [Bateque Fm]",NA,"",7,"Ypresian","",56,47.8,322,"gp_mid",-88.41,32.31,"105",1,51.9,"ypresian"
"1856",5499,"col","Bateque",-112.936943,26.666668,"CSUN Loc. 1291a [Bateque Fm]",NA,"",15,"Ypresian","",56,47.8,322,"gp_mid",-88.41,32.31,"105",1,51.9,"ypresian"
"1860",5506,"col","Bateque",-112.73333,26.5,"CSUN Loc. 1470 [Bateque Fm]",NA,"",26,"Ypresian","",56,47.8,322,"gp_mid",-88.23,32.12,"105",1,51.9,"ypresian"
"1861",5507,"col","Bateque",-112.73333,26.5,"CSUN Loc. 1471 [Bateque Fm]",NA,"",15,"Ypresian","",56,47.8,322,"gp_mid",-88.23,32.12,"105",1,51.9,"ypresian"
"1872",5544,"col","Crescent",-123.525002,47.311111,"CSUN Loc. 1553 - Little River [Crescent Fm]",NA,"LACMIP Loc. 41553",35,"Ypresian","",56,47.8,332,"gp_mid",-93.68,55.1,"129",1,51.9,"ypresian"
"1873",5545,"col","Crescent",-123.833336,47.083332,"CSUN Loc. 1553a - Grays Harbor [Crescent Fm]",NA,"LACMIP Loc. 41553",7,"Ypresian","",56,47.8,332,"gp_mid",-94.12,54.92,"129",1,51.9,"ypresian"
"1874",5546,"col","Crescent",-123.554169,47.313889,"CSUN Loc. 1554 - Grays Harbor [Crescent Fm]",NA,"",17,"Ypresian","",56,47.8,332,"gp_mid",-93.72,55.11,"129",1,51.9,"ypresian"
"1875",5547,"col","Crescent",-123.508331,47.318054,"CSUN Loc. 1555 - Grays Harbor [Crescent Fm]",NA,"",16,"Ypresian","",56,47.8,332,"gp_mid",-93.66,55.11,"129",1,51.9,"ypresian"
"1876",5548,"col","Crescent",-123.508331,47.325001,"CSUN Loc. 1556 - Grays Harbor [Crescent Fm]",NA,"",3,"Ypresian","",56,47.8,332,"gp_mid",-93.66,55.11,"129",1,51.9,"ypresian"
"1877",5549,"col","Crescent",-123.510559,47.326668,"CSUN Loc. 1557 - Grays Harbor [Crescent Fm]",NA,"",9,"Ypresian","",56,47.8,332,"gp_mid",-93.66,55.12,"129",1,51.9,"ypresian"
"1878",5550,"col","Crescent",-123.508331,47.320831,"CSUN Loc. 1558 - Grays Harbor [Crescent Fm]",NA,"",1,"Ypresian","",56,47.8,332,"gp_mid",-93.66,55.11,"129",1,51.9,"ypresian"
"1879",5551,"col","Crescent",-123.515282,47.327778,"CSUN Loc. 1559 - Grays Harbor [Crescent Fm]",NA,"",2,"Ypresian","",56,47.8,332,"gp_mid",-93.67,55.12,"129",1,51.9,"ypresian"
"1880",5552,"col","Crescent",-123.597221,47.327778,"CSUN Loc. 1560 - Grays Harbor [Crescent Fm]",NA,"",4,"Ypresian","",56,47.8,332,"gp_mid",-93.76,55.13,"129",1,51.9,"ypresian"
"1881",5553,"col","Crescent",-123.597221,47.327778,"CSUN Loc. 1560a - Grays Harbor [Crescent Fm]",NA,"",1,"Ypresian","",56,47.8,332,"gp_mid",-93.76,55.13,"129",1,51.9,"ypresian"
"2169",6270,"col","Dilwyn",143.208328,-38.716667,"PL3009, Rivernook Beach, Dilwyn Fm., Victoria, Australia",NA,"",2,"Early Eocene","",55.8,48.6,398,"gp_mid",161.96,-58.92,"801",1,52.2,"ypresian"
"2170",6271,"col","Dilwyn",143.208328,-38.716667,"PL3007, Middle Rivernook Beach, Dilwyn Fm., Victoria, Australia",NA,"",1,"Early Eocene","",55.8,48.6,398,"gp_mid",161.96,-58.92,"801",1,52.2,"ypresian"
"2458",7296,"col","La Meseta",-56.674,-64.244003,"W 94-03, Seymour Island",NA,"",5,"Ypresian","",56,47.8,469,"gp_mid",-67.47,-61.87,"803",1,51.9,"ypresian"
"2488",7731,"col","Ghazij",69,29,"Punjab Province, Pakistan",NA,"",4,"Ypresian","",56,47.8,486,"gp_mid",69.58,1.65,"501",1,51.9,"ypresian"
"2504",7788,"col","Reklaw",-95.378059,30.875557,"Joe Taylor Branch, Reklaw FM, TX",NA,"",142,"Ypresian","",56,47.8,495,"gp_mid",-72.28,36.23,"101",1,51.9,"ypresian"
"2510",7789,"col","Reklaw",-97.315002,30.110277,"Ridge Creek, Reklaw FM, TX",NA,"",142,"Ypresian","",56,47.8,495,"gp_mid",-74.51,35.9,"101",1,51.9,"ypresian"
"2527",7928,"col","Bateque",-113,26.75,"CSUN Loc. 1220 [Bateque Fm]",NA,"",7,"Ypresian","",56,47.8,516,"gp_mid",-88.47,32.4,"105",1,51.9,"ypresian"
"2531",8025,"col","London Clay",0.483333,51.733334,"Waterworks Corner",NA,"",72,"Ypresian","",56,47.8,534,"gp_mid",8.01,42.92,"315",1,51.9,"ypresian"
"2542",8050,"col","London Clay",-0.65,50.783333,"Bognor Regis",NA,"",48,"Ypresian","",56,47.8,538,"gp_mid",6.94,42.03,"315",1,51.9,"ypresian"
"2567",8105,"col","London Clay",-1.166667,51.083332,"Up Nately, Hampshire, UK",NA,"",43,"Early Eocene","",55.8,48.6,548,"gp_mid",6.54,42.36,"315",1,52.2,"ypresian"
"2568",8104,"col","London Clay",-0.846,51.231998,"Crondall Clay Pit",NA,"",35,"Ypresian","",56,47.8,548,"gp_mid",6.83,42.49,"315",1,51.9,"ypresian"
"2895",8675,"col","Ghazij",70.510002,30.415001,"Fossil Bed F.2680, Zinda Pir",NA,"",6,"Ypresian","",56,47.8,599,"gp_mid",71.29,2.56,"501",1,51.9,"ypresian"
"2896",8677,"col","Shekhan",71.389999,33.48,"Fossil Bed F.2104, Gada Khel, Kohat",NA,"",1,"Ypresian","",56,47.8,599,"gp_mid",72.97,5.23,"501",1,51.9,"ypresian"
"3666",13187,"col","Nanjemoy",-76.486115,37.540558,"Woodstock",NA,"",2,"Ypresian","",56,47.8,4382,"gp_mid",-51.1,38.37,"109",1,51.9,"ypresian"
"3675",13298,"col","London Clay",-0.683333,50.783333,"Fish Tooth Beds",NA,"",2,"Ypresian","",56,47.8,4417,"gp_mid",6.91,42.04,"315",1,51.9,"ypresian"
"3676",13299,"col","London Clay",0.833333,51.400002,"London Clay, Isle of Sheppey",NA,"",134,"Ypresian","",56,47.8,4417,"gp_mid",8.27,42.57,"315",1,51.9,"ypresian"
"3682",13320,"col","London Clay",0.75,51.25,"London Clay palaeognath",NA,"",1,"Early Eocene","",55.8,48.6,6040,"gp_mid",8.18,42.43,"315",1,52.2,"ypresian"
"3894",15583,"col","Margaret",-82,78.5,"Ellesmere Island (Lower)",NA,"Bay Fiord; Locality 76-85 (locality 85 and CMN loc. P7502); D7 Locality; localities 44, 49 (= 76-49?), 76-60, 76H7-10-1, 76H7-10-3, Mck7/15/87-1",37,"Wasatchian","",55.8,50.3,3612,"gp_mid",-7.41,73.41,"106",1,53.05,"ypresian"
"3895",15595,"col","Nanjemoy",-77.400002,38.299999,"Fisher/Sullivan Site",NA,"",123,"Wasatchian","",55.8,50.3,2961,"gp_mid",-51.06,39.32,"109",1,53.05,"ypresian"
"3896",15674,"col","",-117.222206,32.819466,"Morena Boulevard (SDSNH 3236)",NA,"",5,"Wasatchian","",55.8,50.3,3544,"gp_mid",NA,NA,"coordinates not computable using this model",1,53.05,"ypresian"
"3897",15719,"col","Tuscahoma",-88.703613,32.364166,"Red Hot",NA,"Red Hot Truck Stop; CM locality 517; TF-M",37,"Wasatchian","",55.8,50.3,1046,"gp_mid",-64.39,36.28,"101",1,53.05,"ypresian"
"3983",21244,"col","Oldhaven",0.083333,50.783333,"Oldhaven Beds",NA,"Bishopstone, Upnor",17,"Ypresian","",56,47.8,6504,"gp_mid",7.56,41.99,"315",1,51.9,"ypresian"
"3984",21245,"col","",-1.016667,51.150002,"Blackheath Beds",NA,"Elmstead Woods, Chislehurst",1,"Ypresian","",56,47.8,6504,"gp_mid",6.68,42.42,"315",1,51.9,"ypresian"
"3985",21246,"col","London Clay",-2.266667,51.783333,"London Clay Basement Beds - Harefield",NA,"",7,"Ypresian","",56,47.8,6504,"gp_mid",5.7,43.12,"315",1,51.9,"ypresian"
"3986",22814,"col","London Clay",-0.333333,51.566666,"London Clay Basement beds - North Harrow",NA,"",2,"Ypresian","",56,47.8,6528,"gp_mid",7.3,42.8,"315",1,51.9,"ypresian"
"3989",21248,"col","London Clay",0.816667,52,"The London Clay Flora - Assington",NA,"",4,"Ypresian","",56,47.8,6528,"gp_mid",8.32,43.17,"315",1,51.9,"ypresian"
"3990",21249,"col","London Clay",-0.65,50.783333,"The London Clay Flora - Bognor",NA,"",128,"Ypresian","",56,47.8,6528,"gp_mid",6.94,42.03,"315",1,51.9,"ypresian"
"4105",22741,"col","London Clay",1.433333,52.016666,"The London Clay Flora - Bawdsey",NA,"",2,"Ypresian","",56,47.8,6528,"gp_mid",8.84,43.16,"315",1,51.9,"ypresian"
"4107",22743,"col","London Clay",-0.75,51.416668,"The London Clay Flora - Bracknell",NA,"",5,"Ypresian","",56,47.8,6528,"gp_mid",6.93,42.67,"315",1,51.9,"ypresian"
"4109",22745,"col","London Clay",1.166667,51.783333,"The London Clay Flora - Clacton",NA,"",1,"Ypresian","",56,47.8,6528,"gp_mid",8.59,42.94,"315",1,51.9,"ypresian"
"4116",22775,"col","Nanjemoy",-77.367226,38.285,"Fisher-Sullivan Site, Virgina",NA,"",11,"Ypresian","",56,47.8,6557,"gp_mid",-51.67,39.29,"109",1,51.9,"ypresian"
"4121",22800,"col","London Clay",-0.133333,51.450001,"The London Clay Flora - Clapham",NA,"Clapham Common",8,"Ypresian","",56,47.8,6528,"gp_mid",7.46,42.67,"315",1,51.9,"ypresian"
"4122",22801,"col","London Clay",0.75,51.5,"The London Clay Flora - Essex",NA,"",2,"Ypresian","",56,47.8,6528,"gp_mid",8.21,42.67,"315",1,51.9,"ypresian"
"4123",22803,"col","London Clay",0.9,51.316666,"The London Clay Flora - Faversham",NA,"",1,"Ypresian","",56,47.8,6528,"gp_mid",8.31,42.48,"315",1,51.9,"ypresian"
"4124",22804,"col","London Clay",1.25,51.833332,"The London Clay Flora - Frinton",NA,"Frinton-on-Sea",13,"Ypresian","",56,47.8,6528,"gp_mid",8.67,42.98,"315",1,51.9,"ypresian"
"4125",22806,"col","London Clay",1.133333,51.366669,"The London Clay Flora - Herne Bay",NA,"",131,"Ypresian","",56,47.8,6528,"gp_mid",8.52,42.52,"315",1,51.9,"ypresian"
"4126",22809,"col","London Clay",-3.466667,50.633331,"The London Clay Flora - Kenton",NA,"",1,"Ypresian","",56,47.8,6528,"gp_mid",4.53,42.05,"315",1,51.9,"ypresian"
"4127",22810,"col","London Clay",-1.483333,50.933334,"The London Clay Flora - Nursling",NA,"",17,"Ypresian","",56,47.8,6528,"gp_mid",6.25,42.23,"315",1,51.9,"ypresian"
"4128",22811,"col","London Clay",0.833333,51.400002,"The London Clay Flora - Sheppey",NA,"",428,"Ypresian","",56,47.8,6528,"gp_mid",8.27,42.57,"315",1,51.9,"ypresian"
"4129",22812,"col","London Clay",-0.316667,51.616669,"The London Clay Flora - Stanmore",NA,"",1,"Ypresian","",56,47.8,6528,"gp_mid",7.32,42.85,"315",1,51.9,"ypresian"
"4130",22813,"col","London Clay",-0.4,51.666668,"London Clay Basement beds - Watford",NA,"",1,"Ypresian","",56,47.8,6528,"gp_mid",7.26,42.9,"315",1,51.9,"ypresian"
"4950",27622,"col","Bashi",-88.49028,32.288891,"Southeast of Whynot",NA,"",2,"Early Eocene","",55.8,48.6,7603,"gp_mid",-64.81,36.07,"101",1,52.2,"ypresian"
"5430",31160,"col","Subathu",77.01667,30.966667,"Subathu locality A mammal",NA,"",3,"Early Eocene","",55.8,48.6,8384,"gp_mid",76.8,1.44,"501",1,52.2,"ypresian"
"5463",31267,"col","Subathu",76.98333,30.983334,"Muddy Boots Locality",NA,"GBLH, MBL",27,"Ypresian","",56,47.8,8420,"gp_mid",76.78,1.47,"501",1,51.9,"ypresian"
"5464",31268,"col","Subathu",76.98333,30.983334,"Water Mill",NA,"GSLH, WML",1,"Ypresian","",56,47.8,8420,"gp_mid",76.78,1.47,"501",1,51.9,"ypresian"
"5465",31269,"col","Subathu",76.98333,30.983334,"Kuthar Bridge",NA,"OBLH, KBL",3,"Ypresian","",56,47.8,8420,"gp_mid",76.78,1.47,"501",1,51.9,"ypresian"
"5477",31301,"col","Subathu",75.5,32.5,"Sair West OBL",NA,"OBLH, SWL",2,"Ypresian","",56,47.8,8420,"gp_mid",75.98,3.27,"501",1,51.9,"ypresian"
"5478",31302,"col","Subathu",75.5,32.5,"East Babbian Gala OBLH",NA,"OBLH, EBGL",2,"Ypresian","",56,47.8,8420,"gp_mid",75.98,3.27,"501",1,51.9,"ypresian"
"5479",31303,"col","Subathu",74.375,33.241669,"Sindkhatuti Oyster Bed",NA,"OBLH, SKL; Sindkhatudi",2,"Ypresian","",56,47.8,8420,"gp_mid",75.28,4.25,"501",1,51.9,"ypresian"
"5869",32360,"col","La Meseta",-56.626667,-64.230835,"Seymour Island La Meseta TELM 4",NA,"",4,"Ypresian","",56,47.8,8488,"gp_mid",-67.42,-61.86,"803",1,51.9,"ypresian"
"7173",34704,"col","",2.55,43.183334,"Alaric, Aude, France",NA,"Reef 724",4,"Ypresian","",56,47.8,9199,"gp_mid",8.97,34.29,"305",1,51.9,"ypresian"
"7174",34705,"col","",2.5,42.833332,"Albas, Corbieres, France",NA,"Reef 956",1,"Ypresian","",56,47.8,9199,"gp_mid",9.51,33.81,"304",1,51.9,"ypresian"
"7175",34706,"col","",-2.533333,42.783333,"Capilduy, Alava, Spain",NA,"Reef 897",1,"Ypresian","",56,47.8,9199,"gp_mid",5.08,34.13,"304",1,51.9,"ypresian"
"7309",35080,"col","Hatchetigbee Bluff",-88.06028,31.933611,"Woods Bluff horizon (Cave Branch)",NA,"",23,"Ypresian","",56,47.8,9438,"gp_mid",-64.49,35.63,"101",1,51.9,"ypresian"
"8159",36862,"col","Santa Susana",-118.683327,34.303516,"UCMP loc. 7000, Santa Susana Mountains",NA,"",5,"Ypresian","",56,47.8,9870,"gp_mid",-93.19,40.56,"105",1,51.9,"ypresian"
"8785",37873,"col","Umpqua",-124.082497,43.363056,"Coos Bay (Daniels Creek - Umpqua Formation)",NA,"Umpqua Formation (Daniels Creek, Coos Bay)",0,"Early Eocene","",55.8,48.6,10099,"gp_mid",-95.53,51.29,"129",1,52.2,"ypresian"
"8786",37874,"col","Umpqua",-124.076942,43.105278,"Coos Bay (Gravelford bridge - Umpqua Formation)",NA,"Umpqua Formation (Gravelford bridge, Coos Bay)",0,"Early Eocene","",55.8,48.6,10099,"gp_mid",-95.59,51.04,"129",1,52.2,"ypresian"
"8787",37875,"col","Umpqua",-123.962219,43.157223,"Coos Bay (Steel Creek - Umpqua Formation)",NA,"Umpqua Formation (Steel Creek, Coos Bay)",0,"Early Eocene","",55.8,48.6,10099,"gp_mid",-95.45,51.07,"129",1,52.2,"ypresian"
"8788",37876,"col","Umpqua",-124.454445,43,"Coos Bay (Fourmile Creek - Umpqua Formation)",NA,"Umpqua Formation (Fourmile Creek, Coos Bay)",0,"Early Eocene","",55.8,48.6,10099,"gp_mid",-96.05,50.98,"129",1,52.2,"ypresian"
"9357",38868,"col","Blackheath Beds",0.15,51.433334,"Abbey Wood",NA,"The Sandpit, Lessness Shell Bed, Blackheath Beds",100,"Ypresian","",56,47.8,10796,"gp_mid",7.69,42.64,"315",1,51.9,"ypresian"
"9411",38947,"col","London Clay",1.274,51.846001,"Walton-on-the-Naze, London Clay, Unit 1",22801,"section TM 267243",10,"Early Eocene","",55.8,48.6,10537,"gp_mid",8.69,42.99,"315",1,52.2,"ypresian"
"9412",38948,"col","London Clay",1.274,51.846001,"Walton-on-the-Naze, London Clay, Unit 3",22801,"section TM 267243",3,"Early Eocene","",55.8,48.6,10537,"gp_mid",8.69,42.99,"315",1,52.2,"ypresian"
"9413",38949,"col","London Clay",1.274,51.846001,"Walton-on-the-Naze, London Clay, Unit 6",22801,"section TM 267243",6,"Early Eocene","",55.8,48.6,10537,"gp_mid",8.69,42.99,"315",1,52.2,"ypresian"
"9414",38950,"col","London Clay",1.274,51.846001,"Walton-on-the-Naze, London Clay, Unit 8",22801,"section TM 267243",7,"Early Eocene","",55.8,48.6,10537,"gp_mid",8.69,42.99,"315",1,52.2,"ypresian"
"9415",38951,"col","London Clay",1.274,51.846001,"Walton-on-the-Naze, London Clay, Unit 10",22801,"section TM 267243",2,"Early Eocene","",55.8,48.6,10537,"gp_mid",8.69,42.99,"315",1,52.2,"ypresian"
"9433",38979,"col","London Clay",1.274,51.846001,"Walton-on-the-Naze, London Clay, Unit 4",22801,"section TM 267243",1,"Early Eocene","",55.8,48.6,10537,"gp_mid",8.69,42.99,"315",1,52.2,"ypresian"
"10938",41751,"col","Adjuntas",-101,26.216667,"IGM-1973, Adjuntas Fm, Mexico - Perrilliat and Vega (1994)",NA,"IGM-1973",4,"Ypresian","",56,47.8,11268,"gp_mid",-79.46,32.89,"101",1,51.9,"ypresian"
"10939",41752,"col","Adjuntas",-101,26.216667,"IGM-2645, Adjuntas Fm, Mexico - Perrilliat and Vega (1994)",NA,"IGM-2645",3,"Ypresian","",56,47.8,11172,"gp_mid",-79.46,32.89,"101",1,51.9,"ypresian"
"10940",41753,"col","Adjuntas",-100.866669,26,"IGM-2647, Adjuntas Fm, Mexico - Perrilliat and Vega (1994)",NA,"IGM-2647",1,"Ypresian","",56,47.8,11172,"gp_mid",-79.38,32.65,"101",1,51.9,"ypresian"
"11003",41825,"col","Wittering",-1.184,50.819,"Peel Common, Bracklesham Group",NA,"",2,"Ypresian","",56,47.8,10367,"gp_mid",6.49,42.1,"315",1,51.9,"ypresian"
"11007",41829,"col","Wittering",-0.858,50.762001,"East Wittering, Bracklesham Bay, Wittering Formation W14(i)",NA,"",6,"MP 10","",55.8,48.6,10367,"gp_mid",6.76,42.02,"315",1,52.2,"ypresian"
"11008",41830,"col","Wittering",-0.858,50.762001,"East Wittering, Bracklesham Bay, Wittering Formation W15",NA,"",3,"MP 10","",55.8,48.6,10367,"gp_mid",6.76,42.02,"315",1,52.2,"ypresian"
"11019",41840,"col","Earnley",-0.858,50.762001,"Bracklesham, Earnley Formation, E4",NA,"",1,"MP 10","",55.8,48.6,10367,"gp_mid",6.76,42.02,"315",1,52.2,"ypresian"
"11075",41897,"col","",27,27,"Thebes Formation, Egypt - Tawardos (2001)",NA,"",0,"Ypresian","",56,47.8,11199,"gp_mid",29.01,12.37,"715",1,51.9,"ypresian"
"11080",41902,"col","Dungul",23.433332,31.616667,"Garra-Dungul (Dungul Formation), Egypt -Tawadros (2001)",NA,"Dungul Formation, Garra-Dungul",7,"Ypresian","",56,47.8,11199,"gp_mid",26.35,17.31,"715",1,51.9,"ypresian"
"11081",41903,"col","",32.645832,25.695833,"Gebel Gurnah (Thebes Formation), Egypt -Tawadros (2001)",NA,"Thebes Formation, Gebel Gurnah",13,"Ypresian","",56,47.8,11199,"gp_mid",34.03,10.62,"715",1,51.9,"ypresian"
"11274",42126,"col","Al Jir",16.541111,29.158056,"Wadi Shuqayaqah - Al Jir Formation",NA,"",2,"Ypresian","",56,47.8,11199,"gp_mid",19.86,15.68,"715",1,51.9,"ypresian"
"11508",42446,"col","La Meseta",-56.676998,-64.259003,"CV 86-04, Cross Valley",NA,"",4,"Ypresian","",56,47.8,469,"gp_mid",-67.48,-61.89,"803",1,51.9,"ypresian"
"11522",42459,"col","Umm al-Rua’us",50.114166,26.425833,"Umm al-Rua’us Formation, Saudi Arabia - Abbass (1972)",NA,"",71,"Ypresian","",56,47.8,11298,"gp_mid",48.11,7.57,"503",1,51.9,"ypresian"
"11587",42567,"col","Bracklesham Beds",-1.566667,50.666668,"Alum Bay, Bracklesham Beds, Isle of Wight",NA,"",1,"Early Eocene","",55.8,48.6,11308,"gp_mid",6.15,41.97,"315",1,52.2,"ypresian"
"11680",42706,"col","",-78.94278,-11.537778,"Site 688 ODP Leg 112 Early Eocene Peru",NA,"",12,"Early Eocene","",55.8,48.6,11357,"gp_mid",-63.7,-12.2,"201",1,52.2,"ypresian"
"11781",42873,"col","",74.76667,34.183334,"Unit 11, Bund Vera (Ranikot Series), India - Nuttall (1932)",NA,"",14,"Early Eocene","",55.8,48.6,11382,"gp_mid",75.87,5.06,"501",1,52.2,"ypresian"
"11786",42879,"col","",74.76667,34.183334,"Unit 2, Bund Vera (Ranikot Series), India - Nuttall (1932)",NA,"",6,"Early Eocene","",55.8,48.6,11382,"gp_mid",75.87,5.06,"501",1,52.2,"ypresian"
"11787",42880,"col","",74.76667,34.183334,"Unit 4, Bund Vera (Ranikot Series), India - Nuttall (1932)",NA,"",3,"Early Eocene","",55.8,48.6,11382,"gp_mid",75.87,5.06,"501",1,52.2,"ypresian"
"11788",42881,"col","",74.76667,34.183334,"Unit 6, Bund Vera (Ranikot Series), India - Nuttall (1932)",NA,"",1,"Early Eocene","",55.8,48.6,11382,"gp_mid",75.87,5.06,"501",1,52.2,"ypresian"
"11789",42882,"col","",74.76667,34.183334,"Unit 9, Bund Vera (Ranikot Series), India - Nuttall (1932)",NA,"",2,"Early Eocene","",55.8,48.6,11382,"gp_mid",75.87,5.06,"501",1,52.2,"ypresian"
"11790",42883,"col","",74.76667,34.183334,"Unit 8, Jerruck (Ranikot Series), India - Nuttall (1932)",NA,"",16,"Early Eocene","",55.8,48.6,11382,"gp_mid",75.87,5.06,"501",1,52.2,"ypresian"
"11793",42885,"col","",74.76667,34.183334,"Unit 5 Jerruck (Ranikot Series), India - Nuttall (1932)",NA,"",3,"Early Eocene","",55.8,48.6,11382,"gp_mid",75.87,5.06,"501",1,52.2,"ypresian"
"11835",42929,"col","Indio",-99.150002,26.433332,"USGS 13713 - Tamaulipas, Mexico (Upper Indio Formation)",NA,"USGS 13713",1,"Early Eocene","",55.8,48.6,7474,"gp_mid",-77.48,32.72,"101",1,52.2,"ypresian"
"11836",42930,"col","Indio",-99.183334,26.066668,"USGS 13672 - Tamaulipas, Mexico (Upper Indio Formation)",NA,"USGS 13672",1,"Early Eocene","",55.8,48.6,7474,"gp_mid",-77.62,32.37,"101",1,52.2,"ypresian"
"11837",42931,"col","Indio",-99.150002,26.433332,"USGS 13724 - Tamaulipas, Mexico (Upper Indio Formation)",NA,"USGS 13724",1,"Early Eocene","",55.8,48.6,7474,"gp_mid",-77.48,32.72,"101",1,52.2,"ypresian"
"11838",42932,"col","Indio",-99.150002,26.433332,"USGS 13475 - Tamaulipas, Mexico (Upper Indio Formation)",NA,"USGS 13475",2,"Early Eocene","",55.8,48.6,7474,"gp_mid",-77.48,32.72,"101",1,52.2,"ypresian"
"11839",42933,"col","Indio",-99.150002,26.433332,"USGS 13691 - Tamaulipas, Mexico (Upper Indio Formation)",NA,"USGS 13691",1,"Early Eocene","",55.8,48.6,7474,"gp_mid",-77.48,32.72,"101",1,52.2,"ypresian"
"11840",42934,"col","Indio",-99.150002,26.433332,"USGS 13742 - Tamaulipas, Mexico (Upper Indio Formation)",NA,"USGS 13742",1,"Early Eocene","",55.8,48.6,7474,"gp_mid",-77.48,32.72,"101",1,52.2,"ypresian"
"11841",42935,"col","Indio",-99.150002,26.433332,"USGS 13719/13720 - Tamaulipas, Mexico (Upper Indio Formation)",NA,"USGS 13719, USGS 13720",1,"Early Eocene","",55.8,48.6,7474,"gp_mid",-77.48,32.72,"101",1,52.2,"ypresian"
"11842",42936,"col","Indio",-99.150002,26.433332,"USGS 13725 - Tamaulipas, Mexico (Upper Indio Formation)",NA,"USGS 13725",1,"Early Eocene","",55.8,48.6,7474,"gp_mid",-77.48,32.72,"101",1,52.2,"ypresian"
"11843",42937,"col","Indio",-99.150002,26.433332,"USGS 13723 - Tamaulipas, Mexico (Upper Indio Formation)",NA,"USGS 13723",1,"Early Eocene","",55.8,48.6,7474,"gp_mid",-77.48,32.72,"101",1,52.2,"ypresian"
"11844",42938,"col","Indio",-99.183334,26.049999,"USGS 13466 - Nuevo Leon, Mexico (Middle Indio Formation)",NA,"USGS 13466",1,"Early Eocene","",55.8,48.6,7474,"gp_mid",-77.62,32.35,"101",1,52.2,"ypresian"
"11845",42939,"col","Indio",-99.183334,26.049999,"USGS 13671 - Nuevo Leon, Mexico (Middle Indio Formation)",NA,"USGS 13671",2,"Early Eocene","",55.8,48.6,7474,"gp_mid",-77.62,32.35,"101",1,52.2,"ypresian"
"11846",42940,"col","Indio",-99.183334,26.049999,"USGS 13661 - Nuevo Leon, Mexico (Middle Indio Formation)",NA,"USGS 13661",2,"Early Eocene","",55.8,48.6,7474,"gp_mid",-77.62,32.35,"101",1,52.2,"ypresian"
"11847",42941,"col","Indio",-99.183334,26.049999,"USGS 13681 - Nuevo Leon, Mexico (Middle Indio Formation)",NA,"USGS 13681",1,"Early Eocene","",55.8,48.6,7474,"gp_mid",-77.62,32.35,"101",1,52.2,"ypresian"
"11848",42942,"col","Indio",-99.150002,26.433332,"USGS 13695 - Tamaulipas, Mexico (Middle Indio Formation)",NA,"USGS 13695",1,"Early Eocene","",55.8,48.6,7474,"gp_mid",-77.48,32.72,"101",1,52.2,"ypresian"
"11849",42943,"col","Indio",-99.183334,26.049999,"USGS 13675 - Nuevo Leon, Mexico (Middle Indio Formation)",NA,"USGS 13675",3,"Early Eocene","",55.8,48.6,7474,"gp_mid",-77.62,32.35,"101",1,52.2,"ypresian"
"11850",42944,"col","Indio",-99.150002,26.433332,"USGS 13690 - Tamaulipas, Mexico (Middle Indio Formation)",NA,"USGS 13690",1,"Early Eocene","",55.8,48.6,7474,"gp_mid",-77.48,32.72,"101",1,52.2,"ypresian"
"11851",42945,"col","Indio",-99.150002,26.433332,"USGS 13715 - Tamaulipas, Mexico (Middle Indio Formation)",NA,"USGS 13715",1,"Early Eocene","",55.8,48.6,7474,"gp_mid",-77.48,32.72,"101",1,52.2,"ypresian"
"11852",42946,"col","Indio",-99.150002,26.433332,"USGS 13714 - Tamaulipas, Mexico (Middle Indio Formation)",NA,"USGS 13714",1,"Early Eocene","",55.8,48.6,7474,"gp_mid",-77.48,32.72,"101",1,52.2,"ypresian"
"11853",42947,"col","Indio",-99.150002,26.433332,"USGS 13711 - Tamaulipas, Mexico (Middle Indio Formation)",NA,"USGS 13711",1,"Early Eocene","",55.8,48.6,7474,"gp_mid",-77.48,32.72,"101",1,52.2,"ypresian"
"11854",42948,"col","Indio",-99.23333,25.700001,"USGS 13761 - Nuevo Leon, Mexico (lower Indio Formation)",NA,"USGS 13761",1,"Early Eocene","",55.8,48.6,7474,"gp_mid",-77.77,32.02,"101",1,52.2,"ypresian"
"11855",42949,"col","Indio",-99.23333,25.700001,"USGS 13485 - Nuevo Leon, Mexico (lower Indio Formation)",NA,"USGS 13485",2,"Early Eocene","",55.8,48.6,7474,"gp_mid",-77.77,32.02,"101",1,52.2,"ypresian"
"11856",42950,"col","Indio",-99.400002,25.916668,"USGS 13484 - Nuevo Leon, Mexico (lower Indio Formation)",NA,"USGS 13484",3,"Early Eocene","",55.8,48.6,7474,"gp_mid",-77.88,32.27,"101",1,52.2,"ypresian"
"11857",42951,"col","Indio",-99.400002,25.916668,"USGS 13667 - Nuevo Leon, Mexico (lower Indio Formation)",NA,"USGS 13667",1,"Early Eocene","",55.8,48.6,7474,"gp_mid",-77.88,32.27,"101",1,52.2,"ypresian"
"11858",42952,"col","Indio",-99.400002,25.916668,"USGS 13707 - Nuevo Leon, Mexico (lower Indio Formation)",NA,"USGS 13707",2,"Early Eocene","",55.8,48.6,7474,"gp_mid",-77.88,32.27,"101",1,52.2,"ypresian"
"11859",42953,"col","Indio",-99.400002,25.916668,"USGS 13669 - Nuevo Leon, Mexico (lower Indio Formation)",NA,"USGS 13669",5,"Early Eocene","",55.8,48.6,7474,"gp_mid",-77.88,32.27,"101",1,52.2,"ypresian"
"11860",42954,"col","Indio",-99.400002,25.916668,"USGS 13679 - Nuevo Leon, Mexico (lower Indio Formation)",NA,"USGS 13679",2,"Early Eocene","",55.8,48.6,7474,"gp_mid",-77.88,32.27,"101",1,52.2,"ypresian"
"11861",42955,"col","Indio",-99.183334,26.049999,"USGS 13673 - Nuevo Leon, Mexico (lower Indio Formation)",NA,"USGS 13673",1,"Early Eocene","",55.8,48.6,7474,"gp_mid",-77.62,32.35,"101",1,52.2,"ypresian"
"11862",42956,"col","Indio",-99.150002,26.433332,"USGS 13461 - Tamaulipas, Mexico (lower Indio Formation)",NA,"USGS 13461",2,"Early Eocene","",55.8,48.6,7474,"gp_mid",-77.48,32.72,"101",1,52.2,"ypresian"
"11863",42957,"col","Indio",-99.566666,26.316668,"USGS 13474 - Nuevo Leon, Mexico (lower Indio Formation)",NA,"USGS 13474",1,"Early Eocene","",55.8,48.6,7474,"gp_mid",-77.94,32.69,"101",1,52.2,"ypresian"
"11864",42958,"col","Indio",-99.566666,26.316668,"USGS 13609 - Nuevo Leon, Mexico (lower Indio Formation)",NA,"USGS 13609",2,"Early Eocene","",55.8,48.6,7474,"gp_mid",-77.94,32.69,"101",1,52.2,"ypresian"
"11865",42959,"col","Indio",-99.566666,26.299999,"USGS 13657 - Nuevo Leon, Mexico (lower Indio Formation)",NA,"USGS 13657",1,"Early Eocene","",55.8,48.6,7474,"gp_mid",-77.95,32.68,"101",1,52.2,"ypresian"
"13662",45584,"col","Subathu",76.976669,30.981667,"Kuthar Nala",NA,"Subathu Formation type locality",2,"Ypresian","",56,47.8,11985,"gp_mid",76.77,1.47,"501",1,51.9,"ypresian"
"13780",45802,"col","",11.28,54.434444,"Katharinenhof",NA,"",2,"Early Eocene","",55.8,48.6,12298,"gp_mid",17.25,45.2,"315",1,52.2,"ypresian"
"13933",87914,"col","",-37,-8,"Pernambuco",NA,"",1,"Early Eocene","",55.8,48.6,29529,"gp_mid",-21.18,-13.01,"201",1,52.2,"ypresian"
"13936",46085,"col","",9.176389,53.683613,"Basbeck",NA,"",5,"Early Eocene","",55.8,48.6,12298,"gp_mid",15.46,44.51,"315",1,52.2,"ypresian"
"14010",46246,"col","Ameki",7.633333,5.55,"Ameki Fm: Litho and Fauna- Callianassa zone",NA,"detailed lithology and faunal composition of the Callianassa-Buliminella-Paracypris assemblage zone",15,"Eocene","Early Eocene",56,48.6,12336,"gp_mid",7.57,-6.23,"701",1,52.3,"ypresian"
"14066",46388,"col","",81.650558,17.016666,"Intertrappean Fauna, Rajamundry Area",NA,"",15,"Early Eocene","",55.8,48.6,12362,"gp_mid",77.41,-13.12,"501",1,52.2,"ypresian"
"14246",46999,"col","Khuiala",72.933334,27.858334,"Khuiala Fm: Mudh village",NA,"",45,"Ypresian","",56,47.8,12488,"gp_mid",72.51,-0.53,"501",1,51.9,"ypresian"
"15148",48097,"col","Tamaguélelt",0.25,17.59,"Butte de Tamaguilelt (MNHN collection)",NA,"Tamaguélelt",3,"Ypresian","",56,47.8,12884,"gp_mid",2.77,6.97,"714",1,51.9,"ypresian"
"15465",49051,"col","",69,41.716667,"Zhylga 1b",NA,"Dzhylga",4,"Ypresian","",56,47.8,12996,"gp_mid",67.85,34.96,"402",1,51.9,"ypresian"
"15501",49136,"col","Bukhara",70.633331,40.116669,"Isfara River",NA,"",1,"Ypresian","",56,47.8,12996,"gp_mid",69.61,33.56,"402",1,51.9,"ypresian"
"15744",49874,"col","Chapelton",-77.533333,18.283333,"Freemans Hall",NA,"",1,"Ypresian","",56,47.8,13400,"gp_mid",NA,NA,"coordinates not computable using this model",1,51.9,"ypresian"
"15844",50067,"col","Casamayor",-66.699997,-47.716667,"Casamayor bed 3",NA,"",22,"Casamayoran","",55.8,48,13447,"gp_mid",-57.45,-49.45,"291",1,51.9,"ypresian"
"16322",50991,"col","Tutuiri Greensand",176.666672,-43.75,"CH/f474 - Tutuiri Greensand, Chatham Islands",NA,"GS 12166; Coll. #2751 (Hendy PhD)",6,"Waipawan","",55.8,53,13610,"gp_mid",-148.27,-47.55,"807",1,54.4,"ypresian"
"16323",50992,"col","Tutuiri Greensand",176.666672,-43.75,"CH/f258 - Tutuiri Greensand, Chatham Islands",NA,"DL74",2,"Waipawan","",55.8,53,13610,"gp_mid",-148.27,-47.55,"807",1,54.4,"ypresian"
"16324",50993,"col","Tutuiri Greensand",176.666672,-43.75,"CH/f60 - Tutuiri Greensand, Chatham Islands",NA,"GS 6895",2,"Waipawan","",55.8,53,13610,"gp_mid",-148.27,-47.55,"807",1,54.4,"ypresian"
"16349",51050,"col","Tumaio Limestone",176.666672,-43.75,"CH/f3 - Chatham Islands [Tumaio Lmst]",NA,"GS 1177",10,"Waipawan","",55.8,53,13610,"gp_mid",-148.27,-47.55,"807",1,54.4,"ypresian"
"16351",51052,"col","Tumaio Limestone",176.666672,-43.75,"CH/f505 - Tumaio Limestone, Chatham Islands",NA,"GS 12459",9,"Waipawan","",55.8,53,13610,"gp_mid",-148.27,-47.55,"807",1,54.4,"ypresian"
"16376",51078,"col","Red Bluff Tuff",-176.585007,-43.965,"GS 12169, Waikaripi Cliffs (CH/f477)",NA,"Coll# 2753 (Hendy PhD)",22,"Waipawan","",55.8,53,13610,"gp_mid",-141.05,-47.96,"807",1,54.4,"ypresian"
"16377",51079,"col","Red Bluff Tuff",-176.576996,-43.959,"Cliffs southwest of radio station, Waikaripi (CH/f104)",NA,"GS 10191, GS 12139",24,"Waipawan","",55.8,53,13610,"gp_mid",-141.04,-47.95,"807",1,54.4,"ypresian"
"16378",51080,"col","Red Bluff Tuff",-176.5,-44,"CH/f480 - Red Bluff Tuff, Chatham Islands",NA,"GS 12175; Coll# 2755 (Hendy PhD)",6,"Waipawan","",55.8,53,13610,"gp_mid",-140.96,-48,"807",1,54.4,"ypresian"
"16379",51081,"col","Red Bluff Tuff",176.5,-44,"CH/f7 - Red Bluff Tuff, Chatham Islands",NA,"GS 5419; Coll# 2756 (Hendy PhD)",5,"Waipawan","",55.8,53,13610,"gp_mid",-148.46,-47.79,"807",1,54.4,"ypresian"
"16380",51082,"col","Red Bluff Tuff",-176.5,-44,"CH/f467/468 - Red Bluff Tuff, Chatham Islands",NA,"Coll# 2757 (Hendy PhD)",8,"Ypresian","",56,47.8,13610,"gp_mid",-141.21,-47.44,"807",1,51.9,"ypresian"
"16382",51084,"col","Red Bluff Tuff",-176.25,-44.299999,"CH/f478 - Red Bluff Tuff, Chatham Islands",NA,"GS 12173; Coll# 2759 (Hendy PhD)",46,"Waipawan","",55.8,53,13610,"gp_mid",-140.71,-48.3,"807",1,54.4,"ypresian"
"16383",51085,"col","Red Bluff Tuff",176.25,-44.299999,"CH/f471 - Red Bluff Tuff, Chatham Islands",NA,"GS 12178; Coll# 2760 (Hendy PhD)",22,"Waipawan","",55.8,53,13610,"gp_mid",-148.75,-48.09,"807",1,54.4,"ypresian"
"17037",51928,"col","Llajas",-118.691666,34.302776,"LACMIP #20586",NA,"LACMIP #22371, LACMIP #16654",3,"Ypresian","",56,47.8,13852,"gp_mid",-93.19,40.56,"105",1,51.9,"ypresian"
"17038",51929,"col","Llajas",-118.691666,34.298058,"LACMIP #21135",NA,"",1,"Ypresian","",56,47.8,13852,"gp_mid",-93.2,40.56,"105",1,51.9,"ypresian"
"17039",51930,"col","Llajas",-118.691666,34.302776,"CSUN Loc. 471a - Chivo Canyon [Llajas Fm]",NA,"",2,"Ypresian","",56,47.8,13852,"gp_mid",-93.19,40.56,"105",1,51.9,"ypresian"
"17046",51942,"col","Llajas",-118.691666,34.302776,"LACMIP #26624",NA,"",3,"Ypresian","",56,47.8,13852,"gp_mid",-93.19,40.56,"105",1,51.9,"ypresian"
"17047",51951,"col","Llajas",-118.691666,34.302776,"LACMIP #7405",NA,"",1,"Ypresian","",56,47.8,13852,"gp_mid",-93.19,40.56,"105",1,51.9,"ypresian"
"17101",52067,"col","La Meseta",-56.644707,-64.230942,"IAA 2/13",NA,"",1,"Ypresian","",56,47.8,63037,"gp_mid",-67.44,-61.86,"803",1,51.9,"ypresian"
"17262",52265,"col","Bushnell Rock",-123.120003,43.310001,"Sample #92LM1 - Slater Creek Member (Oregon)",NA,"Record #1",6,"Ypresian","",56,47.8,14064,"gp_mid",-94.44,51.12,"129",1,51.9,"ypresian"
"17263",52266,"col","Bushnell Rock",-123.120003,43.310001,"Sample #92LM2 - Slater Creek Member (Oregon)",NA,"Record #2",12,"Ypresian","",56,47.8,14064,"gp_mid",-94.44,51.12,"129",1,51.9,"ypresian"
"17264",52267,"col","Tenmile",-123.120003,43.310001,"Sample #92LM3 - Tenmile Formation (Oregon)",NA,"Record #3",10,"Ypresian","",56,47.8,14064,"gp_mid",-94.44,51.12,"129",1,51.9,"ypresian"
"17265",52268,"col","Camas Valley",-123.080002,43.310001,"Sample #92LM4 - Camas Valley Formation (Oregon)",NA,"Record #4",3,"Ypresian","",56,47.8,14064,"gp_mid",-94.4,51.11,"129",1,51.9,"ypresian"
"17266",52269,"col","Tenmile",-123.139999,43.27,"Sample #93LM5 - Tenmile Formation (Oregon)",NA,"Record #43",2,"Ypresian","",56,47.8,14064,"gp_mid",-94.48,51.08,"129",1,51.9,"ypresian"
"17267",52270,"col","Bushnell Rock",-123.370003,43.23,"Sample #92LM6 - Slater Creek Member (Oregon)",NA,"Record #6",2,"Ypresian","",56,47.8,14064,"gp_mid",-94.75,51.07,"129",1,51.9,"ypresian"
"17268",52271,"col","White Tail Ridge",-123.650002,43.060001,"Sample #92LM9 - White Tail Ridge Formation (Oregon)",NA,"Record #9",14,"Ypresian","",56,47.8,14064,"gp_mid",-95.12,50.94,"129",1,51.9,"ypresian"
"17269",52272,"col","White Tail Ridge",-123.190002,43.220001,"Sample #92LM10 - White Tail Ridge Formation (Oregon)",NA,"Record #10",6,"Ypresian","",56,47.8,14064,"gp_mid",-94.55,51.04,"129",1,51.9,"ypresian"
"17270",52273,"col","White Tail Ridge",-123.18,43.209999,"Sample #24DV92 - White Tail Ridge Formation (Oregon)",NA,"Record #11",2,"Ypresian","",56,47.8,14064,"gp_mid",-94.54,51.03,"129",1,51.9,"ypresian"
"17271",52274,"col","White Tail Ridge",-123.18,43.220001,"Sample #25DV92 - White Tail Ridge Formation (Oregon)",NA,"Record #12",2,"Ypresian","",56,47.8,14064,"gp_mid",-94.54,51.04,"129",1,51.9,"ypresian"
"17272",52275,"col","White Tail Ridge",-123.080002,43.240002,"Sample #1LM92 - White Tail Ridge Formation (Oregon)",NA,"Record #17",3,"Ypresian","",56,47.8,14064,"gp_mid",-94.42,51.04,"129",1,51.9,"ypresian"
"17273",52276,"col","White Tail Ridge",-123.080002,43.240002,"Sample #4LM92 - White Tail Ridge Formation (Oregon)",NA,"Record #20",4,"Ypresian","",56,47.8,14064,"gp_mid",-94.42,51.04,"129",1,51.9,"ypresian"
"17274",52277,"col","White Tail Ridge",-123.110001,43.23,"Sample #9LM92 - White Tail Ridge Formation (Oregon)",NA,"Record #21",2,"Ypresian","",56,47.8,14064,"gp_mid",-94.45,51.04,"129",1,51.9,"ypresian"
"17275",52278,"col","White Tail Ridge",-123.099998,43.23,"Sample #10LM92 - White Tail Ridge Formation (Oregon)",NA,"Record #22",3,"Ypresian","",56,47.8,14064,"gp_mid",-94.44,51.04,"129",1,51.9,"ypresian"
"17276",52279,"col","White Tail Ridge",-123.099998,43.23,"Sample #11LM92 - White Tail Ridge Formation (Oregon)",NA,"Record #23",5,"Ypresian","",56,47.8,14064,"gp_mid",-94.44,51.04,"129",1,51.9,"ypresian"
"17277",52280,"col","White Tail Ridge",-123.099998,43.23,"Sample #12LM92 - White Tail Ridge Formation (Oregon)",NA,"Record #24",2,"Ypresian","",56,47.8,14064,"gp_mid",-94.44,51.04,"129",1,51.9,"ypresian"
"17281",52302,"col","White Tail Ridge",-123.099998,43.23,"Sample #93LM11 - White Tail Ridge Formation (Oregon)",NA,"Record #49",2,"Ypresian","",56,47.8,14064,"gp_mid",-94.44,51.04,"129",1,51.9,"ypresian"
"17282",52303,"col","White Tail Ridge",-123.099998,43.23,"Sample #93LM12 - White Tail Ridge Formation (Oregon)",NA,"Record #50",7,"Ypresian","",56,47.8,14064,"gp_mid",-94.44,51.04,"129",1,51.9,"ypresian"
"17283",52304,"col","Bushnell Rock",-123.150002,43.27,"Sample #93LM2 - Slater Creek Member (Oregon)",NA,"Record 40",13,"Ypresian","",56,47.8,14064,"gp_mid",-94.49,51.08,"129",1,51.9,"ypresian"
"17284",52305,"col","Bushnell Rock",-123.150002,43.27,"Sample #93LM3 - Slater Creek Member (Oregon)",NA,"Record 41",11,"Ypresian","",56,47.8,14064,"gp_mid",-94.49,51.08,"129",1,51.9,"ypresian"
"17285",52307,"col","Bushnell Rock",-123.370003,43.259998,"Sample #93LM7 - Slater Creek Member (Oregon)",NA,"Record 45",4,"Ypresian","",56,47.8,14064,"gp_mid",-94.74,51.1,"129",1,51.9,"ypresian"
"17374",52419,"col","Meganos",-121.847,37.949001,"UCMP 3148, Stewartville",NA,"",10,"Ypresian","",56,47.8,14099,"gp_mid",-94.38,45.67,"130",1,51.9,"ypresian"
"17375",52420,"col","Meganos",-121.815002,37.93,"UCMP 3150, north of Mount Diablo",NA,"",15,"Ypresian","",56,47.8,14099,"gp_mid",-94.35,45.65,"130",1,51.9,"ypresian"
"17376",52421,"col","Meganos",-121.815002,37.93,"UCMP 3151, north of Mount Diablo",NA,"",15,"Ypresian","",56,47.8,14099,"gp_mid",-94.35,45.65,"130",1,51.9,"ypresian"
"17377",52422,"col","Meganos",-121.785004,37.919998,"UCMP 3152, Deer Valley",NA,"",30,"Ypresian","",56,47.8,14099,"gp_mid",-94.32,45.63,"130",1,51.9,"ypresian"
"17378",52423,"col","Meganos",-121.795998,37.925999,"UCMP 3156, Deer Valley",NA,"",14,"Ypresian","",56,47.8,14099,"gp_mid",-94.33,45.64,"130",1,51.9,"ypresian"
"17379",52424,"col","Meganos",-121.773003,37.917,"UCMP 3157, Deer Valley",NA,"",9,"Ypresian","",56,47.8,14099,"gp_mid",-94.3,45.63,"130",1,51.9,"ypresian"
"17380",52425,"col","Meganos",-121.775002,37.917999,"UCMP 3158, Deer Valley",NA,"",10,"Ypresian","",56,47.8,14099,"gp_mid",-94.31,45.63,"130",1,51.9,"ypresian"
"17381",52426,"col","Meganos",-121.767998,37.915001,"UCMP 3159, Deer Valley",NA,"",39,"Ypresian","",56,47.8,14099,"gp_mid",-94.3,45.63,"130",1,51.9,"ypresian"
"17382",52427,"col","Meganos",-121.828003,37.936001,"UCMP 3162, upper Deer Valley",NA,"",8,"Ypresian","",56,47.8,14099,"gp_mid",-94.36,45.65,"130",1,51.9,"ypresian"
"17383",52428,"col","Meganos",-121.744003,37.905499,"UCMP 3577, Dry Creek",NA,"",35,"Ypresian","",56,47.8,14099,"gp_mid",-94.27,45.61,"130",1,51.9,"ypresian"
"17384",52429,"col","Meganos",-121.714996,37.887001,"UCMP 3578, east of Marsh Creek",NA,"",21,"Ypresian","",56,47.8,14099,"gp_mid",-94.25,45.59,"130",1,51.9,"ypresian"
"17385",52430,"col","Meganos",-121.714996,37.884998,"UCMP 3579, east of Mount Diablo",NA,"",17,"Ypresian","",56,47.8,14099,"gp_mid",-94.25,45.59,"130",1,51.9,"ypresian"
"17386",52431,"col","Meganos",-121.707001,37.879002,"UCMP 3580, Los Meganos",NA,"",15,"Ypresian","",56,47.8,14099,"gp_mid",-94.24,45.58,"130",1,51.9,"ypresian"
"17387",52432,"col","Meganos",-121.695,37.8685,"UCMP 3586, Kellogg Creek",NA,"",9,"Ypresian","",56,47.8,14099,"gp_mid",-94.23,45.57,"130",1,51.9,"ypresian"
"17388",52433,"col","Meganos",-121.672997,37.858002,"UCMP 3609, east of Mount Diablo",NA,"",11,"Ypresian","",56,47.8,14099,"gp_mid",-94.21,45.56,"130",1,51.9,"ypresian"
"17389",52434,"col","Meganos",-121.640999,37.845001,"UCMP 3689, east of Mount Diablo",NA,"",9,"Ypresian","",56,47.8,14099,"gp_mid",-94.17,45.54,"130",1,51.9,"ypresian"
"17398",52446,"col","Te Whanga Limestone",176.5,-43.816666,"CH/f469 - Matanginui Limestone, Chatham Islands",NA,"GS 12157",1,"Waipawan","",55.8,53,13610,"gp_mid",-148.45,-47.61,"807",1,54.4,"ypresian"
"17399",52447,"col","Te Whanga Limestone",-176.5,-43.816666,"CH/f475 - Chatham Islands [Matanginui Lmst]",NA,"GS 12167",17,"Waipawan","",55.8,53,13610,"gp_mid",-140.95,-47.81,"807",1,54.4,"ypresian"
"17401",52449,"col","Te Whanga Limestone",-176.5,-43.816666,"CH/f470, CH/f227 - Chatham Islands [Matanginui Lmst]",NA,"GS 12158, GS 11580",10,"Waipawan","",55.8,53,13610,"gp_mid",-140.95,-47.81,"807",1,54.4,"ypresian"
"17402",52450,"col","Te Whanga Limestone",176.5,-43.816666,"CH/f279 - Matanginui Limestone, Chatham Islands",NA,"",4,"Waipawan","",55.8,53,13610,"gp_mid",-148.45,-47.61,"807",1,54.4,"ypresian"
"17403",52451,"col","Te Whanga Limestone",176.5,-43.816666,"CH/f8 - Matanginui Limestone, Chatham Islands",NA,"GS 6717",1,"Waipawan","",55.8,53,13610,"gp_mid",-148.45,-47.61,"807",1,54.4,"ypresian"
"17407",52457,"col","La Meseta",-56.622501,-64.21611,"WP 10",NA,"",1,"Early Eocene","",55.8,48.6,14104,"gp_mid",-67.41,-61.85,"803",1,52.2,"ypresian"
"17448",52558,"col","Te Whanga Limestone",-176.5,-43.816666,"CH/f462 - Chatham Islands [Matanginui Lmst]",NA,"GS 12138",12,"Waipawan","",55.8,53,13610,"gp_mid",-140.95,-47.81,"807",1,54.4,"ypresian"
"17449",52559,"col","Te Whanga Limestone",176.766663,-44.283333,"CH/f476 - Matanginui Limestone, Pitt Island",NA,"GS 12168; Coll# 2764 (Hendy PhD)",8,"Waipawan","",55.8,53,13610,"gp_mid",-148.2,-48.09,"807",1,54.4,"ypresian"
"17450",52560,"col","Te Whanga Limestone",176.5,-43.816666,"CH/f36 - Matanginui Limestone, Chatham Islands",NA,"GS# 6892",3,"Ypresian","",56,47.8,13610,"gp_mid",-148.62,-47.02,"807",1,51.9,"ypresian"
"17451",52561,"col","Te Whanga Limestone",176.766663,-44.283333,"CH/f461 - Pitt Island [Matanginui Lmst]",NA,"GS 12137",12,"Waipawan","",55.8,53,13610,"gp_mid",-148.2,-48.09,"807",1,54.4,"ypresian"
"17452",52562,"col","Te Whanga Limestone",-176.766663,-44.283333,"CH/f269 - Matanginui Limestone, Pitt Island",NA,"DL91",3,"Waipawan","",55.8,53,13610,"gp_mid",-141.26,-48.27,"807",1,54.4,"ypresian"
"17453",52563,"col","Te Whanga Limestone",176.766663,-44.283333,"CH/f523 - Matanginui Limestone, Pitt Island",NA,"GS 12996",3,"Waipawan","",55.8,53,13610,"gp_mid",-148.2,-48.09,"807",1,54.4,"ypresian"
"17492",52614,"col","Martinez",-122.107002,38.02,"UW 1074A - Martinez",NA,"",13,"Ypresian","",56,47.8,14145,"gp_mid",-94.65,45.77,"130",1,51.9,"ypresian"
"17497",52619,"col","Martinez",-122.142998,38.014999,"UW 4000 - Martinez",NA,"",3,"Ypresian","",56,47.8,14145,"gp_mid",-94.69,45.77,"130",1,51.9,"ypresian"
"17498",52620,"col","Martinez",-122.128998,38.001999,"UW 1073 - Martinez",NA,"",13,"Ypresian","",56,47.8,14145,"gp_mid",-94.68,45.76,"130",1,51.9,"ypresian"
"17499",52621,"col","Martinez",-122.107002,38.02,"UW 1074 - Martinez",NA,"",5,"Ypresian","",56,47.8,14145,"gp_mid",-94.65,45.77,"130",1,51.9,"ypresian"
"18504",55249,"col","",-7.1,32.516666,"Djemaïa",NA,"",1,"Ypresian","",56,47.8,14719,"gp_mid",-0.5,22.99,"707",1,51.9,"ypresian"
"18505",55250,"col","",-6.906667,32.889999,"Bou Jniba- Khouribga",NA,"",2,"Ypresian","",56,47.8,14719,"gp_mid",-0.23,23.31,"707",1,51.9,"ypresian"
"18562",55494,"col","Cambay Shale",72.98278,21.326389,"Vastan Lignite Mine",NA,"",65,"Ypresian","",56,47.8,14970,"gp_mid",70.58,-6.77,"501",1,51.9,"ypresian"
"21250",59787,"col","Marnes de Foncouverte",2.499444,43.148335,"Asteroidea, Middle Ilerdien, Pradelle-enVal, La Bourdasse, Aude",NA,"",3,"Ypresian","",56,47.8,17130,"gp_mid",8.93,34.26,"305",1,51.9,"ypresian"
"21251",59788,"col","Marnes de Foncouverte",2.566111,43.149445,"Asteroidea, Middle Ilerdien, Montlaur, Aude",NA,"",36,"Ypresian","",56,47.8,17130,"gp_mid",8.99,34.26,"305",1,51.9,"ypresian"
"21252",59789,"col","Marnes de Foncouverte",2.7,43.166668,"Middle Ilerdien, Fontcouverte, Aude",NA,"",30,"Ypresian","",56,47.8,17130,"gp_mid",9.1,34.27,"305",1,51.9,"ypresian"
"21253",59790,"col","Marnes de Foncouverte",2.498889,43.081944,"Asteroidea, Middle Ilerdien, Sou brook, Taurize, Aude",NA,"",5,"Ypresian","",56,47.8,17130,"gp_mid",8.92,34.19,"305",1,51.9,"ypresian"
"21845",60768,"col","Nanjemoy",-77.191391,37.666389,"Pamunkey River - old Newcastle Bridge",NA,"USGS Locality 26405",1,"Early Eocene","",55.8,48.6,17420,"gp_mid",-51.74,38.65,"109",1,52.2,"ypresian"
"21911",60846,"col","Nanjemoy",-77.182503,37.672501,"Pamunkey River - 0.85 below the Rte. 360 bridge",NA,"USGS Locality 26404",1,"Early Eocene","",55.8,48.6,17420,"gp_mid",-51.72,38.66,"109",1,52.2,"ypresian"
"21914",60849,"col","Nanjemoy",-77.195274,37.642223,"Pamunkey River - northeast of Farmers Shop Corner",NA,"USGS Locality 26393",2,"Early Eocene","",55.8,48.6,17420,"gp_mid",-51.75,38.63,"109",1,52.2,"ypresian"
"21924",60859,"col","Nanjemoy",-77.246666,37.697498,"Pamunkey River - at Hanovertown",NA,"USGS Locality 26380",1,"Early Eocene","",55.8,48.6,17420,"gp_mid",-51.78,38.7,"109",1,52.2,"ypresian"
"21925",60860,"col","Nanjemoy",-77.228615,37.716667,"Pamunkey River - at Dabneys Millpond",NA,"USGS Locality 26379",2,"Early Eocene","",55.8,48.6,17420,"gp_mid",-51.75,38.71,"109",1,52.2,"ypresian"
"21926",60861,"col","Nanjemoy",-77.228615,37.716667,"Pamunkey River - above Dabneys Millpond",NA,"USGS Locality 26378",2,"Early Eocene","",55.8,48.6,17420,"gp_mid",-51.75,38.71,"109",1,52.2,"ypresian"
"21927",60862,"col","Nanjemoy",-77.246666,37.697498,"Pamunkey River - below Hanovertown",NA,"USGS Locality 26377",2,"Early Eocene","",55.8,48.6,17420,"gp_mid",-51.78,38.7,"109",1,52.2,"ypresian"
"21929",60864,"col","Nanjemoy",-77.34861,37.934444,"Mattaponi River - east of Rts. 601 & 663 intersection",NA,"USGS Locality 26376",1,"Early Eocene","",55.8,48.6,17420,"gp_mid",-51.79,38.95,"109",1,52.2,"ypresian"
"21930",60865,"col","Nanjemoy",-77.34861,37.934444,"Mattaponi River - northeast of Rts. 601 and 663 intersection",NA,"USGS Locality 26375",1,"Early Eocene","",55.8,48.6,17420,"gp_mid",-51.79,38.95,"109",1,52.2,"ypresian"
"21931",60866,"col","Nanjemoy",-77.301109,37.906387,"Mattaponi River - east of Reedy Mill",NA,"USGS Locality 26374",1,"Early Eocene","",55.8,48.6,17420,"gp_mid",-51.75,38.91,"109",1,52.2,"ypresian"
"21932",60867,"col","Nanjemoy",-77.176666,38.145557,"Mill Creek - below dam at Millers Pond",NA,"USGS Locality 26372",1,"Early Eocene","",55.8,48.6,17420,"gp_mid",-51.54,39.11,"109",1,52.2,"ypresian"
"21933",60868,"col","Nanjemoy",-77.29528,38.226944,"Rappahannock River - 1 mile below mouth of Ware Creek",NA,"USGS Locality 26371",1,"Early Eocene","",55.8,48.6,17420,"gp_mid",-51.63,39.21,"109",1,52.2,"ypresian"
"21934",60869,"col","Nanjemoy",-77.186386,38.340832,"Potomac River - 2.7 miles below Fairview Beach",NA,"USGS Locality 26370",1,"Early Eocene","",55.8,48.6,17420,"gp_mid",-51.48,39.3,"109",1,52.2,"ypresian"
"21936",60871,"col","Nanjemoy",-77.33139,37.768055,"Pamunkey River - 0.65 mile above Normans Bridge",NA,"USGS Locality 26367",1,"Early Eocene","",55.8,48.6,17420,"gp_mid",-51.83,38.78,"109",1,52.2,"ypresian"
"21937",60872,"col","Nanjemoy",-77.376114,38.060555,"Mattaponi River - at Bowling Green Park",NA,"USGS Locality 26366",1,"Early Eocene","",55.8,48.6,17420,"gp_mid",-51.77,39.07,"109",1,52.2,"ypresian"
"21947",60904,"col","Nanjemoy",-77.390282,38.226391,"Mattaponi River - 1.5 miles above Rte. 207 Bridge",NA,"USGS Locality 26365",1,"Early Eocene","",55.8,48.6,17420,"gp_mid",-51.72,39.24,"109",1,52.2,"ypresian"
"21948",60905,"col","Nanjemoy",-77.29528,38.226665,"Rappahannock River - 0.2 mile below the mouth of Ware Creek",NA,"USGS Locality 26364",1,"Early Eocene","",55.8,48.6,17420,"gp_mid",-51.63,39.21,"109",1,52.2,"ypresian"
"21949",60906,"col","Nanjemoy",-76.84417,38.02639,"Potomac River - 1.7 miles southeast of Windmill Point",NA,"USGS Locality 26363",1,"Early Eocene","",55.8,48.6,17420,"gp_mid",-51.26,38.92,"109",1,52.2,"ypresian"
"21950",60907,"col","Nanjemoy",-77.227776,38.18972,"Rappahannock River - across from Goat Island",NA,"USGS Locality 26360",1,"Early Eocene","",55.8,48.6,17420,"gp_mid",-51.57,39.16,"109",1,52.2,"ypresian"
"21959",60916,"col","Nanjemoy",-77.348335,38.02639,"Mattaponi River - below Rte. 654 bridge",NA,"USGS Locality 26352",1,"Early Eocene","",55.8,48.6,17420,"gp_mid",-51.75,39.03,"109",1,52.2,"ypresian"
"21987",60956,"col","Nanjemoy",-77.284447,38.34222,"Potomac River - at Bull Bluff",NA,"USGS Locality 26340",1,"Early Eocene","",55.8,48.6,17420,"gp_mid",-51.57,39.32,"109",1,52.2,"ypresian"
"22117",61094,"col","La Meseta",-56.683334,-64.245834,"Seymour Island, Telm 4, RV 9501",NA,"UCMP RV9501",1,"Ypresian","",56,47.8,17566,"gp_mid",-67.48,-61.87,"803",1,51.9,"ypresian"
"23218",62890,"col","Bashi",-88.699997,32.366669,"Bashi Formation, Meridian",NA,"",32,"Early Eocene","",55.8,48.6,18130,"gp_mid",-64.99,36.19,"101",1,52.2,"ypresian"
"23570",63547,"col","La Meseta",-56.75,-64.25,"La Meseta Fm Telm 1",NA,"",10,"Ypresian","",56,47.8,18284,"gp_mid",-67.54,-61.87,"803",1,51.9,"ypresian"
"23571",63548,"col","La Meseta",-56.75,-64.25,"La Meseta Fm Telm 2",NA,"",59,"Ypresian","",56,47.8,18284,"gp_mid",-67.54,-61.87,"803",1,51.9,"ypresian"
"23572",63549,"col","La Meseta",-56.75,-64.25,"La Meseta Fm Telm 3",NA,"",69,"Ypresian","",56,47.8,18284,"gp_mid",-67.54,-61.87,"803",1,51.9,"ypresian"
"23573",63550,"col","La Meseta",-56.75,-64.25,"La Meseta Fm Telm 4",NA,"",40,"Ypresian","",56,47.8,18284,"gp_mid",-67.54,-61.87,"803",1,51.9,"ypresian"
"24454",65225,"col","",36.958332,31.934999,"Qasr Ouzaykhim",NA,"",12,"Early Eocene","",55.8,48.6,18800,"gp_mid",37.45,14.85,"503",1,52.2,"ypresian"
"25871",67459,"col","Bashi",-88.699997,32.366669,"Bashi Formation, Meridian",NA,"",1,"Early Eocene","",55.8,48.6,19764,"gp_mid",-64.99,36.19,"101",1,52.2,"ypresian"
"26066",67711,"col","Fur",8.916667,56.916668,"Ejerslev Industrial Pit",NA,"Island of Mors",7,"Ypresian","",56,47.8,48578,"gp_mid",15.5,47.75,"302",1,51.9,"ypresian"
"26450",68430,"col","Tielt",3.232222,51.012501,"Ampe quarry, Egem",NA,"",20,"Ypresian","",56,47.8,19707,"gp_mid",10.25,42.07,"315",1,51.9,"ypresian"
"26454",68434,"col","Harwich",1.2625,51.935555,"Harwich (Harwich Stone Band)",NA,"",2,"Early Eocene","",55.8,48.6,19707,"gp_mid",8.69,43.08,"315",1,52.2,"ypresian"
"26455",68435,"col","London Clay",0.528333,51.410831,"Upnor",NA,"",1,"Ypresian","",56,47.8,19707,"gp_mid",8.01,42.6,"315",1,51.9,"ypresian"
"26456",68436,"col","London Clay",1.078889,51.352779,"Studd Hill",NA,"",2,"Ypresian","",56,47.8,19707,"gp_mid",8.47,42.51,"315",1,51.9,"ypresian"
"26457",68437,"col","Vaugirard",2.238333,48.812222,"Meudon",NA,"",45,"Ypresian","",56,47.8,12784,"gp_mid",9.2,39.92,"305",1,51.9,"ypresian"
"26458",68438,"col","Kortijk Clay",4.421944,50.871113,"Evere",NA,"",2,"Ypresian","",56,47.8,19707,"gp_mid",11.25,41.88,"315",1,51.9,"ypresian"
"26459",68439,"col","Wittering",-1.334167,50.937222,"Dummer's Copse",NA,"",7,"Ypresian","",56,47.8,19707,"gp_mid",6.38,42.22,"315",1,51.9,"ypresian"
"26460",68440,"col","",3.413889,49.540279,"Prémontré",NA,"Anizy-Le-Château",62,"MP 10","",55.8,48.6,47934,"gp_mid",10.27,40.59,"315",1,52.2,"ypresian"
"26649",68720,"col","",-81.666664,77.366669,"Swinnerton Peninsula Locality 84-8",NA,"",1,"Wasatchian","",55.8,50.3,19836,"gp_mid",-10.74,72.82,"106",1,53.05,"ypresian"
"27696",70564,"col","Takaradayskaya",142.100006,47,"Takaradayskaya Suite - Takaraday Railway station, Kholmsk District, Sakhalin",NA,"",40,"Early Eocene","",55.8,48.6,23628,"gp_mid",131.98,56.13,"610",1,52.2,"ypresian"
"28263",71233,"col","",-5.85,34.316666,"Ouled Abdoun Basin (Phosphatherium type specimen)",NA,"",2,"Ypresian","",56,47.8,23856,"gp_mid",NA,NA,"coordinates not computable using this model",1,51.9,"ypresian"
"28264",71235,"col","",-5.85,34.316666,"Ouled Abdoun Basin (Daouitherium type specimen)",NA,"",9,"Ypresian","",56,47.8,23857,"gp_mid",NA,NA,"coordinates not computable using this model",1,51.9,"ypresian"
"28355",71438,"col","Cambay Shale",72.98278,21.326389,"Vastan Lignite Mine (marine vertebrates)",NA,"",10,"Ypresian","",56,47.8,24154,"gp_mid",70.58,-6.77,"501",1,51.9,"ypresian"
"28431",71633,"col","Roda",0.533333,42.299999,"Roda IV, La Puebla de Roda",NA,"",21,"Ypresian","",56,47.8,24207,"gp_mid",7.72,33.42,"304",1,51.9,"ypresian"
"29016",73288,"col","Murillo",0.5,42.299999,"Esdolodoma, Isabena Valley, Aragon",NA,"",7,"Ypresian","",56,47.8,24604,"gp_mid",7.69,33.42,"304",1,51.9,"ypresian"
"30090",75233,"col","",4.316667,16.98333,"Mantass",NA,"Mantas, Mantess",4,"Early Eocene","",55.8,48.6,25402,"gp_mid",6.48,5.61,"714",1,52.2,"ypresian"
"30091",75234,"col","",4.316667,16.98333,"Sessao",NA,"",3,"Early Eocene","",55.8,48.6,25402,"gp_mid",6.48,5.61,"714",1,52.2,"ypresian"
"30128",75319,"col","",-0.733333,42.266666,"Figols-Castigaleu sequence A1, facies 1, sample 2",NA,"",6,"Ypresian","",56,47.8,25442,"gp_mid",6.6,33.48,"304",1,51.9,"ypresian"
"30129",75320,"col","",-0.733333,42.266666,"Figols-Castigaleu sequence A2, facies 1, sample 3",NA,"",15,"Ypresian","",56,47.8,25442,"gp_mid",6.6,33.48,"304",1,51.9,"ypresian"
"30130",75321,"col","",-0.733333,42.266666,"Figols-Castigaleu sequence A2, facies 1, sample 4",NA,"",10,"Ypresian","",56,47.8,25442,"gp_mid",6.6,33.48,"304",1,51.9,"ypresian"
"30131",75322,"col","",-0.733333,42.266666,"Figols-Castigaleu sequence A2, facies 1, sample 5",NA,"",12,"Ypresian","",56,47.8,25442,"gp_mid",6.6,33.48,"304",1,51.9,"ypresian"
"30132",75323,"col","",-0.733333,42.266666,"Figols-Castigaleu sequence A2, facies 1, sample 6",NA,"",12,"Ypresian","",56,47.8,25442,"gp_mid",6.6,33.48,"304",1,51.9,"ypresian"
"30133",75324,"col","",-0.733333,42.266666,"Figols-Castigaleu sequence A2, facies 1, sample 7",NA,"",19,"Ypresian","",56,47.8,25442,"gp_mid",6.6,33.48,"304",1,51.9,"ypresian"
"30134",75325,"col","",-0.733333,42.266666,"Figols-Castigaleu sequence A2, facies 1, sample 8",NA,"",11,"Ypresian","",56,47.8,25442,"gp_mid",6.6,33.48,"304",1,51.9,"ypresian"
"30135",75326,"col","",-0.733333,42.266666,"Figols-Castigaleu sequence A2, facies 1, sample 9",NA,"",4,"Ypresian","",56,47.8,25442,"gp_mid",6.6,33.48,"304",1,51.9,"ypresian"
"30136",75327,"col","",-0.733333,42.266666,"Figols-Castigaleu sequence A2, facies 1, sample 10",NA,"",14,"Ypresian","",56,47.8,25442,"gp_mid",6.6,33.48,"304",1,51.9,"ypresian"
"30137",75328,"col","",-0.733333,42.266666,"Figols-Castigaleu sequence A2, facies 1, sample 11",NA,"",14,"Ypresian","",56,47.8,25442,"gp_mid",6.6,33.48,"304",1,51.9,"ypresian"
"30138",75329,"col","",-0.733333,42.266666,"Figols-Castigaleu sequence B1, facies 1, sample 12",NA,"",13,"Ypresian","",56,47.8,25442,"gp_mid",6.6,33.48,"304",1,51.9,"ypresian"
"30139",75330,"col","",-0.733333,42.266666,"Figols-Castigaleu sequence B1, facies 1, sample 13",NA,"",12,"Ypresian","",56,47.8,25442,"gp_mid",6.6,33.48,"304",1,51.9,"ypresian"
"30140",75331,"col","",-0.733333,42.266666,"Figols-Castigaleu sequence B1, facies 1, sample 14",NA,"",14,"Ypresian","",56,47.8,25442,"gp_mid",6.6,33.48,"304",1,51.9,"ypresian"
"30141",75332,"col","",-0.733333,42.266666,"Figols-Castigaleu sequence B2, facies 1, sample 15",NA,"",11,"Ypresian","",56,47.8,25442,"gp_mid",6.6,33.48,"304",1,51.9,"ypresian"
"30142",75333,"col","",-0.733333,42.266666,"Figols-Castigaleu sequence A4, facies 1, sample 16",NA,"",5,"Ypresian","",56,47.8,25442,"gp_mid",6.6,33.48,"304",1,51.9,"ypresian"
"30143",75334,"col","",-0.733333,42.266666,"Figols-Castigaleu sequence A4, facies 1, sample 17",NA,"",2,"Ypresian","",56,47.8,25442,"gp_mid",6.6,33.48,"304",1,51.9,"ypresian"
"30144",75335,"col","",-0.733333,42.266666,"Figols-Castigaleu sequence A4, facies 1, sample 18",NA,"",11,"Ypresian","",56,47.8,25442,"gp_mid",6.6,33.48,"304",1,51.9,"ypresian"
"30145",75336,"col","",-0.733333,42.266666,"Figols-Castigaleu sequence C1, facies 1, sample 19",NA,"",9,"Ypresian","",56,47.8,25442,"gp_mid",6.6,33.48,"304",1,51.9,"ypresian"
"30146",75337,"col","",-0.733333,42.266666,"Figols-Castigaleu sequence B2, facies 1, sample 20",NA,"",12,"Ypresian","",56,47.8,25442,"gp_mid",6.6,33.48,"304",1,51.9,"ypresian"
"30147",75338,"col","",-0.733333,42.266666,"Figols-Castigaleu sequence B2, facies 1, sample 21",NA,"",14,"Ypresian","",56,47.8,25442,"gp_mid",6.6,33.48,"304",1,51.9,"ypresian"
"30148",75339,"col","",-0.733333,42.266666,"Figols-Castigaleu sequence B2, facies 1, sample 22",NA,"",13,"Ypresian","",56,47.8,25442,"gp_mid",6.6,33.48,"304",1,51.9,"ypresian"
"30149",75340,"col","",-0.733333,42.266666,"Figols-Castigaleu sequence B2, facies 1, sample 23",NA,"",13,"Ypresian","",56,47.8,25442,"gp_mid",6.6,33.48,"304",1,51.9,"ypresian"
"30150",75341,"col","",-0.733333,42.266666,"Figols-Castigaleu sequence B2, facies 1, sample 24",NA,"",17,"Ypresian","",56,47.8,25442,"gp_mid",6.6,33.48,"304",1,51.9,"ypresian"
"30151",75342,"col","",-0.733333,42.266666,"Figols-Castigaleu sequence B2, facies 3, sample 25",NA,"",12,"Ypresian","",56,47.8,25442,"gp_mid",6.6,33.48,"304",1,51.9,"ypresian"
"30152",75343,"col","",-0.733333,42.266666,"Figols-Castigaleu sequence B2, facies 3, sample 26",NA,"",14,"Ypresian","",56,47.8,25442,"gp_mid",6.6,33.48,"304",1,51.9,"ypresian"
"30153",75344,"col","",-0.733333,42.266666,"Figols-Castigaleu sequence B2, facies 3, sample 27",NA,"",13,"Ypresian","",56,47.8,25442,"gp_mid",6.6,33.48,"304",1,51.9,"ypresian"
"30154",75345,"col","",-0.733333,42.266666,"Figols-Castigaleu sequence C1, facies 5, sample 28",NA,"",7,"Ypresian","",56,47.8,25442,"gp_mid",6.6,33.48,"304",1,51.9,"ypresian"
"30155",75346,"col","",-0.733333,42.266666,"Figols-Castigaleu sequence C1, facies 1, sample 29",NA,"",10,"Ypresian","",56,47.8,25442,"gp_mid",6.6,33.48,"304",1,51.9,"ypresian"
"30156",75347,"col","",-0.733333,42.266666,"Figols-Castigaleu sequence C3, facies 1, sample 30",NA,"",6,"Ypresian","",56,47.8,25442,"gp_mid",6.6,33.48,"304",1,51.9,"ypresian"
"30157",75348,"col","",-0.733333,42.266666,"Figols-Castigaleu sequence C3, facies 1, sample 31",NA,"",10,"Ypresian","",56,47.8,25442,"gp_mid",6.6,33.48,"304",1,51.9,"ypresian"
"30158",75349,"col","",-0.733333,42.266666,"Figols-Castigaleu sequence C3, facies 1, sample 32",NA,"",3,"Ypresian","",56,47.8,25442,"gp_mid",6.6,33.48,"304",1,51.9,"ypresian"
"30159",75350,"col","",-0.733333,42.266666,"Figols-Castigaleu sequence C3, facies 1, sample 33",NA,"",11,"Ypresian","",56,47.8,25442,"gp_mid",6.6,33.48,"304",1,51.9,"ypresian"
"30160",75351,"col","",-0.733333,42.266666,"Figols-Castigaleu sequence C3, facies 2, sample 34",NA,"",21,"Ypresian","",56,47.8,25442,"gp_mid",6.6,33.48,"304",1,51.9,"ypresian"
"30161",75352,"col","",-0.733333,42.266666,"Figols-Castigaleu sequence C1, facies 2, sample 35",NA,"",14,"Ypresian","",56,47.8,25442,"gp_mid",6.6,33.48,"304",1,51.9,"ypresian"
"30162",75353,"col","",-0.733333,42.266666,"Figols-Castigaleu sequence C1, facies 2, sample 36",NA,"",13,"Ypresian","",56,47.8,25442,"gp_mid",6.6,33.48,"304",1,51.9,"ypresian"
"30163",75354,"col","",-0.733333,42.266666,"Figols-Castigaleu sequence C1, facies 3, sample 37",NA,"",10,"Ypresian","",56,47.8,25442,"gp_mid",6.6,33.48,"304",1,51.9,"ypresian"
"30164",75355,"col","",-0.733333,42.266666,"Figols-Castigaleu sequence C1, facies 3, sample 38",NA,"",18,"Ypresian","",56,47.8,25442,"gp_mid",6.6,33.48,"304",1,51.9,"ypresian"
"30165",75356,"col","",-0.733333,42.266666,"Figols-Castigaleu sequence C1, facies 3, sample 39",NA,"",21,"Ypresian","",56,47.8,25442,"gp_mid",6.6,33.48,"304",1,51.9,"ypresian"
"30166",75357,"col","",-0.733333,42.266666,"Figols-Castigaleu sequence C1, facies 3, sample 40",NA,"",14,"Ypresian","",56,47.8,25442,"gp_mid",6.6,33.48,"304",1,51.9,"ypresian"
"30167",75358,"col","",-0.733333,42.266666,"Figols-Castigaleu sequence C1, facies 6, sample 41",NA,"",16,"Ypresian","",56,47.8,25442,"gp_mid",6.6,33.48,"304",1,51.9,"ypresian"
"30168",75359,"col","",-0.733333,42.266666,"Figols-Castigaleu sequence C1, facies 8, sample 42",NA,"",17,"Ypresian","",56,47.8,25442,"gp_mid",6.6,33.48,"304",1,51.9,"ypresian"
"30169",75360,"col","",-0.733333,42.266666,"Figols-Castigaleu sequence FG?, facies 6, sample 43",NA,"",13,"Ypresian","",56,47.8,25442,"gp_mid",6.6,33.48,"304",1,51.9,"ypresian"
"30170",75361,"col","",-0.733333,42.266666,"Figols-Castigaleu sequence FG?, facies 6, sample 44",NA,"",31,"Ypresian","",56,47.8,25442,"gp_mid",6.6,33.48,"304",1,51.9,"ypresian"
"30171",75362,"col","",-0.733333,42.266666,"Figols-Castigaleu sequence A2, facies 5, sample 45",NA,"",9,"Ypresian","",56,47.8,25442,"gp_mid",6.6,33.48,"304",1,51.9,"ypresian"
"30172",75363,"col","",-0.733333,42.266666,"Figols-Castigaleu sequence C1, facies 5, sample 46",NA,"",3,"Ypresian","",56,47.8,25442,"gp_mid",6.6,33.48,"304",1,51.9,"ypresian"
"30173",75364,"col","",-0.733333,42.266666,"Figols-Castigaleu sequence D2, facies 5, sample 47",NA,"",2,"Ypresian","",56,47.8,25442,"gp_mid",6.6,33.48,"304",1,51.9,"ypresian"
"30174",75365,"col","",-0.733333,42.266666,"Figols-Castigaleu sequence A2, facies 6, sample 48",NA,"",16,"Ypresian","",56,47.8,25442,"gp_mid",6.6,33.48,"304",1,51.9,"ypresian"
"30175",75366,"col","",-0.733333,42.266666,"Figols-Castigaleu sequence A2, facies 6, sample 49",NA,"",18,"Ypresian","",56,47.8,25442,"gp_mid",6.6,33.48,"304",1,51.9,"ypresian"
"30176",75367,"col","",-0.733333,42.266666,"Figols-Castigaleu sequence A2, facies 6, sample 50",NA,"",10,"Ypresian","",56,47.8,25442,"gp_mid",6.6,33.48,"304",1,51.9,"ypresian"
"30177",75368,"col","",-0.733333,42.266666,"Figols-Castigaleu sequence C2, facies 6, sample 51",NA,"",17,"Ypresian","",56,47.8,25442,"gp_mid",6.6,33.48,"304",1,51.9,"ypresian"
"30178",75369,"col","",-0.733333,42.266666,"Figols-Castigaleu sequence A1, facies 7, sample 52",NA,"",14,"Ypresian","",56,47.8,25442,"gp_mid",6.6,33.48,"304",1,51.9,"ypresian"
"30179",75370,"col","",-0.733333,42.266666,"Figols-Castigaleu sequence A2, facies 7, sample 53",NA,"",44,"Ypresian","",56,47.8,25442,"gp_mid",6.6,33.48,"304",1,51.9,"ypresian"
"30180",75371,"col","",-0.733333,42.266666,"Figols-Castigaleu sequence A3, facies 7, sample 54",NA,"",23,"Ypresian","",56,47.8,25442,"gp_mid",6.6,33.48,"304",1,51.9,"ypresian"
"30181",75372,"col","",-0.733333,42.266666,"Figols-Castigaleu sequence FG?, facies 8, sample 55",NA,"",19,"Ypresian","",56,47.8,25442,"gp_mid",6.6,33.48,"304",1,51.9,"ypresian"
"30182",75373,"col","",-0.733333,42.266666,"Figols-Castigaleu sequence A3, facies 8, sample 56",NA,"",25,"Ypresian","",56,47.8,25442,"gp_mid",6.6,33.48,"304",1,51.9,"ypresian"
"30183",75374,"col","",-0.733333,42.266666,"Figols-Castigaleu sequence A3, facies 8, sample 57",NA,"",17,"Ypresian","",56,47.8,25442,"gp_mid",6.6,33.48,"304",1,51.9,"ypresian"
"30184",75375,"col","",-0.733333,42.266666,"Figols-Castigaleu sequence A4, facies 8, sample 58",NA,"",19,"Ypresian","",56,47.8,25442,"gp_mid",6.6,33.48,"304",1,51.9,"ypresian"
"30185",75376,"col","",-0.733333,42.266666,"Figols-Castigaleu sequence A4, facies 8, sample 59",NA,"",10,"Ypresian","",56,47.8,25442,"gp_mid",6.6,33.48,"304",1,51.9,"ypresian"
"30186",75377,"col","",-0.733333,42.266666,"Figols-Castigaleu sequence B1, facies 7, sample 60",NA,"",15,"Ypresian","",56,47.8,25442,"gp_mid",6.6,33.48,"304",1,51.9,"ypresian"
"30187",75378,"col","",-0.733333,42.266666,"Figols-Castigaleu sequence B2, facies 7, sample 61",NA,"",15,"Ypresian","",56,47.8,25442,"gp_mid",6.6,33.48,"304",1,51.9,"ypresian"
"30188",75379,"col","",-0.733333,42.266666,"Figols-Castigaleu sequence B2, facies 7, sample 62",NA,"",15,"Ypresian","",56,47.8,25442,"gp_mid",6.6,33.48,"304",1,51.9,"ypresian"
"30189",75380,"col","",-0.733333,42.266666,"Figols-Castigaleu sequence B2, facies 7, sample 63",NA,"",18,"Ypresian","",56,47.8,25442,"gp_mid",6.6,33.48,"304",1,51.9,"ypresian"
"30190",75381,"col","",-0.733333,42.266666,"Figols-Castigaleu sequence C1, facies 7, sample 64",NA,"",14,"Ypresian","",56,47.8,25442,"gp_mid",6.6,33.48,"304",1,51.9,"ypresian"
"30191",75382,"col","",-0.733333,42.266666,"Figols-Castigaleu sequence C1, facies 7, sample 65",NA,"",13,"Ypresian","",56,47.8,25442,"gp_mid",6.6,33.48,"304",1,51.9,"ypresian"
"30192",75383,"col","",-0.733333,42.266666,"Figols-Castigaleu sequence C1, facies 7, sample 66",NA,"",22,"Ypresian","",56,47.8,25442,"gp_mid",6.6,33.48,"304",1,51.9,"ypresian"
"30193",75384,"col","",-0.733333,42.266666,"Figols-Castigaleu sequence B1, facies 8, sample 67",NA,"",16,"Ypresian","",56,47.8,25442,"gp_mid",6.6,33.48,"304",1,51.9,"ypresian"
"30194",75385,"col","",-0.733333,42.266666,"Figols-Castigaleu sequence C1, facies 8, sample 68",NA,"",14,"Ypresian","",56,47.8,25442,"gp_mid",6.6,33.48,"304",1,51.9,"ypresian"
"30195",75386,"col","",-0.733333,42.266666,"Figols-Castigaleu sequence C2, facies 8, sample 69",NA,"",17,"Ypresian","",56,47.8,25442,"gp_mid",6.6,33.48,"304",1,51.9,"ypresian"
"30196",75387,"col","",-0.733333,42.266666,"Figols-Castigaleu sequence C2, facies 8, sample 70",NA,"",20,"Ypresian","",56,47.8,25442,"gp_mid",6.6,33.48,"304",1,51.9,"ypresian"
"30197",75388,"col","",-0.733333,42.266666,"Figols-Castigaleu sequence C2, facies 7, sample 71",NA,"",15,"Ypresian","",56,47.8,25442,"gp_mid",6.6,33.48,"304",1,51.9,"ypresian"
"30198",75389,"col","",-0.733333,42.266666,"Figols-Castigaleu sequence C2, facies 7, sample 72",NA,"",30,"Ypresian","",56,47.8,25442,"gp_mid",6.6,33.48,"304",1,51.9,"ypresian"
"30199",75390,"col","",-0.733333,42.266666,"Figols-Castigaleu sequence C2, facies 7, sample 73",NA,"",19,"Ypresian","",56,47.8,25442,"gp_mid",6.6,33.48,"304",1,51.9,"ypresian"
"30200",75391,"col","",-0.733333,42.266666,"Figols-Castigaleu sequence C2, facies 7, sample 74",NA,"",29,"Ypresian","",56,47.8,25442,"gp_mid",6.6,33.48,"304",1,51.9,"ypresian"
"30201",75392,"col","",-0.733333,42.266666,"Figols-Castigaleu sequence D1, facies 8, sample 75",NA,"",15,"Ypresian","",56,47.8,25442,"gp_mid",6.6,33.48,"304",1,51.9,"ypresian"
"30202",75393,"col","",-0.733333,42.266666,"Figols-Castigaleu sequence E1, facies 5, sample 76",NA,"",6,"Ypresian","",56,47.8,25442,"gp_mid",6.6,33.48,"304",1,51.9,"ypresian"
"30203",75394,"col","",-0.733333,42.266666,"Figols-Castigaleu sequence D1, facies 6, sample 77",NA,"",18,"Ypresian","",56,47.8,25442,"gp_mid",6.6,33.48,"304",1,51.9,"ypresian"
"30204",75395,"col","",-0.733333,42.266666,"Figols-Castigaleu sequence D1, facies 7, sample 78",NA,"",16,"Ypresian","",56,47.8,25442,"gp_mid",6.6,33.48,"304",1,51.9,"ypresian"
"30205",75396,"col","",-0.733333,42.266666,"Figols-Castigaleu sequence D1, facies 7, sample 79",NA,"",17,"Ypresian","",56,47.8,25442,"gp_mid",6.6,33.48,"304",1,51.9,"ypresian"
"30206",75397,"col","",-0.733333,42.266666,"Figols-Castigaleu sequence D2, facies 7, sample 80",NA,"",26,"Ypresian","",56,47.8,25442,"gp_mid",6.6,33.48,"304",1,51.9,"ypresian"
"30207",75398,"col","",-0.733333,42.266666,"Figols-Castigaleu sequence D2, facies 7, sample 81",NA,"",17,"Ypresian","",56,47.8,25442,"gp_mid",6.6,33.48,"304",1,51.9,"ypresian"
"30208",75399,"col","",-0.733333,42.266666,"Figols-Castigaleu sequence D2, facies 7, sample 82",NA,"",15,"Ypresian","",56,47.8,25442,"gp_mid",6.6,33.48,"304",1,51.9,"ypresian"
"30209",75400,"col","",-0.733333,42.266666,"Figols-Castigaleu sequence D1, facies 8, sample 83",NA,"",8,"Ypresian","",56,47.8,25442,"gp_mid",6.6,33.48,"304",1,51.9,"ypresian"
"30210",75401,"col","",-0.733333,42.266666,"Figols-Castigaleu sequence F1, facies 7, sample 84",NA,"",22,"Ypresian","",56,47.8,25442,"gp_mid",6.6,33.48,"304",1,51.9,"ypresian"
"30211",75402,"col","",-0.733333,42.266666,"Figols-Castigaleu sequence F2, facies 7, sample 85",NA,"",12,"Ypresian","",56,47.8,25442,"gp_mid",6.6,33.48,"304",1,51.9,"ypresian"
"30212",75403,"col","",-0.733333,42.266666,"Figols-Castigaleu sequence F2, facies 7, sample 86",NA,"",8,"Ypresian","",56,47.8,25442,"gp_mid",6.6,33.48,"304",1,51.9,"ypresian"
"30213",75404,"col","",-0.733333,42.266666,"Figols-Castigaleu sequence H2, facies 4, sample 87",NA,"",10,"Ypresian","",56,47.8,25442,"gp_mid",6.6,33.48,"304",1,51.9,"ypresian"
"30214",75405,"col","",-0.733333,42.266666,"Figols-Castigaleu sequence I1, facies 4, sample 88",NA,"",8,"Ypresian","",56,47.8,25442,"gp_mid",6.6,33.48,"304",1,51.9,"ypresian"
"30215",75406,"col","",-0.733333,42.266666,"Figols-Castigaleu sequence I2, facies 4, sample 89",NA,"",11,"Ypresian","",56,47.8,25442,"gp_mid",6.6,33.48,"304",1,51.9,"ypresian"
"30216",75407,"col","",-0.733333,42.266666,"Figols-Castigaleu sequence I3, facies 4, sample 90",NA,"",4,"Ypresian","",56,47.8,25442,"gp_mid",6.6,33.48,"304",1,51.9,"ypresian"
"30217",75408,"col","",-0.733333,42.266666,"Figols-Castigaleu sequence G1, facies 6, sample 91",NA,"",13,"Ypresian","",56,47.8,25442,"gp_mid",6.6,33.48,"304",1,51.9,"ypresian"
"30218",75409,"col","",-0.733333,42.266666,"Figols-Castigaleu sequence G1, facies 7, sample 92",NA,"",16,"Ypresian","",56,47.8,25442,"gp_mid",6.6,33.48,"304",1,51.9,"ypresian"
"30219",75410,"col","",-0.733333,42.266666,"Figols-Castigaleu sequence G1, facies 7, sample 93",NA,"",31,"Ypresian","",56,47.8,25442,"gp_mid",6.6,33.48,"304",1,51.9,"ypresian"
"30220",75411,"col","",-0.733333,42.266666,"Figols-Castigaleu sequence G2, facies 7, sample 94",NA,"",16,"Ypresian","",56,47.8,25442,"gp_mid",6.6,33.48,"304",1,51.9,"ypresian"
"30221",75412,"col","",-0.733333,42.266666,"Figols-Castigaleu sequence G1, facies 8, sample 95",NA,"",23,"Ypresian","",56,47.8,25442,"gp_mid",6.6,33.48,"304",1,51.9,"ypresian"
"30222",75413,"col","",-0.733333,42.266666,"Figols-Castigaleu sequence G1, facies 8, sample 96",NA,"",13,"Ypresian","",56,47.8,25442,"gp_mid",6.6,33.48,"304",1,51.9,"ypresian"
"30223",75414,"col","",-0.733333,42.266666,"Figols-Castigaleu sequence G2, facies 6, sample 97",NA,"",27,"Ypresian","",56,47.8,25442,"gp_mid",6.6,33.48,"304",1,51.9,"ypresian"
"30224",75415,"col","",-0.733333,42.266666,"Figols-Castigaleu sequence H2, facies 6, sample 98",NA,"",9,"Ypresian","",56,47.8,25442,"gp_mid",6.6,33.48,"304",1,51.9,"ypresian"
"30225",75416,"col","",-0.733333,42.266666,"Figols-Castigaleu sequence I3, facies 7, sample 99",NA,"",9,"Ypresian","",56,47.8,25442,"gp_mid",6.6,33.48,"304",1,51.9,"ypresian"
"30226",75417,"col","",-0.733333,42.266666,"Figols-Castigaleu sequence I3, facies 7, sample 100",NA,"",8,"Ypresian","",56,47.8,25442,"gp_mid",6.6,33.48,"304",1,51.9,"ypresian"
"30231",75457,"col","La Meseta",-56.616669,-64.199997,"Seymour Island, Cape Wiman, La Meseta Formation, Telm 1",NA,"",5,"Ypresian","",56,47.8,25457,"gp_mid",-67.4,-61.84,"803",1,51.9,"ypresian"
"30234",75473,"col","",13.883333,45.866669,"Vipava Valley",NA,"Reef 3635",11,"Early Eocene","",55.8,48.6,25467,"gp_mid",20.71,32.78,"307",1,52.2,"ypresian"
"30275",75597,"col","Yoncali",34.5,39.483334,"Cankiri Decapods",NA,"",1,"Early Eocene","",55.8,48.6,25529,"gp_mid",37.22,29.53,"504",1,52.2,"ypresian"
"30540",76601,"col","London Clay",-0.25,51.483334,"No. 2 Pit, Aveley, Essex - London Clay",NA,"",97,"Ypresian","",56,47.8,25898,"gp_mid",7.36,42.71,"315",1,51.9,"ypresian"
"30629",76990,"col","",-5.581111,31.538889,"Tinerhir, bryozoan-corallinacean mud mound",NA,"Reef 831",10,"Ypresian","",56,47.8,26046,"gp_mid",0.59,21.73,"714",1,51.9,"ypresian"
"30630",76991,"col","",-5.581111,31.538889,"Tinerhir, oyster boundstone",NA,"Reef 832",4,"Ypresian","",56,47.8,26046,"gp_mid",0.59,21.73,"714",1,51.9,"ypresian"
"30631",76993,"col","",90,32,"Bed 12 (of Douvillé) - Gastropod limestone",NA,"",11,"Early Eocene","",55.8,48.6,26050,"gp_mid",85.16,14.39,"613",1,52.2,"ypresian"
"30633",76995,"col","",90,32,"Bed 14 (of Douvillé) - Calcareous shales",NA,"",6,"Early Eocene","",55.8,48.6,26050,"gp_mid",85.16,14.39,"613",1,52.2,"ypresian"
"30638",77000,"col","",0.516667,42.383331,"Serraduy, Campo-Tremp area, coralgal patch reefs",NA,"Reef 3662",8,"Ypresian","",56,47.8,26053,"gp_mid",7.72,33.5,"304",1,51.9,"ypresian"
"30639",77001,"col","",0.55,42.316666,"Col de Vent, Campo-Tremp area, coralgal reef mounds",NA,"Reef 3663",3,"Ypresian","",56,47.8,26053,"gp_mid",7.74,33.43,"304",1,51.9,"ypresian"
"30641",77003,"col","",0.466667,42.349998,"Turbon anticline, Campo-Tremp area, foraminiferal reef mounds",NA,"Reef 3664",2,"Ypresian","",56,47.8,26053,"gp_mid",7.67,33.47,"304",1,51.9,"ypresian"
"30646",77032,"col","Richmond",-76.900002,18.366667,"Port Maria [Richmond Fm]",NA,"",3,"Early Eocene","",55.8,48.6,26074,"gp_mid",NA,NA,"coordinates not computable using this model",1,52.2,"ypresian"
"30655",77045,"col","Scotland",-59.549999,13.216667,"Bissex Hill, Scotland Beds",NA,"",5,"Early Eocene","",55.8,48.6,26074,"gp_mid",-51.47,11.75,"234",1,52.2,"ypresian"
"30683",77111,"col","Jdeir",12.583333,33.916668,"Gabes-Tripoli Basin, Nummulites Bank, offshore Libya",NA,"",16,"Ypresian","",56,47.8,26107,"gp_mid",17.16,20.92,"715",1,51.9,"ypresian"
"30689",77117,"col","",-7.1,31.299999,"Western High Atlas, oyster biostromes",NA,"Reef 826",3,"Ypresian","",56,47.8,26109,"gp_mid",-0.82,21.81,"714",1,51.9,"ypresian"
"30820",77304,"col","",65.650002,27.15,"Laki Group",NA,"",16,"Early Eocene","",55.8,48.6,26170,"gp_mid",66.92,20.16,"507",1,52.2,"ypresian"
"30867",77379,"col","Laki",67.900002,25.308332,"Loc. 15 (Laki Formation)",NA,"",2,"Early Eocene","",55.8,48.6,26174,"gp_mid",67.43,-1.5,"501",1,52.2,"ypresian"
"30868",77394,"col","Laki",68.14167,25.666668,"Loc. 25 (Laki Formation)",NA,"",4,"Early Eocene","",55.8,48.6,26174,"gp_mid",67.75,-1.24,"501",1,52.2,"ypresian"
"30869",77380,"col","Laki",67.900002,25.308332,"Loc. 16 (Laki Formation)",NA,"",4,"Early Eocene","",55.8,48.6,26174,"gp_mid",67.43,-1.5,"501",1,52.2,"ypresian"
"30875",77391,"col","",13.866667,45.849998,"Uhanje, Trstelj",NA,"Reef 3637",5,"Ypresian","",56,47.8,26198,"gp_mid",20.69,32.77,"307",1,51.9,"ypresian"
"30877",77395,"col","Laki",67.900002,25.308332,"Loc. 10 (Laki Formation)",NA,"",8,"Early Eocene","",55.8,48.6,26174,"gp_mid",67.43,-1.5,"501",1,52.2,"ypresian"
"30926",77526,"col","Bathurst",26.931999,-33.478001,"Birbury Farm",NA,"",27,"Ypresian","",56,47.8,26226,"gp_mid",21.27,-47.71,"701",1,51.9,"ypresian"
"30952",77608,"col","Bruxellian",3.333333,51.166668,"Oedelem Sands (Sables d'Oedelem) - Bruxellian Formation",NA,"",86,"Ypresian","",56,47.8,24507,"gp_mid",10.35,42.22,"315",1,51.9,"ypresian"
"31013",77846,"col","Qimugen",84,41,"Flemingostrea-Panopea comm. - Qumugen Fm (Upper Mbr)",NA,"",2,"Early Eocene","",55.8,48.6,26280,"gp_mid",82.4,36.18,"601",1,52.2,"ypresian"
"31015",77848,"col","Qimugen",84,41,"Corbula-Solecurtus-Tellina comm. - Qumugen Fm (Upper Mbr)",NA,"",3,"Early Eocene","",55.8,48.6,26280,"gp_mid",82.4,36.18,"601",1,52.2,"ypresian"
"31016",77849,"col","Qimugen",84,41,"Ostrea (Turkostrea)-Sokolowia comm. - Qimugen Fm (Upper Mbr)",NA,"",3,"Early Eocene","",55.8,48.6,26280,"gp_mid",82.4,36.18,"601",1,52.2,"ypresian"
"31105",78009,"col","",18.666668,47.716667,"Tokod, Dorog Basin, brackish water fauna",NA,"",17,"Early Eocene","",55.8,48.6,26319,"gp_mid",25.18,32.9,"308",1,52.2,"ypresian"
"31106",78013,"col","",18.666668,47.716667,"Tokod, Dorog Basin, Operculina Beds",NA,"",13,"Early Eocene","",55.8,48.6,26319,"gp_mid",25.18,32.9,"308",1,52.2,"ypresian"
"31347",78432,"col","Futagojima",129.883331,32.75,"Nagasaki 1 [Futagojima Formation]",NA,"",1,"Early Eocene","",55.8,48.6,26376,"gp_mid",125.57,39.65,"610",1,52.2,"ypresian"
"31349",78434,"col","Futagojima",129.75,32.633331,"Nagasaki 3 [Futagojima Formation]",NA,"",1,"Early Eocene","",55.8,48.6,26376,"gp_mid",125.48,39.5,"610",1,52.2,"ypresian"
"31572",78721,"col","",-121.602776,38.514442,"Capay Eocene Corals, CA, I",NA,"",8,"Ypresian","",56,47.8,26462,"gp_mid",-93.97,46.2,"130",1,51.9,"ypresian"
"31573",78722,"col","Capay",-122.188057,38.769444,"Capay Eocene Corals, CA, II",NA,"",6,"Ypresian","",56,47.8,26462,"gp_mid",-94.57,46.52,"130",1,51.9,"ypresian"
"31574",78723,"col","",-121.987778,38.352779,"Capay Eocene Corals, CA, III",NA,"",5,"Ypresian","",56,47.8,26462,"gp_mid",-94.44,46.09,"130",1,51.9,"ypresian"
"31764",79074,"col","",68.050003,30.816668,"Nisai Group (lower)",NA,"",52,"Ypresian","",56,47.8,26170,"gp_mid",69.42,3.64,"501",1,51.9,"ypresian"
"31886",79320,"col","",13.95,45.599998,"Hrpelje-Kozina",NA,"",1,"Ypresian","",56,47.8,26586,"gp_mid",20.61,32.52,"307",1,51.9,"ypresian"
"32177",80360,"col","",-87.633247,31.913445,"Eocene Wilcox Bashi Marl",NA,"",1,"Ypresian","",56,47.8,26955,"gp_mid",-64.07,35.51,"109",1,51.9,"ypresian"
"32362",80764,"col","Hatchetigbee Bluff",-86.699997,31.533333,"ABu-3 Hatchetigbee",NA,"",28,"Ypresian","",56,47.8,124,"gp_mid",-63.25,34.94,"109",1,51.9,"ypresian"
"32363",80765,"col","Hatchetigbee Bluff",-88.216667,32.083332,"ACh-3 Hatchetigbee",NA,"",15,"Ypresian","",56,47.8,124,"gp_mid",-64.6,35.81,"101",1,51.9,"ypresian"
"32364",80766,"col","Hatchetigbee Bluff",-88.216667,32.083332,"ACh-4 Hatchetigbee",NA,"",24,"Ypresian","",56,47.8,124,"gp_mid",-64.6,35.81,"101",1,51.9,"ypresian"
"32365",80767,"col","Hatchetigbee Bluff",-88.216667,32.083332,"ACh-5 Hatchetigbee",NA,"",31,"Ypresian","",56,47.8,124,"gp_mid",-64.6,35.81,"101",1,51.9,"ypresian"
"32366",80776,"col","Hatchetigbee Bluff",-88.216667,32.083332,"ACh-6 Hatchetigbee",NA,"",28,"Ypresian","",56,47.8,124,"gp_mid",-64.6,35.81,"101",1,51.9,"ypresian"
"32367",80778,"col","Hatchetigbee Bluff",-88.216667,32.083332,"ACh-11 Hatchetigbee",NA,"",5,"Ypresian","",56,47.8,124,"gp_mid",-64.6,35.81,"101",1,51.9,"ypresian"
"32368",80779,"col","Hatchetigbee Bluff",-87.966667,31.916668,"ACl-1 Hatchetigbee",NA,"",42,"Ypresian","",56,47.8,124,"gp_mid",-64.4,35.59,"109",1,51.9,"ypresian"
"32369",80780,"col","Hatchetigbee Bluff",-87.966667,31.916668,"ACl-2 Hatchetigbee",NA,"",12,"Ypresian","",56,47.8,124,"gp_mid",-64.4,35.59,"109",1,51.9,"ypresian"
"32370",80785,"col","Hatchetigbee",-86.094002,31.364,"Pea River at Elba Dam (ACof-1)",NA,"",38,"Ypresian","",56,47.8,124,"gp_mid",-62.7,34.64,"109",1,51.9,"ypresian"
"32371",80786,"col","Hatchetigbee Bluff",-85.633331,31.450001,"ADa-1 Hatchetigbee",NA,"",6,"Ypresian","",56,47.8,124,"gp_mid",-62.21,34.61,"109",1,51.9,"ypresian"
"32372",80787,"col","Hatchetigbee Bluff",-85.133331,31.4,"AHe-5 Hatchetigbee",NA,"",7,"Ypresian","",56,47.8,124,"gp_mid",-61.73,34.45,"109",1,51.9,"ypresian"
"32373",80788,"col","Hatchetigbee Bluff",-87.366669,31.816668,"AMo-7 Hatchetigbee",NA,"",11,"Ypresian","",56,47.8,124,"gp_mid",-63.83,35.36,"109",1,51.9,"ypresian"
"32374",80789,"col","Hatchetigbee Bluff",-85.133331,31.4,"GEa-1 Hatchetigbee",NA,"",6,"Ypresian","",56,47.8,124,"gp_mid",-61.73,34.45,"109",1,51.9,"ypresian"
"32375",80790,"col","Hatchetigbee Bluff",-88.033333,31.066668,"AWa-1a Hatchetigbee",NA,"",2,"Ypresian","",56,47.8,124,"gp_mid",-64.74,34.79,"109",1,51.9,"ypresian"
"32376",80791,"col","Hatchetigbee Bluff",-88.033333,31.066668,"AWa-1b Hatchetigbee",NA,"",19,"Ypresian","",56,47.8,124,"gp_mid",-64.74,34.79,"109",1,51.9,"ypresian"
"32377",80792,"col","Hatchetigbee Bluff",-88.033333,31.066668,"AWa-1c Hatchetigbee",NA,"",56,"Ypresian","",56,47.8,124,"gp_mid",-64.74,34.79,"109",1,51.9,"ypresian"
"32383",80834,"col","Calcares marins à alvéolines",2.6,43.333332,"Felines-Minervois",NA,"",7,"Ypresian","",56,47.8,26603,"gp_mid",9.03,34.44,"305",1,51.9,"ypresian"
"32430",80978,"col","Manasquan",-74.824997,39.900002,"Medford (Wister collection)",NA,"",2,"Ypresian","",56,47.8,27244,"gp_mid",-48.6,40.25,"109",1,51.9,"ypresian"
"32456",81023,"col","Indio",-99.525002,26.27,"Agua Leguas, near Loma Camales airplane station",NA,"",1,"Ypresian","",56,47.8,27257,"gp_mid",-77.91,32.64,"101",1,51.9,"ypresian"
"32457",81024,"col","Bigford",-99.25,25.975,"USGS 13262, southwest of Estacion Aldamas",NA,"",1,"Ypresian","",56,47.8,27257,"gp_mid",-77.71,32.29,"101",1,51.9,"ypresian"
"32470",81058,"col","Chiampo Marble",11.283333,45.549999,"Middle Chiampo Valley [lower Chiampo Marble]",NA,"",4,"Ypresian","",56,47.8,27275,"gp_mid",18.62,33.36,"307",1,51.9,"ypresian"
"32854",81764,"col","Auradu",45.166668,10.383333,"""Camp 7"", Biyo Gora section",NA,"",4,"Ypresian","",56,47.8,27514,"gp_mid",43.6,-5.07,"709",1,51.9,"ypresian"
"32855",81765,"col","Auradu",45.166668,10.383333,"Loc. 36, Biyo Gora section",NA,"",1,"Ypresian","",56,47.8,27514,"gp_mid",43.6,-5.07,"709",1,51.9,"ypresian"
"32856",81766,"col","Auradu",45.166668,10.383333,"Loc. 42, Biyo Gora section",NA,"",1,"Ypresian","",56,47.8,27514,"gp_mid",43.6,-5.07,"709",1,51.9,"ypresian"
"32857",81767,"col","Auradu",45.166668,10.383333,"Loc. 45, Biyo Gora section",NA,"",1,"Ypresian","",56,47.8,27514,"gp_mid",43.6,-5.07,"709",1,51.9,"ypresian"
"32858",81768,"col","Auradu",45.416668,10.466667,"Loc. 66, Allahkajid section",NA,"",3,"Ypresian","",56,47.8,27514,"gp_mid",43.84,-4.99,"709",1,51.9,"ypresian"
"32859",81770,"col","Auradu",46.349998,10.033333,"Loc. 110/172, Dinasyu section",NA,"",2,"Ypresian","",56,47.8,27514,"gp_mid",44.77,-5.43,"709",1,51.9,"ypresian"
"32860",81771,"col","Auradu",45.650002,10.433333,"Loc. 85, Bihen Gaha section",NA,"",1,"Ypresian","",56,47.8,27514,"gp_mid",44.07,-5.03,"709",1,51.9,"ypresian"
"32861",81772,"col","Auradu",46.466667,10.15,"Loc. 117/187, Habel Reren section",NA,"",1,"Ypresian","",56,47.8,27514,"gp_mid",44.88,-5.31,"709",1,51.9,"ypresian"
"32862",81773,"col","Auradu",46.466667,9.883333,"Loc. 157, Garasgoi Hill section",NA,"",1,"Ypresian","",56,47.8,27514,"gp_mid",44.88,-5.58,"709",1,51.9,"ypresian"
"32877",81846,"col","La Meseta",-56.672001,-64.260002,"CV 86-05, Cross Valley",NA,"",4,"Ypresian","",56,47.8,469,"gp_mid",-67.48,-61.89,"803",1,51.9,"ypresian"
"32892",81880,"col","Nanjemoy",-76.991112,38.398888,"Popes Creek (Johns Hopkins collection)",NA,"",7,"Ypresian","",56,47.8,54246,"gp_mid",-51.27,39.31,"109",1,51.9,"ypresian"
"32990",82038,"col","Cardabia",116.300003,-24.966667,"One Tree Hill, Giralia-Cardabia Range",NA,"",2,"Ypresian","",56,47.8,18233,"gp_mid",115.84,-51.9,"801",1,51.9,"ypresian"
"33926",83313,"col","",-6.566667,32.866669,"Mrah Iaresh",NA,"Merra El Arech",4,"Ypresian","",56,47.8,27976,"gp_mid",0.06,23.22,"707",1,51.9,"ypresian"
"34267",83809,"col","Hatchetigbee Bluff",-88.216667,32.083332,"Spear Creek (H76-35-1) Bulk 1",NA,"",23,"Ypresian","",56,47.8,42,"gp_mid",-64.6,35.81,"101",1,51.9,"ypresian"
"34268",83810,"col","Hatchetigbee Bluff",-88.216667,32.083332,"Spear Creek (H76-35-1) Bulk 2",NA,"",22,"Ypresian","",56,47.8,42,"gp_mid",-64.6,35.81,"101",1,51.9,"ypresian"
"34269",83811,"col","Hatchetigbee Bluff",-88.216667,32.083332,"Spear Creek (H76-35-2) Bulk 1",NA,"",25,"Ypresian","",56,47.8,42,"gp_mid",-64.6,35.81,"101",1,51.9,"ypresian"
"34270",83812,"col","Hatchetigbee Bluff",-88.216667,32.083332,"Spear Creek (H76-35-2) Bulk2",NA,"",12,"Ypresian","",56,47.8,42,"gp_mid",-64.6,35.81,"101",1,51.9,"ypresian"
"34271",83826,"col","",-97.514999,30.168333,"Highway 71",NA,"",3,"Early Eocene","",55.8,48.6,28099,"gp_mid",-74.7,36,"101",1,52.2,"ypresian"
"34366",83949,"col","Reklaw",-94.98333,31.85,"Reklaw-locality 1",NA,"",19,"Early Eocene","",55.8,48.6,495,"gp_mid",-71.56,37.08,"101",1,52.2,"ypresian"
"34367",84337,"col","Reklaw",-96.716667,30.799999,"Reklaw-locality 3",NA,"",186,"Ypresian","",56,47.8,495,"gp_mid",-73.68,36.44,"101",1,51.9,"ypresian"
"34368",83950,"col","Reklaw",-97.262779,30.011667,"Reklaw-locality 2",NA,"",190,"Ypresian","",56,47.8,495,"gp_mid",-74.49,35.79,"101",1,51.9,"ypresian"
"34379",83972,"col","",-16.516666,14.716667,"Guitir, Diourbel",NA,"",1,"Ypresian","",56,47.8,28131,"gp_mid",NA,NA,"coordinates not computable using this model",1,51.9,"ypresian"
"34382",83982,"col","",-0.245,18.870001,"Asselar, Kidal",NA,"",1,"Early Eocene","",55.8,48.6,28131,"gp_mid",2.57,8.32,"714",1,52.2,"ypresian"
"34387",83987,"col","Landana",12.135,-5.225,"Bed 26, Landana, Kabinda",NA,"",1,"Ypresian","",56,47.8,28131,"gp_mid",10.19,-17.62,"701",1,51.9,"ypresian"
"34393",83992,"col","",24.483334,-6.133333,"Sassa-Zao [Nautiloidea]",NA,"",1,"Early Eocene","",55.8,48.6,28131,"gp_mid",22.91,-20.3,"701",1,52.2,"ypresian"
"34547",84325,"col","Reklaw",-97.25,30,"Reklaw-locality 6",NA,"",75,"Ypresian","",56,47.8,495,"gp_mid",-74.48,35.78,"101",1,51.9,"ypresian"
"34594",84460,"col","Fur",8.75,56.833332,"Fur Formation",NA,"",9,"Ypresian","",56,47.8,28303,"gp_mid",15.36,47.67,"302",1,51.9,"ypresian"
"35106",85229,"col","London Clay",1.283333,51.849998,"Walton-on-the-Naze, general",NA,"",9,"Ypresian","",56,47.8,28680,"gp_mid",8.7,43,"315",1,51.9,"ypresian"
"35358",85738,"col","Lecheria Limestone",-92.916664,16.9,"Soyalo road section",NA,"",9,"Early Eocene","",55.8,48.6,8422,"gp_mid",-73.58,22.12,"205",1,52.2,"ypresian"
"36039",86944,"col","Negritos",-81.303612,-4.646667,"Negritos, Negritos Formation",NA,"",4,"Early Eocene","",55.8,48.6,29246,"gp_mid",-65.22,-5.08,"201",1,52.2,"ypresian"
"36743",87834,"col","",-88.050003,31.933332,"Woods Bluff",NA,"",18,"Early Eocene","",55.8,48.6,13490,"gp_mid",-64.48,35.63,"101",1,52.2,"ypresian"
"36744",87835,"col","Hatchetigbee Bluff",-88.099998,32.049999,"Tuscahoma Landing [Hatchetigbee Bluff]",NA,"",1,"Ypresian","",56,47.8,13490,"gp_mid",-64.49,35.75,"101",1,51.9,"ypresian"
"36789",87890,"col","",-6.575,32.866669,"Grand Daoui area, Ypresian",NA,"",2,"Ypresian","",56,47.8,46465,"gp_mid",0.05,23.22,"707",1,51.9,"ypresian"
"37046",88277,"col","",-68.933334,12.116667,"Seroe Mainchi, St. Joris Bay",NA,"",9,"Early Eocene","",55.8,48.6,29641,"gp_mid",-51,10.15,"203",1,52.2,"ypresian"
"37117",88360,"col","Negritos",-81.304726,-4.653889,"Negritos [Negritos Fm]",86944,"",6,"Early Eocene","",55.8,48.6,17609,"gp_mid",-65.22,-5.09,"201",1,52.2,"ypresian"
"37147",88393,"col","Negritos",-81.091393,-4.689722,"La Brea [Negritos Fm]",86944,"",3,"Early Eocene","",55.8,48.6,17609,"gp_mid",-65.01,-5.15,"201",1,52.2,"ypresian"
"37975",89868,"col","Hatchetigbee Bluff",-88.683334,32.366669,"MsLa-19 Red Hot Truck Stop",NA,"",31,"Ypresian","",56,47.8,29915,"gp_mid",-64.97,36.19,"101",1,51.9,"ypresian"
"37978",89872,"col","Hatchetigbee Bluff",-88.683334,32.366669,"Gallagher Creek",NA,"",42,"Ypresian","",56,47.8,29915,"gp_mid",-64.97,36.19,"101",1,51.9,"ypresian"
"37979",89873,"col","Hatchetigbee Bluff",-88.050003,31.933332,"PRI 791",NA,"",36,"Ypresian","",56,47.8,29915,"gp_mid",-64.48,35.63,"101",1,51.9,"ypresian"
"37982",89946,"col","Hatchetigbee Bluff",-86.083336,31.35,"ACof Bashi",NA,"ACof-1 of Toulmin, 1977",32,"Ypresian","",56,47.8,29915,"gp_mid",-62.69,34.62,"109",1,51.9,"ypresian"
"37984",89948,"col","Reklaw",-97.300003,30.1,"David's Bottom",NA,"",23,"Early Eocene","",55.8,48.6,29915,"gp_mid",-74.5,35.89,"101",1,52.2,"ypresian"
"37985",89949,"col","Sabinetown Bluff",-93,32.900002,"Sabinetown Bluff",NA,"NPL 4685",21,"Ypresian","",56,47.8,29915,"gp_mid",-69.18,37.66,"101",1,51.9,"ypresian"
"38029",90028,"col","Hatchetigbee Bluff",-88.433334,32.25,"MsLa21 Rep 1",NA,"",19,"Ypresian","",56,47.8,29915,"gp_mid",-64.76,36.02,"101",1,51.9,"ypresian"
"38030",90029,"col","Hatchetigbee Bluff",-88.433334,32.25,"MsLa21 Rep 2",NA,"",19,"Ypresian","",56,47.8,29915,"gp_mid",-64.76,36.02,"101",1,51.9,"ypresian"
"38031",90030,"col","Hatchetigbee Bluff",-88.433334,32.25,"MsLa21 Rep 3",NA,"",24,"Ypresian","",56,47.8,29915,"gp_mid",-64.76,36.02,"101",1,51.9,"ypresian"
"38033",90038,"col","Hatchetigbee Bluff",-88.216667,32.083332,"AlChBu Rep 1",NA,"",23,"Ypresian","",56,47.8,29915,"gp_mid",-64.6,35.81,"101",1,51.9,"ypresian"
"38034",90039,"col","Hatchetigbee Bluff",-88.216667,32.083332,"AlChBu Rep 2",NA,"",25,"Ypresian","",56,47.8,29915,"gp_mid",-64.6,35.81,"101",1,51.9,"ypresian"
"38035",90040,"col","Hatchetigbee Bluff",-88.216667,32.083332,"AlChBu Rep 3",NA,"",20,"Ypresian","",56,47.8,29915,"gp_mid",-64.6,35.81,"101",1,51.9,"ypresian"
"38044",90092,"col","Lookingglass",-124.01667,42.566666,"Snout Creek",NA,"Agness; UOMNH Fossil Location #2594",4,"Ypresian","",56,47.8,30217,"gp_mid",-95.67,50.5,"129",1,51.9,"ypresian"
"38052",90143,"col","Hatchetigbee Bluff",-86,31.316668,"Wise Rep 1",NA,"",20,"Ypresian","",56,47.8,29915,"gp_mid",-62.62,34.57,"109",1,51.9,"ypresian"
"38053",90144,"col","Hatchetigbee Bluff",-86,31.316668,"Wise Rep 2",NA,"",19,"Ypresian","",56,47.8,29915,"gp_mid",-62.62,34.57,"109",1,51.9,"ypresian"
"38054",90145,"col","Hatchetigbee Bluff",-86,31.316668,"Wise Rep 3",NA,"",20,"Ypresian","",56,47.8,29915,"gp_mid",-62.62,34.57,"109",1,51.9,"ypresian"
"38055",90146,"col","Hatchetigbee Bluff",-85.633331,31.450001,"Overpass Rep 1",NA,"Locality ADa-1 of Toulmin, 1977",12,"Ypresian","",56,47.8,29915,"gp_mid",-62.21,34.61,"109",1,51.9,"ypresian"
"38056",90147,"col","Hatchetigbee Bluff",-85.633331,31.450001,"Overpass Rep 2",NA,"Locality ADa-1 of Toulmin, 1977",12,"Ypresian","",56,47.8,29915,"gp_mid",-62.21,34.61,"109",1,51.9,"ypresian"
"38057",90148,"col","Hatchetigbee Bluff",-85.633331,31.450001,"Overpass Rep 3",NA,"Locality ADa-1 of Toulmin, 1977",10,"Ypresian","",56,47.8,29915,"gp_mid",-62.21,34.61,"109",1,51.9,"ypresian"
"38231",90453,"col","Sabinetown Bluff",-93.699997,31.4,"PRI 62",NA,"",13,"Ypresian","",56,47.8,11845,"gp_mid",-70.39,36.37,"101",1,51.9,"ypresian"
"38251",90473,"col","Nanjemoy",-77.166664,37.650002,"PRI  843",NA,"",14,"Early Eocene","",55.8,48.6,11845,"gp_mid",-51.72,38.63,"109",1,52.2,"ypresian"
"38364",90609,"col","Hatchetigbee Bluff",-88.083336,31.65,"PRI 2189, Hatchetigbee Bluff",NA,"",30,"Ypresian","",56,47.8,11845,"gp_mid",-64.6,35.36,"109",1,51.9,"ypresian"
"38385",90653,"col","Reklaw",-97.315277,30.110556,"PRI 3238",NA,"",1,"Ypresian","",56,47.8,11845,"gp_mid",-74.51,35.9,"101",1,51.9,"ypresian"
"38386",90655,"col","",-94.498886,31.213612,"PRI 744",NA,"",0,"Early Eocene","",55.8,48.6,11845,"gp_mid",-71.27,36.36,"101",1,52.2,"ypresian"
"38511",90892,"col","Lefkara",33.666668,35.083332,"Yigitler section, sample YK-71 [Lefkara Fm]",NA,"",35,"Ypresian","",56,47.8,19792,"gp_mid",NA,NA,"coordinates not computable using this model",1,51.9,"ypresian"
"38512",90893,"col","Lefkara",33.666668,35.083332,"Yigitler section, sample YK-37 [Lefkara Fm]",NA,"",43,"Ypresian","",56,47.8,19792,"gp_mid",NA,NA,"coordinates not computable using this model",1,51.9,"ypresian"
"38513",90894,"col","Lefkara",33.666668,35.083332,"Yigitler section, sample YK-39 [Lefkara Fm]",NA,"",41,"Ypresian","",56,47.8,19792,"gp_mid",NA,NA,"coordinates not computable using this model",1,51.9,"ypresian"
"38606",91111,"col","Hatchetigbee Bluff",-87.515282,31.918333,"PRI 2188",NA,"",16,"Ypresian","",56,47.8,11845,"gp_mid",-63.94,35.49,"109",1,51.9,"ypresian"
"38612",91117,"col","Nanjemoy",-76.991112,38.398888,"PRI 2251",NA,"",33,"Ypresian","",56,47.8,11845,"gp_mid",-51.27,39.31,"109",1,51.9,"ypresian"
"38616",91121,"col","Nanjemoy",-77.276947,37.317501,"PRI 2290",NA,"",3,"Early Eocene","",55.8,48.6,11845,"gp_mid",-51.95,38.34,"109",1,52.2,"ypresian"
"38617",91122,"col","Nanjemoy",-77.191109,38.171665,"PRI 2295",NA,"",1,"Early Eocene","",55.8,48.6,11845,"gp_mid",-51.55,39.14,"109",1,52.2,"ypresian"
"38618",91123,"col","Nanjemoy",-77.236061,37.29464,"PRI 1267",NA,"Evergreen Plantation",5,"Ypresian","",56,47.8,28099,"gp_mid",-51.92,38.31,"109",1,51.9,"ypresian"
"38731",91312,"col","Subathu",78.607224,29.807777,"Dogadda",NA,"Dugadda",2,"Ypresian","",56,47.8,30703,"gp_mid",77.82,-0.03,"501",1,51.9,"ypresian"
"38734",91315,"col","Subathu",78.341942,30.082779,"Nilkanth",NA,"Neelkanth",2,"Ypresian","",56,47.8,30703,"gp_mid",77.67,0.29,"501",1,51.9,"ypresian"
"38774",91358,"col","London Clay",0.314722,51.529999,"Ockendon Clay Plant",NA,"",1,"Ypresian","",56,47.8,30734,"gp_mid",7.84,42.73,"315",1,51.9,"ypresian"
"38776",91361,"col","Sables de Mons-en-Peleve",4.443889,51.156666,"Edegem, Ypresian",NA,"",1,"Ypresian","",56,47.8,30737,"gp_mid",11.29,42.16,"315",1,51.9,"ypresian"
"38778",91363,"col","",-5.85,34.316666,"Ouled Abdoun Basin Recette 4, Ypresian",NA,"",7,"Ypresian","",56,47.8,30740,"gp_mid",NA,NA,"coordinates not computable using this model",1,51.9,"ypresian"
"38901",91542,"col","Hatchetigbee Bluff",-87.754723,31.934999,"M 10",NA,"",5,"Ypresian","",56,47.8,11845,"gp_mid",-64.18,35.56,"109",1,51.9,"ypresian"
"38903",91544,"col","Hatchetigbee Bluff",-88.221947,32.089722,"M 1",NA,"",2,"Ypresian","",56,47.8,11845,"gp_mid",-64.6,35.82,"101",1,51.9,"ypresian"
"38910",91550,"col","Nanjemoy",-77.018333,38.513611,"M 107",NA,"",12,"Ypresian","",56,47.8,11845,"gp_mid",-51.25,39.43,"109",1,51.9,"ypresian"
"38911",91551,"col","Nanjemoy",-76.972221,38.700558,"M 108",NA,"",7,"Ypresian","",56,47.8,11845,"gp_mid",-51.13,39.59,"109",1,51.9,"ypresian"
"38912",91552,"col","Nanjemoy",-76.809723,38.756668,"M 109",NA,"",3,"Ypresian","",56,47.8,11845,"gp_mid",-50.95,39.61,"109",1,51.9,"ypresian"
"38944",91602,"col","Crescent",-123.633331,48.150002,"UCMP Loc. A-3206 - Observatory Point [Crescent Fm]",NA,"",7,"Ypresian","",56,47.8,30879,"gp_mid",-93.52,55.94,"129",1,51.9,"ypresian"
"38945",91603,"col","Crescent",-123.566666,48.049999,"UCMP Loc. A-3280 - Elwha River [Crescent Fm]",NA,"",2,"Ypresian","",56,47.8,30879,"gp_mid",-93.48,55.83,"129",1,51.9,"ypresian"
"38946",91604,"col","Crescent",-123.73333,48.150002,"UCMP Loc. A-3212 - Port Crescent [Crescent Fm]",NA,"",1,"Ypresian","",56,47.8,30879,"gp_mid",-93.64,55.95,"129",1,51.9,"ypresian"
"39039",91718,"col","Nanjemoy",-76.972221,38.700558,"M 123",NA,"",1,"Ypresian","",56,47.8,11845,"gp_mid",-51.13,39.59,"109",1,51.9,"ypresian"
"39040",91719,"col","Hatchetigbee Bluff",-87.754723,31.934999,"M 12",NA,"",8,"Ypresian","",56,47.8,11845,"gp_mid",-64.18,35.56,"109",1,51.9,"ypresian"
"39044",91725,"col","Hatchetigbee Bluff",-86.06778,31.414722,"M 13",NA,"",2,"Ypresian","",56,47.8,11845,"gp_mid",-62.66,34.68,"109",1,51.9,"ypresian"
"39046",91727,"col","Hatchetigbee Bluff",-88.703613,32.364445,"M 137",NA,"",1,"Ypresian","",56,47.8,11845,"gp_mid",-65,36.19,"101",1,51.9,"ypresian"
"39048",91729,"col","Hatchetigbee Bluff",-88.703613,32.364445,"M 138",NA,"",2,"Ypresian","",56,47.8,11845,"gp_mid",-65,36.19,"101",1,51.9,"ypresian"
"39049",91731,"col","Hatchetigbee Bluff",-86.06778,31.414722,"M 14",NA,"",2,"Ypresian","",56,47.8,11845,"gp_mid",-62.66,34.68,"109",1,51.9,"ypresian"
"39066",91759,"col","Manasquan",-74.16861,40.196388,"M 160",NA,"",14,"Early Eocene","",55.8,48.6,11845,"gp_mid",-47.86,40.38,"109",1,52.2,"ypresian"
"39100",91795,"col","Hatchetigbee Bluff",-88.221947,32.089722,"M 2",NA,"",5,"Ypresian","",56,47.8,11845,"gp_mid",-64.6,35.82,"101",1,51.9,"ypresian"
"39110",91805,"col","Reklaw",-97.654724,29.798611,"M 210",NA,"",1,"Ypresian","",56,47.8,11845,"gp_mid",-74.96,35.67,"101",1,51.9,"ypresian"
"39111",91806,"col","Reklaw",-97.50528,29.665833,"M 211",NA,"",1,"Ypresian","",56,47.8,11845,"gp_mid",-74.84,35.51,"101",1,51.9,"ypresian"
"39147",91843,"col","Sabinetown Bluff",-93.845833,31.432501,"M 258",NA,"",1,"Ypresian","",56,47.8,11845,"gp_mid",-70.53,36.43,"101",1,51.9,"ypresian"
"39148",91844,"col","Sabinetown Bluff",-93.708611,31.403055,"M 259",NA,"",17,"Ypresian","",56,47.8,11845,"gp_mid",-70.4,36.37,"101",1,51.9,"ypresian"
"39149",91845,"col","Sabinetown Bluff",-93.708611,31.403055,"M 260",NA,"LGS 61",39,"Ypresian","",56,47.8,11845,"gp_mid",-70.4,36.37,"101",1,51.9,"ypresian"
"39151",91847,"col","Sabinetown Bluff",-93.845833,31.432501,"M 266",NA,"LGS 62",3,"Ypresian","",56,47.8,11845,"gp_mid",-70.53,36.43,"101",1,51.9,"ypresian"
"39152",91848,"col","Sabinetown Bluff",-93.845833,31.432501,"M 267",NA,"LGS 65",5,"Ypresian","",56,47.8,11845,"gp_mid",-70.53,36.43,"101",1,51.9,"ypresian"
"39162",91858,"col","Hatchetigbee Bluff",-87.474998,32.141109,"M 28",NA,"",2,"Ypresian","",56,47.8,11845,"gp_mid",-63.83,35.7,"101",1,51.9,"ypresian"
"39165",91861,"col","Nanjemoy",-77.184441,38.268055,"M 284",NA,"",6,"Ypresian","",56,47.8,11845,"gp_mid",-51.5,39.23,"109",1,51.9,"ypresian"
"39166",91862,"col","Nanjemoy",-77.184441,38.268055,"M 285",NA,"",1,"Ypresian","",56,47.8,11845,"gp_mid",-51.5,39.23,"109",1,51.9,"ypresian"
"39167",91863,"col","Nanjemoy",-77.370277,37.766666,"M 287",NA,"",1,"Ypresian","",56,47.8,11845,"gp_mid",-51.87,38.79,"109",1,51.9,"ypresian"
"39172",91868,"col","Hatchetigbee Bluff",-88.163055,32.093887,"M 3",NA,"",5,"Ypresian","",56,47.8,11845,"gp_mid",-64.54,35.81,"101",1,51.9,"ypresian"
"39201",91898,"col","Nanjemoy",-77.184441,38.268055,"M 286",NA,"",0,"Ypresian","",56,47.8,11845,"gp_mid",-51.5,39.23,"109",1,51.9,"ypresian"
"39323",92029,"col","Hatchetigbee Bluff",-87.754723,31.934999,"M 299",NA,"",2,"Ypresian","",56,47.8,11845,"gp_mid",-64.18,35.56,"109",1,51.9,"ypresian"
"39417",92166,"col","Nanjemoy",-76.932503,38.719166,"M 345",NA,"",1,"Ypresian","",56,47.8,11845,"gp_mid",-51.09,39.6,"109",1,51.9,"ypresian"
"39419",92168,"col","Nanjemoy",-76.972504,38.700558,"M 737",NA,"",1,"Ypresian","",56,47.8,11845,"gp_mid",-51.13,39.59,"109",1,51.9,"ypresian"
"39420",92169,"col","Nanjemoy",-76.991112,38.398888,"M 98",NA,"",1,"Ypresian","",56,47.8,11845,"gp_mid",-51.27,39.31,"109",1,51.9,"ypresian"
"39421",92170,"col","Nanjemoy",-76.991112,38.398888,"M 99",NA,"",2,"Ypresian","",56,47.8,11845,"gp_mid",-51.27,39.31,"109",1,51.9,"ypresian"
"39506",92268,"col","Hatchetigbee Bluff",-87.754723,31.934999,"M 8",NA,"",2,"Ypresian","",56,47.8,11845,"gp_mid",-64.18,35.56,"109",1,51.9,"ypresian"
"39507",92269,"col","Hatchetigbee Bluff",-87.754723,31.934999,"M 9",NA,"",26,"Ypresian","",56,47.8,11845,"gp_mid",-64.18,35.56,"109",1,51.9,"ypresian"
"39514",92277,"col","Pendleton Ferry",-93.484169,31.56889,"LGS 50",NA,"",1,"Ypresian","",56,47.8,35012,"gp_mid",-70.11,36.48,"101",1,51.9,"ypresian"
"39515",92278,"col","Pendleton Ferry",-93.574997,31.352777,"LGS 47",NA,"",1,"Ypresian","",56,47.8,35012,"gp_mid",-70.27,36.29,"101",1,51.9,"ypresian"
"39530",92296,"col","Hatchetigbee Bluff",-88.221947,32.089722,"PRI 795",NA,"",1,"Ypresian","",56,47.8,11845,"gp_mid",-64.6,35.82,"101",1,51.9,"ypresian"
"39546",92345,"col","Hatchetigbee Bluff",-87.735832,31.91361,"PRI 1593",NA,"",13,"Ypresian","",56,47.8,11845,"gp_mid",-64.17,35.54,"109",1,51.9,"ypresian"
"39550",92349,"col","Hatchetigbee Bluff",-87.324722,31.528055,"PRI 753",NA,"",18,"Ypresian","",56,47.8,11845,"gp_mid",-63.88,35.07,"109",1,51.9,"ypresian"
"39554",92353,"col","Hatchetigbee Bluff",-87.735832,31.91361,"PRI 864",NA,"",5,"Ypresian","",56,47.8,11845,"gp_mid",-64.17,35.54,"109",1,51.9,"ypresian"
"39568",92375,"col","Hatchetigbee",-88.063004,31.937,"Woods Bluff (PRI 791)",NA,"",84,"Ypresian","",56,47.8,11845,"gp_mid",-64.49,35.63,"101",1,51.9,"ypresian"
"39583",92390,"col","Hatchetigbee Bluff",-87.735832,31.91361,"PRI 3146",NA,"",5,"Ypresian","",56,47.8,11845,"gp_mid",-64.17,35.54,"109",1,51.9,"ypresian"
"39585",92392,"col","Reklaw",-97.264168,30.011389,"PRI 3237",NA,"",3,"Ypresian","",56,47.8,11845,"gp_mid",-74.49,35.79,"101",1,51.9,"ypresian"
"40164",93745,"col","Negritos",-80.962776,-3.957778,"CAS Loc. 334, Punto Sal Chico [Negritos Fm]",NA,"",1,"Early Eocene","",55.8,48.6,31881,"gp_mid",-64.8,-4.43,"201",1,52.2,"ypresian"
"40165",93746,"col","Negritos",-80.962776,-3.957778,"CAS Loc. 335, Punto Sal Chico [Negritos Fm]",NA,"",1,"Early Eocene","",55.8,48.6,31881,"gp_mid",-64.8,-4.43,"201",1,52.2,"ypresian"
"40174",93756,"col","Negritos",-80.304726,-4.046389,"CAS Loc. 345, Negritos [Negritos Fm]",NA,"",1,"Early Eocene","",55.8,48.6,31881,"gp_mid",-64.16,-4.6,"201",1,52.2,"ypresian"
"40177",93759,"col","Negritos",-80.733612,-3.706667,"CAS Loc. 850, Quebrada Mancora [Negritos Fm]",NA,"Arthur May Coll. 5",6,"Early Eocene","",55.8,48.6,31881,"gp_mid",-64.54,-4.21,"201",1,52.2,"ypresian"
"40182",93764,"col","Negritos",-81.056664,-4.2,"CAS Loc. 855, Cabo Blanco [Negritos Fm]",NA,"Arthur May Coll. No. 16",1,"Early Eocene","",55.8,48.6,31881,"gp_mid",-64.92,-4.66,"201",1,52.2,"ypresian"
"40183",93765,"col","Negritos",-81.056664,-4.2,"CAS Loc. 855, Cabo Blanco [Negritos Fm]",NA,"Arthur May Coll. No. 16",1,"Early Eocene","",55.8,48.6,31881,"gp_mid",-64.92,-4.66,"201",1,52.2,"ypresian"
"40185",93767,"col","Negritos",-80.304726,-4.046389,"CAS Loc. 861, Negritos [Negritos Fm]",NA,"Arthur May Coll. No. 25",1,"Early Eocene","",55.8,48.6,31881,"gp_mid",-64.16,-4.6,"201",1,52.2,"ypresian"
"40363",94022,"col","Lizard Springs",-61.133331,10.216667,"Lizard Springs Sample Barr 6972",NA,"River Ampelu",9,"Early Eocene","",55.8,48.6,31947,"gp_mid",-43.52,7.4,"201",1,52.2,"ypresian"
"40364",94023,"col","Lizard Springs",-61.283333,10.083333,"Carmen Jones Ravine Sample Hawkins 1831",NA,"Moruga",3,"Early Eocene","",55.8,48.6,31947,"gp_mid",-43.69,7.29,"201",1,52.2,"ypresian"
"40365",94024,"col","Lizard Springs",-61.599998,10.216667,"Boodoosingh Well 1: 6892'-6909'",NA,"",4,"Early Eocene","",55.8,48.6,31947,"gp_mid",-43.98,7.45,"201",1,52.2,"ypresian"
"40374",94033,"col","Reklaw",-97.26667,30.016666,"Ridge Creek Sample A",NA,"",1,"Early Eocene","",55.8,48.6,31950,"gp_mid",-74.49,35.8,"101",1,52.2,"ypresian"
"40375",94034,"col","Reklaw",-97.26667,30.016666,"Ridge Creek Sample B",NA,"",4,"Early Eocene","",55.8,48.6,31950,"gp_mid",-74.49,35.8,"101",1,52.2,"ypresian"
"40376",94035,"col","Reklaw",-97.26667,30.016666,"Ridge Creek Sample C",NA,"",9,"Early Eocene","",55.8,48.6,31950,"gp_mid",-74.49,35.8,"101",1,52.2,"ypresian"
"40377",94036,"col","Reklaw",-97.26667,30.016666,"Ridge Creek Sample D",NA,"",2,"Early Eocene","",55.8,48.6,31950,"gp_mid",-74.49,35.8,"101",1,52.2,"ypresian"
"40378",94037,"col","Reklaw",-97.26667,30.016666,"Ridge Creek Sample E",NA,"",3,"Early Eocene","",55.8,48.6,31950,"gp_mid",-74.49,35.8,"101",1,52.2,"ypresian"
"40379",94038,"col","Reklaw",-97.26667,30.016666,"Ridge Creek Sample F",NA,"",3,"Early Eocene","",55.8,48.6,31950,"gp_mid",-74.49,35.8,"101",1,52.2,"ypresian"
"40380",94039,"col","Clays of Ypres",4.283333,51.25,"Kallo Well 292.50-m. Level",NA,"",19,"Early Eocene","",55.8,48.6,31951,"gp_mid",11.16,42.26,"315",1,52.2,"ypresian"
"40436",94119,"col","Tiyon",67.834999,26.124722,"Tiyon Dhoro Section Sample No. 8",NA,"",10,"Ypresian","",56,47.8,31978,"gp_mid",67.65,-0.72,"501",1,51.9,"ypresian"
